[
  {
    "type": 1,
    "icao": "LIRZ",
    "lat": 43.098083625,
    "lon": 12.51397875,
    "communications": [
      {
        "type": 54,
        "frequency": 11810,
        "name": "Perugia TWR"
      },
      {
        "type": 55,
        "frequency": 12560,
        "name": "Perugia APP"
      }
    ],
    "elevation": 692,
    "tower": true,
    "name": "PERUGIA S.Francesco",
    "runways": [
      {
        "type": 100,
        "width": 45.5,
        "surfaceType": null,
        "numberStart": "01",
        "numberEnd": "19",
        "latStart": 43.08848339,
        "lonStart": 12.51062635,
        "latEnd": 43.10768386,
        "lonEnd": 12.51733115,
        "length": 0,
        "surfacetype": 1
      }
    ],
    "id": 19328
  },
  {
    "type": 1,
    "icao": "SMTO",
    "lat": 43.94977667,
    "lon": 12.511105775,
    "communications": [
      {
        "type": 54,
        "frequency": 11807,
        "name": "San Marino Radio"
      }
    ],
    "elevation": 787,
    "tower": true,
    "name": "San Marino Aeroclub",
    "runways": [
      {
        "type": 100,
        "width": 27.54,
        "surfaceType": null,
        "numberStart": "06",
        "numberEnd": "24",
        "latStart": 43.94774722,
        "lonStart": 12.51202091,
        "latEnd": 43.95180612,
        "lonEnd": 12.51019064,
        "length": 0,
        "surfacetype": 3
      }
    ],
    "id": 22816
  }
]