[
  {
    "type": 1,
    "icao": "SATC",
    "lat": -25.299999200000002,
    "lon": -41.514277905,
    "communications": [],
    "elevation": 196,
    "tower": true,
    "name": "Clorinda",
    "runways": [
      {
        "type": 100,
        "width": 14.33,
        "surfaceType": null,
        "numberStart": "01",
        "numberEnd": "19",
        "latStart": -25.30449769,
        "lonStart": -57.7330551,
        "latEnd": -25.29550071,
        "lonEnd": -57.7330551,
        "length": 0,
        "surfacetype": 2
      }
    ],
    "id": 5109
  },
  {
    "type": 1,
    "icao": "SGAS",
    "lat": -25.23985,
    "lon": -41.3739,
    "communications": [
      {
        "type": 53,
        "frequency": 12190,
        "name": "GND"
      },
      {
        "type": 54,
        "frequency": 11810,
        "name": "ASUNCION TWR"
      },
      {
        "type": 55,
        "frequency": 11970,
        "name": "ASUNCION APP"
      },
      {
        "type": 55,
        "frequency": 12000,
        "name": "ASUNCION APP"
      }
    ],
    "elevation": 292,
    "tower": true,
    "name": "SILVIO PETTIROSSI INTL",
    "runways": [
      {
        "type": 100,
        "width": 46.02,
        "surfaceType": null,
        "numberStart": "02",
        "numberEnd": "20",
        "latStart": -25.254628,
        "lonStart": -57.522728,
        "latEnd": -25.225072,
        "lonEnd": -57.515542,
        "length": 0,
        "surfacetype": 1
      }
    ],
    "id": 22290
  }
]