[
  {
    "type": 1,
    "icao": "EPGM",
    "lat": 54.005518304999995,
    "lon": 37.909617225,
    "communications": [],
    "elevation": 410,
    "tower": true,
    "name": "Gizycko Mazury",
    "runways": [
      {
        "type": 100,
        "width": 38.4,
        "surfaceType": null,
        "numberStart": "11",
        "numberEnd": "29",
        "latStart": 54.00687513,
        "lonStart": 21.81507297,
        "latEnd": 54.00416148,
        "lonEnd": 21.82764491,
        "length": 0,
        "surfacetype": 3
      }
    ],
    "id": 10500
  },
  {
    "type": 1,
    "icao": "UMKK",
    "lat": 54.890053585,
    "lon": 37.73498289,
    "communications": [
      {
        "type": 50,
        "frequency": 12205,
        "name": "Kaliningrad ATIS"
      },
      {
        "type": 50,
        "frequency": 12247,
        "name": "Kaliningrad ATIS"
      },
      {
        "type": 55,
        "frequency": 12600,
        "name": "Kaliningrad Approach"
      },
      {
        "type": 55,
        "frequency": 12850,
        "name": "Kaliningrad Approach"
      },
      {
        "type": 54,
        "frequency": 12720,
        "name": "Kaliningrad Tower"
      },
      {
        "type": 54,
        "frequency": 12942,
        "name": "Kaliningrad Tower"
      }
    ],
    "elevation": 41,
    "tower": true,
    "name": "KHRABROVO",
    "runways": [
      {
        "type": 100,
        "width": 42,
        "surfaceType": null,
        "numberStart": "06",
        "numberEnd": "24",
        "latStart": 54.88568476,
        "lonStart": 20.57554337,
        "latEnd": 54.89442241,
        "lonEnd": 20.61003499,
        "length": 0,
        "surfacetype": 1
      }
    ],
    "id": 13347
  },
  {
    "type": 1,
    "icao": "EPKE",
    "lat": 54.047639999999994,
    "lon": 37.7341378975,
    "communications": [],
    "elevation": 449,
    "tower": true,
    "name": "Ketrzyn",
    "runways": [
      {
        "type": 100,
        "width": 50,
        "surfaceType": null,
        "numberStart": "07",
        "numberEnd": "25",
        "latStart": 54.0473602,
        "lonStart": 21.42168183,
        "latEnd": 54.0488998,
        "lonEnd": 21.42888376,
        "length": 0,
        "surfacetype": 3
      },
      {
        "type": 100,
        "width": 80,
        "surfaceType": null,
        "numberStart": "15",
        "numberEnd": "33",
        "latStart": 54.05165561,
        "lonStart": 21.42332557,
        "latEnd": 54.04264439,
        "lonEnd": 21.43048101,
        "length": 0,
        "surfacetype": 3
      }
    ],
    "id": 13793
  },
  {
    "type": 17,
    "icao": "UU19",
    "lat": 54.71501,
    "lon": 37.293345,
    "communications": [
      {
        "type": 54,
        "frequency": 11910,
        "name": "Zaokskie Prosory"
      }
    ],
    "elevation": 549,
    "tower": true,
    "name": "[H] Zaokskie Prostory",
    "runways": [
      {
        "type": 102,
        "width": 14.9,
        "surfaceType": 2,
        "numberStart": "H1",
        "numberEnd": null,
        "latStart": 54.71501,
        "lonStart": 37.293345,
        "latEnd": null,
        "lonEnd": null,
        "length": 14.9
      }
    ],
    "id": 33939
  }
]