[
  {
    "type": 1,
    "icao": "VTBT",
    "lat": 13.232828845,
    "lon": 100.95758359999999,
    "communications": [],
    "elevation": 71,
    "tower": true,
    "name": "Bang Phra",
    "runways": [
      {
        "type": 100,
        "width": 13.11,
        "surfaceType": null,
        "numberStart": "05",
        "numberEnd": "23",
        "latStart": 13.23026434,
        "lonStart": 100.95409614,
        "latEnd": 13.23539335,
        "lonEnd": 100.96107106,
        "length": 0,
        "surfacetype": 2
      }
    ],
    "id": 2185
  },
  {
    "type": 1,
    "icao": "VTBD",
    "lat": 13.91259668,
    "lon": 100.60679851249999,
    "communications": [
      {
        "type": 50,
        "frequency": 12640,
        "name": "ATIS"
      },
      {
        "type": 52,
        "frequency": 12040,
        "name": "CLNC DEL"
      },
      {
        "type": 52,
        "frequency": 12180,
        "name": "CLNC DEL"
      },
      {
        "type": 52,
        "frequency": 12595,
        "name": "CLNC DEL"
      },
      {
        "type": 52,
        "frequency": 12840,
        "name": "CLNC DEL"
      },
      {
        "type": 52,
        "frequency": 13340,
        "name": "CLNC DEL"
      },
      {
        "type": 53,
        "frequency": 12190,
        "name": "GND"
      },
      {
        "type": 53,
        "frequency": 12250,
        "name": "GND"
      },
      {
        "type": 54,
        "frequency": 11810,
        "name": "TWR"
      },
      {
        "type": 55,
        "frequency": 11910,
        "name": "APP"
      },
      {
        "type": 55,
        "frequency": 12170,
        "name": "APP"
      },
      {
        "type": 55,
        "frequency": 12550,
        "name": "ARR"
      }
    ],
    "elevation": 8,
    "tower": true,
    "name": "Bangkok Don Mueang Intl",
    "runways": [
      {
        "type": 100,
        "width": 60.05,
        "surfaceType": null,
        "numberStart": "03L",
        "numberEnd": "21R",
        "latStart": 13.897056,
        "lonStart": 100.596,
        "latEnd": 13.926389,
        "lonEnd": 100.612444,
        "length": 0,
        "surfacetype": 1
      },
      {
        "type": 100,
        "width": 45.11,
        "surfaceType": null,
        "numberStart": "03R",
        "numberEnd": "21L",
        "latStart": 13.89959866,
        "lonStart": 100.6016155,
        "latEnd": 13.92734306,
        "lonEnd": 100.61713455,
        "length": 0,
        "surfacetype": 1
      }
    ],
    "id": 2188
  },
  {
    "type": 1,
    "icao": "VTBS",
    "lat": 13.6804555175,
    "lon": 100.74751201749999,
    "communications": [
      {
        "type": 50,
        "frequency": 12780,
        "name": "SUVARNABHUMI AIRPORT"
      },
      {
        "type": 53,
        "frequency": 12165,
        "name": "GND"
      },
      {
        "type": 53,
        "frequency": 12175,
        "name": "GND"
      },
      {
        "type": 53,
        "frequency": 12195,
        "name": "GND"
      },
      {
        "type": 54,
        "frequency": 11820,
        "name": "TWR"
      },
      {
        "type": 54,
        "frequency": 11900,
        "name": "TWR"
      },
      {
        "type": 55,
        "frequency": 12470,
        "name": "SUVARNABHUMI ARR"
      },
      {
        "type": 55,
        "frequency": 12235,
        "name": "BANGKOK APP CTL"
      },
      {
        "type": 55,
        "frequency": 12435,
        "name": "BANGKOK APP CTL"
      }
    ],
    "elevation": 4,
    "tower": true,
    "name": "Bangkok Suvarnabhumi Intl",
    "runways": [
      {
        "type": 100,
        "width": 60.96,
        "surfaceType": null,
        "numberStart": "01R",
        "numberEnd": "19L",
        "latStart": 13.65632979,
        "lonStart": 100.75173386,
        "latEnd": 13.691349,
        "lonEnd": 100.76084429,
        "length": 0,
        "surfacetype": 1
      },
      {
        "type": 100,
        "width": 60.96,
        "surfaceType": null,
        "numberStart": "01L",
        "numberEnd": "19R",
        "latStart": 13.67087849,
        "lonStart": 100.7344998,
        "latEnd": 13.70326479,
        "lonEnd": 100.74297012,
        "length": 0,
        "surfacetype": 1
      }
    ],
    "id": 2189
  },
  {
    "type": 1,
    "icao": "VTW5",
    "lat": 13.540073995,
    "lon": 100.32937276,
    "communications": [
      {
        "type": 54,
        "frequency": 12365,
        "name": "Below 2000"
      }
    ],
    "elevation": 5,
    "tower": true,
    "name": "Best Ocean Park",
    "runways": [
      {
        "type": 100,
        "width": 21.03,
        "surfaceType": null,
        "numberStart": "16",
        "numberEnd": "34",
        "latStart": 13.54355199,
        "lonStart": 100.32835152,
        "latEnd": 13.536596,
        "lonEnd": 100.330394,
        "length": 0,
        "surfacetype": 1
      }
    ],
    "id": 2630
  },
  {
    "type": 1,
    "icao": "VTX7",
    "lat": 13.2359976075,
    "lon": 100.99486264499998,
    "communications": [],
    "elevation": 129,
    "tower": false,
    "name": "Chonburi Ultralights",
    "runways": [
      {
        "type": 100,
        "width": 10.97,
        "surfaceType": null,
        "numberStart": "05L",
        "numberEnd": "23R",
        "latStart": 13.23687649,
        "lonStart": 100.99599868,
        "latEnd": 13.23521402,
        "lonEnd": 100.99384988,
        "length": 0,
        "surfacetype": 3
      },
      {
        "type": 100,
        "width": 10.97,
        "surfaceType": null,
        "numberStart": "05",
        "numberEnd": "23",
        "latStart": 13.23714087,
        "lonStart": 100.996339,
        "latEnd": 13.23475905,
        "lonEnd": 100.99326302,
        "length": 0,
        "surfacetype": 1
      }
    ],
    "id": 4956
  },
  {
    "type": 1,
    "icao": "VTY9",
    "lat": 13.8253561,
    "lon": 100.735429395,
    "communications": [],
    "elevation": 10,
    "tower": false,
    "name": "Minburi",
    "runways": [
      {
        "type": 100,
        "width": 17.07,
        "surfaceType": null,
        "numberStart": "6",
        "numberEnd": "24",
        "latStart": 13.82476564,
        "lonStart": 100.73373975,
        "latEnd": 13.82594656,
        "lonEnd": 100.73711904,
        "length": 0,
        "surfacetype": 2
      }
    ],
    "id": 17261
  },
  {
    "type": 1,
    "icao": "VTW3",
    "lat": 13.833333,
    "lon": 100.333336,
    "communications": [],
    "elevation": 16,
    "tower": true,
    "name": "Nonthaburi",
    "runways": [
      {
        "type": 100,
        "width": 17.98,
        "surfaceType": null,
        "numberStart": "17",
        "numberEnd": "35",
        "latStart": 13.83466204,
        "lonStart": 100.33309465,
        "latEnd": 13.83200396,
        "lonEnd": 100.33357735,
        "length": 0,
        "surfacetype": 3
      }
    ],
    "id": 18397
  },
  {
    "type": 1,
    "icao": "VTT2",
    "lat": 13.091891539999999,
    "lon": 100.96865980999999,
    "communications": [],
    "elevation": 75,
    "tower": false,
    "name": "Sri Racha",
    "runways": [
      {
        "type": 100,
        "width": 24.99,
        "surfaceType": null,
        "numberStart": "05",
        "numberEnd": "23",
        "latStart": 13.089267,
        "lonStart": 100.96558802,
        "latEnd": 13.09451608,
        "lonEnd": 100.9717316,
        "length": 0,
        "surfacetype": 1
      }
    ],
    "id": 24020
  }
]