[
  {
    "type": 1,
    "icao": "1X3",
    "lat": 26.657887515,
    "lon": -82.121208285,
    "communications": [],
    "elevation": 12,
    "tower": false,
    "name": "Morning Star South",
    "runways": [
      {
        "type": 100,
        "width": 30.48,
        "surfaceType": null,
        "numberStart": "09",
        "numberEnd": "27",
        "latStart": 26.65785284,
        "lonStart": -82.12522009,
        "latEnd": 26.65792219,
        "lonEnd": -82.11719648,
        "length": 0,
        "surfacetype": 3
      }
    ],
    "id": 70
  },
  {
    "type": 1,
    "icao": "4X2",
    "lat": 26.603633025,
    "lon": -82.21989088500001,
    "communications": [],
    "elevation": 5,
    "tower": false,
    "name": "North Captiva Air Inc",
    "runways": [
      {
        "type": 100,
        "width": 24,
        "surfaceType": null,
        "numberStart": "10",
        "numberEnd": "28",
        "latStart": 26.60407205,
        "lonStart": -82.22305246,
        "latEnd": 26.603194,
        "lonEnd": -82.21672931,
        "length": 0,
        "surfacetype": 3
      }
    ],
    "id": 175
  },
  {
    "type": 1,
    "icao": "69FL",
    "lat": 26.677958814999997,
    "lon": -82.1361007,
    "communications": [],
    "elevation": 9,
    "tower": false,
    "name": "Eagles Landing",
    "runways": [
      {
        "type": 100,
        "width": 45.72,
        "surfaceType": null,
        "numberStart": "09",
        "numberEnd": "27",
        "latStart": 26.67790907,
        "lonStart": -82.13878296,
        "latEnd": 26.67800856,
        "lonEnd": -82.13341844,
        "length": 0,
        "surfacetype": 4
      }
    ],
    "id": 455
  },
  {
    "type": 1,
    "icao": "FA54",
    "lat": 26.85374487,
    "lon": -82.252601415,
    "communications": [
      {
        "type": 51,
        "frequency": 13065,
        "name": "CTAF"
      }
    ],
    "elevation": 2,
    "tower": false,
    "name": "CORAL CREEK",
    "runways": [
      {
        "type": 100,
        "width": 31,
        "surfaceType": null,
        "numberStart": "05",
        "numberEnd": "23",
        "latStart": 26.84832054,
        "lonStart": -82.25953952,
        "latEnd": 26.8591692,
        "lonEnd": -82.24566331,
        "length": 0,
        "surfacetype": 1
      }
    ],
    "id": 2124
  },
  {
    "type": 1,
    "icao": "X36",
    "lat": 26.989717985,
    "lon": -82.373380325,
    "communications": [],
    "elevation": 15,
    "tower": false,
    "name": "Buchan",
    "runways": [
      {
        "type": 100,
        "width": 42.19,
        "surfaceType": null,
        "numberStart": "12",
        "numberEnd": "30",
        "latStart": 26.99160359,
        "lonStart": -82.37681699,
        "latEnd": 26.98783238,
        "lonEnd": -82.36994366,
        "length": 0,
        "surfacetype": 3
      }
    ],
    "id": 5310
  },
  {
    "type": 17,
    "icao": "4FD6",
    "lat": 26.60674138,
    "lon": -82.11092556,
    "communications": [],
    "elevation": 8,
    "tower": false,
    "name": "[H] Pine Island Helistop",
    "runways": [
      {
        "type": 102,
        "width": 30.5,
        "surfaceType": 2,
        "numberStart": "H1",
        "numberEnd": null,
        "latStart": 26.60674138,
        "lonStart": -82.11092556,
        "latEnd": null,
        "lonEnd": null,
        "length": 30.5
      }
    ],
    "id": 8044
  },
  {
    "type": 17,
    "icao": "4FD8",
    "lat": 26.54174416,
    "lon": -82.19203889,
    "communications": [],
    "elevation": 1,
    "tower": false,
    "name": "[H] Captiva",
    "runways": [
      {
        "type": 102,
        "width": 30.5,
        "surfaceType": 2,
        "numberStart": "H1",
        "numberEnd": null,
        "latStart": 26.54174416,
        "lonStart": -82.19203889,
        "latEnd": null,
        "lonEnd": null,
        "length": 30.5
      }
    ],
    "id": 8046
  },
  {
    "type": 17,
    "icao": "4FD9",
    "lat": 26.46258027,
    "lon": -82.15676112,
    "communications": [],
    "elevation": 3,
    "tower": false,
    "name": "[H] Bowmans Beach Helistop",
    "runways": [
      {
        "type": 102,
        "width": 24.7,
        "surfaceType": 3,
        "numberStart": "H1",
        "numberEnd": null,
        "latStart": 26.46258027,
        "lonStart": -82.15676112,
        "latEnd": null,
        "lonEnd": null,
        "length": 24.7
      }
    ],
    "id": 8047
  },
  {
    "type": 1,
    "icao": "4X3",
    "lat": 26.643406659999997,
    "lon": -82.11786973,
    "communications": [],
    "elevation": 8,
    "tower": false,
    "name": "Tranquility Bay Strip",
    "runways": [
      {
        "type": 100,
        "width": 30.48,
        "surfaceType": null,
        "numberStart": "09",
        "numberEnd": "27",
        "latStart": 26.64331093,
        "lonStart": -82.12093671,
        "latEnd": 26.64350239,
        "lonEnd": -82.11480275,
        "length": 0,
        "surfacetype": 3
      }
    ],
    "id": 8454
  },
  {
    "type": 17,
    "icao": "5FD6",
    "lat": 26.74229194,
    "lon": -82.25870556,
    "communications": [],
    "elevation": 8,
    "tower": false,
    "name": "[H] Boca Grande Helistop",
    "runways": [
      {
        "type": 102,
        "width": 15.2,
        "surfaceType": 2,
        "numberStart": "H1",
        "numberEnd": null,
        "latStart": 26.74229194,
        "lonStart": -82.25870556,
        "latEnd": null,
        "lonEnd": null,
        "length": 15.2
      }
    ],
    "id": 8566
  },
  {
    "type": 17,
    "icao": "5FD8",
    "lat": 26.67062777,
    "lon": -82.13592556,
    "communications": [],
    "elevation": 8,
    "tower": false,
    "name": "[H] Bokeelia Helistop",
    "runways": [
      {
        "type": 102,
        "width": 36,
        "surfaceType": 3,
        "numberStart": "H1",
        "numberEnd": null,
        "latStart": 26.67062777,
        "lonStart": -82.13592556,
        "latEnd": null,
        "lonEnd": null,
        "length": 36
      }
    ],
    "id": 8568
  },
  {
    "type": 17,
    "icao": "5FD9",
    "lat": 26.51146722,
    "lon": -82.08842584,
    "communications": [],
    "elevation": 4,
    "tower": false,
    "name": "[H] St James Helistop",
    "runways": [
      {
        "type": 102,
        "width": 16.5,
        "surfaceType": 2,
        "numberStart": "H1",
        "numberEnd": null,
        "latStart": 26.51146722,
        "lonStart": -82.08842584,
        "latEnd": null,
        "lonEnd": null,
        "length": 16.5
      }
    ],
    "id": 8569
  },
  {
    "type": 17,
    "icao": "7FL9",
    "lat": 26.43702555,
    "lon": -82.06787028,
    "communications": [],
    "elevation": 7,
    "tower": false,
    "name": "[H] James Cipriani",
    "runways": [
      {
        "type": 102,
        "width": 7.6,
        "surfaceType": 2,
        "numberStart": "H1",
        "numberEnd": null,
        "latStart": 26.43702555,
        "lonStart": -82.06787028,
        "latEnd": null,
        "lonEnd": null,
        "length": 7.6
      }
    ],
    "id": 9581
  },
  {
    "type": 17,
    "icao": "FA01",
    "lat": 26.99089222,
    "lon": -82.09508917,
    "communications": [],
    "elevation": 13,
    "tower": false,
    "name": "[H] St. Joseph Hospital",
    "runways": [
      {
        "type": 102,
        "width": 12.2,
        "surfaceType": 2,
        "numberStart": "H1",
        "numberEnd": null,
        "latStart": 26.99089222,
        "lonStart": -82.09508917,
        "latEnd": null,
        "lonEnd": null,
        "length": 12.2
      }
    ],
    "id": 16762
  },
  {
    "type": 16,
    "icao": "SP05",
    "lat": 26.648825,
    "lon": -82.091522,
    "communications": [],
    "elevation": 0,
    "tower": false,
    "name": "[S] Tranquility Bay",
    "runways": [
      {
        "type": 101,
        "width": 3047.7,
        "surfaceType": null,
        "numberStart": "18",
        "numberEnd": "36",
        "latStart": 26.6625399,
        "lonStart": -82.091522,
        "latEnd": 26.6351101,
        "lonEnd": -82.091522,
        "length": 0
      }
    ],
    "id": 28219
  },
  {
    "type": 17,
    "icao": "X24",
    "lat": 26.51868944,
    "lon": -82.15176056,
    "communications": [],
    "elevation": 6,
    "tower": false,
    "name": "[H] Henderson",
    "runways": [
      {
        "type": 102,
        "width": 45.7,
        "surfaceType": 3,
        "numberStart": "H1",
        "numberEnd": null,
        "latStart": 26.51868944,
        "lonStart": -82.15176056,
        "latEnd": null,
        "lonEnd": null,
        "length": 45.7
      }
    ],
    "id": 32369
  }
]