[
  {
    "type": 17,
    "icao": "5FD6",
    "lat": 26.74229194,
    "lon": -82.25870556,
    "communications": [],
    "elevation": 8,
    "tower": false,
    "name": "[H] Boca Grande Helistop",
    "runways": [
      {
        "type": 102,
        "width": 15.2,
        "surfaceType": 2,
        "numberStart": "H1",
        "numberEnd": null,
        "latStart": 26.74229194,
        "lonStart": -82.25870556,
        "latEnd": null,
        "lonEnd": null,
        "length": 15.2
      }
    ],
    "id": 28514
  },
  {
    "type": 17,
    "icao": "5FD8",
    "lat": 26.67062777,
    "lon": -82.13592556,
    "communications": [],
    "elevation": 8,
    "tower": false,
    "name": "[H] Bokeelia Helistop",
    "runways": [
      {
        "type": 102,
        "width": 36,
        "surfaceType": 3,
        "numberStart": "H1",
        "numberEnd": null,
        "latStart": 26.67062777,
        "lonStart": -82.13592556,
        "latEnd": null,
        "lonEnd": null,
        "length": 36
      }
    ],
    "id": 28522
  },
  {
    "type": 17,
    "icao": "4FD9",
    "lat": 26.46258027,
    "lon": -82.15676112,
    "communications": [],
    "elevation": 3,
    "tower": false,
    "name": "[H] Bowmans Beach Helistop",
    "runways": [
      {
        "type": 102,
        "width": 24.7,
        "surfaceType": 3,
        "numberStart": "H1",
        "numberEnd": null,
        "latStart": 26.46258027,
        "lonStart": -82.15676112,
        "latEnd": null,
        "lonEnd": null,
        "length": 24.7
      }
    ],
    "id": 28548
  },
  {
    "type": 17,
    "icao": "4FD8",
    "lat": 26.54174416,
    "lon": -82.19203889,
    "communications": [],
    "elevation": 1,
    "tower": false,
    "name": "[H] Captiva",
    "runways": [
      {
        "type": 102,
        "width": 30.5,
        "surfaceType": 2,
        "numberStart": "H1",
        "numberEnd": null,
        "latStart": 26.54174416,
        "lonStart": -82.19203889,
        "latEnd": null,
        "lonEnd": null,
        "length": 30.5
      }
    ],
    "id": 28773
  },
  {
    "type": 17,
    "icao": "X24",
    "lat": 26.51868944,
    "lon": -82.15176056,
    "communications": [],
    "elevation": 6,
    "tower": false,
    "name": "[H] Henderson",
    "runways": [
      {
        "type": 102,
        "width": 45.7,
        "surfaceType": 3,
        "numberStart": "H1",
        "numberEnd": null,
        "latStart": 26.51868944,
        "lonStart": -82.15176056,
        "latEnd": null,
        "lonEnd": null,
        "length": 45.7
      }
    ],
    "id": 30210
  },
  {
    "type": 17,
    "icao": "7FL9",
    "lat": 26.43702555,
    "lon": -82.06787028,
    "communications": [],
    "elevation": 7,
    "tower": false,
    "name": "[H] James Cipriani",
    "runways": [
      {
        "type": 102,
        "width": 7.6,
        "surfaceType": 2,
        "numberStart": "H1",
        "numberEnd": null,
        "latStart": 26.43702555,
        "lonStart": -82.06787028,
        "latEnd": null,
        "lonEnd": null,
        "length": 7.6
      }
    ],
    "id": 30588
  },
  {
    "type": 17,
    "icao": "4FD6",
    "lat": 26.60674138,
    "lon": -82.11092556,
    "communications": [],
    "elevation": 8,
    "tower": false,
    "name": "[H] Pine Island Helistop",
    "runways": [
      {
        "type": 102,
        "width": 30.5,
        "surfaceType": 2,
        "numberStart": "H1",
        "numberEnd": null,
        "latStart": 26.60674138,
        "lonStart": -82.11092556,
        "latEnd": null,
        "lonEnd": null,
        "length": 30.5
      }
    ],
    "id": 32026
  },
  {
    "type": 17,
    "icao": "5FD9",
    "lat": 26.51146722,
    "lon": -82.08842584,
    "communications": [],
    "elevation": 4,
    "tower": false,
    "name": "[H] St James Helistop",
    "runways": [
      {
        "type": 102,
        "width": 16.5,
        "surfaceType": 2,
        "numberStart": "H1",
        "numberEnd": null,
        "latStart": 26.51146722,
        "lonStart": -82.08842584,
        "latEnd": null,
        "lonEnd": null,
        "length": 16.5
      }
    ],
    "id": 32899
  },
  {
    "type": 17,
    "icao": "FA01",
    "lat": 26.99089222,
    "lon": -82.09508917,
    "communications": [],
    "elevation": 13,
    "tower": false,
    "name": "[H] St. Joseph Hospital",
    "runways": [
      {
        "type": 102,
        "width": 12.2,
        "surfaceType": 2,
        "numberStart": "H1",
        "numberEnd": null,
        "latStart": 26.99089222,
        "lonStart": -82.09508917,
        "latEnd": null,
        "lonEnd": null,
        "length": 12.2
      }
    ],
    "id": 33029
  }
]