[
  {
    "type": 17,
    "icao": "SIHC",
    "lat": -20.29333333,
    "lon": -40.3125,
    "communications": [],
    "elevation": 50,
    "tower": false,
    "name": "[H] Cel PM Cicero Dantas dos Santos",
    "runways": [
      {
        "type": 102,
        "width": 20.1,
        "surfaceType": 2,
        "numberStart": "H1",
        "numberEnd": null,
        "latStart": -20.29333333,
        "lonStart": -40.3125,
        "latEnd": null,
        "lonEnd": null,
        "length": 20.1
      }
    ],
    "id": 28828
  },
  {
    "type": 17,
    "icao": "SDUV",
    "lat": -20.17694444,
    "lon": -40.23222222,
    "communications": [],
    "elevation": 187,
    "tower": false,
    "name": "[H] Columbia",
    "runways": [
      {
        "type": 102,
        "width": 18,
        "surfaceType": 2,
        "numberStart": "H1",
        "numberEnd": null,
        "latStart": -20.17694444,
        "lonStart": -40.23222222,
        "latEnd": null,
        "lonEnd": null,
        "length": 18
      }
    ],
    "id": 29054
  },
  {
    "type": 17,
    "icao": "SSDR",
    "lat": -20.20777778,
    "lon": -40.23583333,
    "communications": [],
    "elevation": 75,
    "tower": false,
    "name": "[H] Eletrocity",
    "runways": [
      {
        "type": 102,
        "width": 18,
        "surfaceType": 2,
        "numberStart": "H1",
        "numberEnd": null,
        "latStart": -20.20777778,
        "lonStart": -40.23583333,
        "latEnd": null,
        "lonEnd": null,
        "length": 18
      }
    ],
    "id": 29519
  },
  {
    "type": 17,
    "icao": "SNXU",
    "lat": -20.33222222,
    "lon": -40.37833333,
    "communications": [],
    "elevation": 42,
    "tower": false,
    "name": "[H] Meridional",
    "runways": [
      {
        "type": 102,
        "width": 20.1,
        "surfaceType": 2,
        "numberStart": "H1",
        "numberEnd": null,
        "latStart": -20.33222222,
        "lonStart": -40.37833333,
        "latEnd": null,
        "lonEnd": null,
        "length": 20.1
      }
    ],
    "id": 31290
  },
  {
    "type": 17,
    "icao": "SJIH",
    "lat": -20.32722222,
    "lon": -40.35333333,
    "communications": [],
    "elevation": 19,
    "tower": false,
    "name": "[H] Policia Federal do Espirito Santo",
    "runways": [
      {
        "type": 102,
        "width": 25.6,
        "surfaceType": 2,
        "numberStart": "H1",
        "numberEnd": null,
        "latStart": -20.32722222,
        "lonStart": -40.35333333,
        "latEnd": null,
        "lonEnd": null,
        "length": 25.6
      }
    ],
    "id": 32091
  },
  {
    "type": 17,
    "icao": "SWYZ",
    "lat": -20.32694444,
    "lon": -40.26916667,
    "communications": [],
    "elevation": 18,
    "tower": false,
    "name": "[H] Residencia Oficial",
    "runways": [
      {
        "type": 102,
        "width": 26.5,
        "surfaceType": 1,
        "numberStart": "H1",
        "numberEnd": null,
        "latStart": -20.32694444,
        "lonStart": -40.26916667,
        "latEnd": null,
        "lonEnd": null,
        "length": 26.5
      }
    ],
    "id": 32320
  },
  {
    "type": 17,
    "icao": "SNWY",
    "lat": -20.32111111,
    "lon": -40.3525,
    "communications": [],
    "elevation": 1,
    "tower": false,
    "name": "[H] Rodoviaria",
    "runways": [
      {
        "type": 102,
        "width": 20.1,
        "surfaceType": 2,
        "numberStart": "H1",
        "numberEnd": null,
        "latStart": -20.32111111,
        "lonStart": -40.3525,
        "latEnd": null,
        "lonEnd": null,
        "length": 20.1
      }
    ],
    "id": 32400
  },
  {
    "type": 17,
    "icao": "SIAH",
    "lat": -20.23694444,
    "lon": -40.27888889,
    "communications": [],
    "elevation": 19,
    "tower": false,
    "name": "[H] Vitoria Apart Hospital",
    "runways": [
      {
        "type": 102,
        "width": 24.1,
        "surfaceType": 2,
        "numberStart": "H1",
        "numberEnd": null,
        "latStart": -20.23694444,
        "lonStart": -40.27888889,
        "latEnd": null,
        "lonEnd": null,
        "length": 24.1
      }
    ],
    "id": 33651
  }
]