[
  {
    "type": 1,
    "icao": "SCEL",
    "lat": -33.389775002499995,
    "lon": -52.10037361249999,
    "communications": [
      {
        "type": 50,
        "frequency": 13210,
        "name": "ATIS"
      },
      {
        "type": 52,
        "frequency": 12170,
        "name": "CLNC DEL"
      },
      {
        "type": 53,
        "frequency": 12220,
        "name": "GND"
      },
      {
        "type": 54,
        "frequency": 11810,
        "name": "SANTIAGO TWR"
      }
    ],
    "elevation": 1549,
    "tower": true,
    "name": "Arturo Merino Benitez Intl",
    "runways": [
      {
        "type": 100,
        "width": 45.11,
        "surfaceType": null,
        "numberStart": "17R",
        "numberEnd": "35L",
        "latStart": -33.37195,
        "lonStart": -70.80371667,
        "latEnd": -33.40618056,
        "lonEnd": -70.80188056,
        "length": 0,
        "surfacetype": 1
      },
      {
        "type": 100,
        "width": 54.86,
        "surfaceType": null,
        "numberStart": "17L",
        "numberEnd": "35R",
        "latStart": -33.37608056,
        "lonStart": -70.78670833,
        "latEnd": -33.40488889,
        "lonEnd": -70.78515833,
        "length": 0,
        "surfacetype": 1
      }
    ],
    "id": 1239
  },
  {
    "type": 1,
    "icao": "SCCV",
    "lat": -33.412709,
    "lon": -52.291542975,
    "communications": [
      {
        "type": 54,
        "frequency": 12770,
        "name": "TWR"
      }
    ],
    "elevation": 683,
    "tower": true,
    "name": "CuracavC-",
    "runways": [
      {
        "type": 100,
        "width": 17.98,
        "surfaceType": null,
        "numberStart": "10",
        "numberEnd": "28",
        "latStart": -33.41169609,
        "lonStart": -71.16936404,
        "latEnd": -33.41372191,
        "lonEnd": -71.16218988,
        "length": 0,
        "surfacetype": 12
      }
    ],
    "id": 5586
  },
  {
    "type": 1,
    "icao": "SCBQ",
    "lat": -33.5618,
    "lon": -52.1238655,
    "communications": [
      {
        "type": 53,
        "frequency": 12180,
        "name": "GND"
      },
      {
        "type": 54,
        "frequency": 11910,
        "name": "TWR"
      }
    ],
    "elevation": 1844,
    "tower": true,
    "name": "EL BOSQUE",
    "runways": [
      {
        "type": 100,
        "width": 39.93,
        "surfaceType": null,
        "numberStart": "02",
        "numberEnd": "20",
        "latStart": -33.569019,
        "lonStart": -70.69315,
        "latEnd": -33.554581,
        "lonEnd": -70.68365,
        "length": 0,
        "surfacetype": 2
      }
    ],
    "id": 6682
  },
  {
    "type": 1,
    "icao": "SCRS",
    "lat": -33.488822,
    "lon": -52.450589,
    "communications": [],
    "elevation": 786,
    "tower": false,
    "name": "El Rosario",
    "runways": [
      {
        "type": 100,
        "width": 17.98,
        "surfaceType": null,
        "numberStart": "11",
        "numberEnd": "29",
        "latStart": -33.48711,
        "lonStart": -71.410644,
        "latEnd": -33.490534,
        "lonEnd": -71.400668,
        "length": 0,
        "surfacetype": 5
      }
    ],
    "id": 7060
  },
  {
    "type": 1,
    "icao": "SCKL",
    "lat": -33.337070499999996,
    "lon": -52.095421,
    "communications": [
      {
        "type": 54,
        "frequency": 11865,
        "name": "TWR"
      }
    ],
    "elevation": 1580,
    "tower": true,
    "name": "Lipangui",
    "runways": [
      {
        "type": 100,
        "width": 14.94,
        "surfaceType": null,
        "numberStart": "16",
        "numberEnd": "34",
        "latStart": -33.335096,
        "lonStart": -70.851797,
        "latEnd": -33.339045,
        "lonEnd": -70.850366,
        "length": 0,
        "surfacetype": 1
      }
    ],
    "id": 15320
  },
  {
    "type": 1,
    "icao": "SCTI",
    "lat": -33.491440425,
    "lon": -52.09364378,
    "communications": [
      {
        "type": 54,
        "frequency": 11820,
        "name": "ATC tower"
      }
    ],
    "elevation": 1676,
    "tower": true,
    "name": "Los Cerrillos",
    "runways": [
      {
        "type": 100,
        "width": 39.02,
        "surfaceType": null,
        "numberStart": "03",
        "numberEnd": "21",
        "latStart": -33.50075219,
        "lonStart": -70.7051589,
        "latEnd": -33.48212866,
        "lonEnd": -70.68879996,
        "length": 0,
        "surfacetype": 1
      }
    ],
    "id": 15508
  },
  {
    "type": 1,
    "icao": "SCMP",
    "lat": -33.676296,
    "lon": -52.435614799999996,
    "communications": [],
    "elevation": 587,
    "tower": false,
    "name": "Melipilla",
    "runways": [
      {
        "type": 100,
        "width": 20.12,
        "surfaceType": null,
        "numberStart": "08",
        "numberEnd": "26",
        "latStart": -33.67648241,
        "lonStart": -71.19512001,
        "latEnd": -33.67610959,
        "lonEnd": -71.18940203,
        "length": 0,
        "surfacetype": 12
      }
    ],
    "id": 17039
  },
  {
    "type": 1,
    "icao": "SCSN",
    "lat": -33.656652265,
    "lon": -52.63696340999999,
    "communications": [
      {
        "type": 54,
        "frequency": 11850,
        "name": "TWR"
      },
      {
        "type": 53,
        "frequency": 12190,
        "name": "GND"
      }
    ],
    "elevation": 246,
    "tower": true,
    "name": "Santo Domingo",
    "runways": [
      {
        "type": 100,
        "width": 17.98,
        "surfaceType": null,
        "numberStart": "05",
        "numberEnd": "23",
        "latStart": -33.65866542,
        "lonStart": -71.61928771,
        "latEnd": -33.65463911,
        "lonEnd": -71.61211635,
        "length": 0,
        "surfacetype": 1
      }
    ],
    "id": 22952
  }
]