[
  {
    "type": 1,
    "icao": "VEBS",
    "lat": 20.24669875,
    "lon": 53.02736675,
    "communications": [
      {
        "type": 50,
        "frequency": 12680,
        "name": "ATIS"
      },
      {
        "type": 54,
        "frequency": 12515,
        "name": "TWR"
      },
      {
        "type": 55,
        "frequency": 12350,
        "name": "APP"
      }
    ],
    "elevation": 138,
    "tower": true,
    "name": "BHUBANESHWAR",
    "runways": [
      {
        "type": 100,
        "width": 45.72,
        "surfaceType": null,
        "numberStart": "14",
        "numberEnd": "32",
        "latStart": 20.257239,
        "lonStart": 85.807842,
        "latEnd": 20.240864,
        "lonEnd": 85.820503,
        "length": 0,
        "surfacetype": 1
      },
      {
        "type": 100,
        "width": 45.72,
        "surfaceType": null,
        "numberStart": "05",
        "numberEnd": "23",
        "latStart": 20.24025,
        "lonStart": 85.812319,
        "latEnd": 20.248442,
        "lonEnd": 85.823192,
        "length": 0,
        "surfacetype": 1
      }
    ],
    "id": 1693
  },
  {
    "type": 1,
    "icao": "VE62",
    "lat": 20.5496185,
    "lon": 53.218123999999996,
    "communications": [],
    "elevation": 115,
    "tower": false,
    "name": "CUTTACK",
    "runways": [
      {
        "type": 100,
        "width": 45.72,
        "surfaceType": null,
        "numberStart": "04",
        "numberEnd": "22",
        "latStart": 20.540456,
        "lonStart": 85.877467,
        "latEnd": 20.558781,
        "lonEnd": 85.895056,
        "length": 0,
        "surfacetype": 1
      }
    ],
    "id": 4288
  }
]