[
  {
    "type": 1,
    "icao": "LELC",
    "lat": 37.777883926,
    "lon": -0.81329706,
    "communications": [
      {
        "type": 53,
        "frequency": 12160,
        "name": "SAN JAVIER GND"
      },
      {
        "type": 54,
        "frequency": 13030,
        "name": "SAN JAVIER TWR CIV"
      },
      {
        "type": 54,
        "frequency": 13930,
        "name": "SAN JAVIER TWR MIL"
      },
      {
        "type": 55,
        "frequency": 13030,
        "name": "SAN JAVIER APP"
      }
    ],
    "elevation": 29,
    "tower": true,
    "name": "Murcia San Javier",
    "runways": [
      {
        "type": 100,
        "width": 45.11,
        "surfaceType": null,
        "numberStart": "05R",
        "numberEnd": "23L",
        "latStart": 37.76763953,
        "lonStart": -0.82160342,
        "latEnd": 37.782194,
        "lonEnd": -0.80277134,
        "length": 0,
        "surfacetype": 1
      },
      {
        "type": 100,
        "width": 45.82,
        "surfaceType": null,
        "numberStart": "05L",
        "numberEnd": "23R",
        "latStart": 37.77659276,
        "lonStart": -0.8204279,
        "latEnd": 37.78653431,
        "lonEnd": -0.80757223,
        "length": 0,
        "surfacetype": 1
      },
      {
        "type": 102,
        "width": 20.1,
        "surfaceType": 2,
        "numberStart": "H9",
        "numberEnd": null,
        "latStart": 37.77645903,
        "lonStart": -0.81411041,
        "latEnd": null,
        "lonEnd": null,
        "length": 20.1
      }
    ],
    "id": 17727
  }
]