[
  {
    "type": 1,
    "icao": "LGSM",
    "lat": 37.689122505,
    "lon": 26.91251158,
    "communications": [
      {
        "type": 54,
        "frequency": 12985,
        "name": "Samos Tower"
      },
      {
        "type": 55,
        "frequency": 12410,
        "name": "Samos Approach"
      },
      {
        "type": 54,
        "frequency": 12705,
        "name": "ATIS"
      }
    ],
    "elevation": 18,
    "tower": true,
    "name": "Samos",
    "runways": [
      {
        "type": 100,
        "width": 45,
        "surfaceType": null,
        "numberStart": "09",
        "numberEnd": "27",
        "latStart": 37.68983593,
        "lonStart": 26.90056235,
        "latEnd": 37.68840908,
        "lonEnd": 26.92446081,
        "length": 0,
        "surfacetype": 1
      }
    ],
    "id": 3715
  },
  {
    "type": 1,
    "icao": "LGIK",
    "lat": 37.682715,
    "lon": 26.34706,
    "communications": [
      {
        "type": 54,
        "frequency": 12230,
        "name": "AFIS"
      }
    ],
    "elevation": 79,
    "tower": true,
    "name": "IKARIA",
    "runways": [
      {
        "type": 100,
        "width": 29.87,
        "surfaceType": null,
        "numberStart": "15",
        "numberEnd": "33",
        "latStart": 37.688194,
        "lonStart": 26.343353,
        "latEnd": 37.677236,
        "lonEnd": 26.350767,
        "length": 0,
        "surfacetype": 1
      }
    ],
    "id": 20490
  },
  {
    "type": 1,
    "icao": "LGLE",
    "lat": 37.184903000000006,
    "lon": 26.800289,
    "communications": [
      {
        "type": 54,
        "frequency": 12495,
        "name": "INFO"
      }
    ],
    "elevation": 39,
    "tower": false,
    "name": "LEROS",
    "runways": [
      {
        "type": 100,
        "width": 29.87,
        "surfaceType": null,
        "numberStart": "14",
        "numberEnd": "32",
        "latStart": 37.188614,
        "lonStart": 26.796981,
        "latEnd": 37.181192,
        "lonEnd": 26.803597,
        "length": 0,
        "surfacetype": 1
      }
    ],
    "id": 20500
  }
]