[
  {
    "type": 17,
    "icao": "38IL",
    "lat": 40.14976555,
    "lon": -89.37120723,
    "communications": [],
    "elevation": 591,
    "tower": false,
    "name": "[H] Abraham Lincoln Meml Hosp",
    "runways": [
      {
        "type": 102,
        "width": 24.4,
        "surfaceType": 3,
        "numberStart": "H1",
        "numberEnd": null,
        "latStart": 40.14976555,
        "lonStart": -89.37120723,
        "latEnd": null,
        "lonEnd": null,
        "length": 36.6
      }
    ],
    "id": 27998
  },
  {
    "type": 17,
    "icao": "LL38",
    "lat": 40.6875375,
    "lon": -89.59120862,
    "communications": [],
    "elevation": 475,
    "tower": false,
    "name": "[H] Cilco Peoria Downtown",
    "runways": [
      {
        "type": 102,
        "width": 12.2,
        "surfaceType": 2,
        "numberStart": "H1",
        "numberEnd": null,
        "latStart": 40.6875375,
        "lonStart": -89.59120862,
        "latEnd": null,
        "lonEnd": null,
        "length": 12.2
      }
    ],
    "id": 28959
  },
  {
    "type": 17,
    "icao": "I29",
    "lat": 40.69472222,
    "lon": -89.54250001,
    "communications": [],
    "elevation": 458,
    "tower": false,
    "name": "[H] East Port",
    "runways": [
      {
        "type": 102,
        "width": 9.1,
        "surfaceType": 2,
        "numberStart": "H1",
        "numberEnd": null,
        "latStart": 40.69472222,
        "lonStart": -89.54250001,
        "latEnd": null,
        "lonEnd": null,
        "length": 9.1
      }
    ],
    "id": 29457
  },
  {
    "type": 17,
    "icao": "LL36",
    "lat": 40.76253694,
    "lon": -89.61676389,
    "communications": [],
    "elevation": 758,
    "tower": false,
    "name": "[H] Exposition Gardens",
    "runways": [
      {
        "type": 102,
        "width": 45.7,
        "surfaceType": 3,
        "numberStart": "H1",
        "numberEnd": null,
        "latStart": 40.76253694,
        "lonStart": -89.61676389,
        "latEnd": null,
        "lonEnd": null,
        "length": 91.4
      }
    ],
    "id": 29609
  },
  {
    "type": 17,
    "icao": "IS42",
    "lat": 40.62392638,
    "lon": -89.37314584,
    "communications": [],
    "elevation": 705,
    "tower": false,
    "name": "[H] Lindstrom",
    "runways": [
      {
        "type": 102,
        "width": 12.2,
        "surfaceType": 2,
        "numberStart": "H1",
        "numberEnd": null,
        "latStart": 40.62392638,
        "lonStart": -89.37314584,
        "latEnd": null,
        "lonEnd": null,
        "length": 12.2
      }
    ],
    "id": 30906
  },
  {
    "type": 17,
    "icao": "IL04",
    "lat": 40.70059305,
    "lon": -89.59481973,
    "communications": [],
    "elevation": 629,
    "tower": false,
    "name": "[H] Methodist Medical Center of Illinois",
    "runways": [
      {
        "type": 102,
        "width": 9.1,
        "surfaceType": 2,
        "numberStart": "H1",
        "numberEnd": null,
        "latStart": 40.70059305,
        "lonStart": -89.59481973,
        "latEnd": null,
        "lonEnd": null,
        "length": 9.1
      }
    ],
    "id": 31318
  },
  {
    "type": 17,
    "icao": "91IL",
    "lat": 40.56253861,
    "lon": -89.63260223,
    "communications": [],
    "elevation": 535,
    "tower": false,
    "name": "[H] Pekin Memorial Hospital",
    "runways": [
      {
        "type": 102,
        "width": 9.1,
        "surfaceType": 2,
        "numberStart": "H1",
        "numberEnd": null,
        "latStart": 40.56253861,
        "lonStart": -89.63260223,
        "latEnd": null,
        "lonEnd": null,
        "length": 9.1
      }
    ],
    "id": 31958
  },
  {
    "type": 17,
    "icao": "2IS1",
    "lat": 40.7505925,
    "lon": -89.59454056,
    "communications": [],
    "elevation": 640,
    "tower": false,
    "name": "[H] Proctor Community Hospital",
    "runways": [
      {
        "type": 102,
        "width": 24.4,
        "surfaceType": 2,
        "numberStart": "H1",
        "numberEnd": null,
        "latStart": 40.7505925,
        "lonStart": -89.59454056,
        "latEnd": null,
        "lonEnd": null,
        "length": 76.2
      }
    ],
    "id": 32162
  },
  {
    "type": 17,
    "icao": "39LL",
    "lat": 40.77531472,
    "lon": -89.67593306,
    "communications": [],
    "elevation": 700,
    "tower": false,
    "name": "[H] Rainbow",
    "runways": [
      {
        "type": 102,
        "width": 61,
        "surfaceType": 3,
        "numberStart": "H1",
        "numberEnd": null,
        "latStart": 40.77531472,
        "lonStart": -89.67593306,
        "latEnd": null,
        "lonEnd": null,
        "length": 68.6
      }
    ],
    "id": 32249
  },
  {
    "type": 17,
    "icao": "LL37",
    "lat": 40.70170416,
    "lon": -89.59315306,
    "communications": [],
    "elevation": 580,
    "tower": false,
    "name": "[H] St Francis Hospital",
    "runways": [
      {
        "type": 102,
        "width": 24.4,
        "surfaceType": 2,
        "numberStart": "H1",
        "numberEnd": null,
        "latStart": 40.70170416,
        "lonStart": -89.59315306,
        "latEnd": null,
        "lonEnd": null,
        "length": 24.4
      },
      {
        "type": 102,
        "width": 19.5,
        "surfaceType": 2,
        "numberStart": "H2",
        "numberEnd": null,
        "latStart": 40.70170416,
        "lonStart": -89.59315306,
        "latEnd": null,
        "lonEnd": null,
        "length": 14.9
      }
    ],
    "id": 32884
  }
]