[
  {
    "type": 1,
    "icao": "SVCS",
    "lat": 10.287474362000001,
    "lon": -66.818524974,
    "communications": [
      {
        "type": 53,
        "frequency": 12170,
        "name": "GND"
      },
      {
        "type": 54,
        "frequency": 11800,
        "name": "CARACAS TWR"
      },
      {
        "type": 55,
        "frequency": 11920,
        "name": "TUY APP"
      }
    ],
    "elevation": 2145,
    "tower": true,
    "name": "OSCAR MACHADO ZULOAGA",
    "runways": [
      {
        "type": 100,
        "width": 31.7,
        "surfaceType": null,
        "numberStart": "10",
        "numberEnd": "28",
        "latStart": 10.2872708,
        "lonStart": -66.82538769,
        "latEnd": 10.28597915,
        "lonEnd": -66.80711882,
        "length": 0,
        "surfacetype": 1
      },
      {
        "type": 102,
        "width": 16.8,
        "surfaceType": 4,
        "numberStart": "H9",
        "numberEnd": null,
        "latStart": 10.28804292,
        "lonStart": -66.82029251,
        "latEnd": null,
        "lonEnd": null,
        "length": 16.8
      },
      {
        "type": 102,
        "width": 16.8,
        "surfaceType": 4,
        "numberStart": "H8",
        "numberEnd": null,
        "latStart": 10.28803955,
        "lonStart": -66.81977857,
        "latEnd": null,
        "lonEnd": null,
        "length": 16.8
      },
      {
        "type": 102,
        "width": 16.8,
        "surfaceType": 4,
        "numberStart": "H7",
        "numberEnd": null,
        "latStart": 10.28803939,
        "lonStart": -66.82004728,
        "latEnd": null,
        "lonEnd": null,
        "length": 16.8
      }
    ],
    "id": 4972
  },
  {
    "type": 1,
    "icao": "SVWM",
    "lat": 10.61778027,
    "lon": -66.396500495,
    "communications": [],
    "elevation": 16,
    "tower": true,
    "name": "El Mofo",
    "runways": [
      {
        "type": 100,
        "width": 50,
        "surfaceType": null,
        "numberStart": "01",
        "numberEnd": "19",
        "latStart": 10.6135443,
        "lonStart": -66.39687757,
        "latEnd": 10.62201624,
        "lonEnd": -66.39612342,
        "length": 0,
        "surfacetype": 4
      }
    ],
    "id": 4973
  },
  {
    "type": 1,
    "icao": "SVFM",
    "lat": 10.4850335,
    "lon": -66.84351655500001,
    "communications": [
      {
        "type": 50,
        "frequency": 12740,
        "name": "ATIS"
      },
      {
        "type": 53,
        "frequency": 12180,
        "name": "GND"
      },
      {
        "type": 54,
        "frequency": 11880,
        "name": "MIRANDA TWR"
      }
    ],
    "elevation": 2735,
    "tower": true,
    "name": "Caracas Generalisimo Francisco De Mira",
    "runways": [
      {
        "type": 100,
        "width": 42.67,
        "surfaceType": null,
        "numberStart": "11",
        "numberEnd": "29",
        "latStart": 10.48692916,
        "lonStart": -66.85233959,
        "latEnd": 10.48313784,
        "lonEnd": -66.83469352,
        "length": 0,
        "surfacetype": 1
      }
    ],
    "id": 28992
  },
  {
    "type": 1,
    "icao": "SVHG",
    "lat": 10.46244813,
    "lon": -66.09279339,
    "communications": [
      {
        "type": 50,
        "frequency": 12750,
        "name": "HIGUEROTE ATIS"
      },
      {
        "type": 54,
        "frequency": 11820,
        "name": "HIGUEROTE TOWER"
      }
    ],
    "elevation": 9,
    "tower": true,
    "name": "HIGUEROTE",
    "runways": [
      {
        "type": 100,
        "width": 45.11,
        "surfaceType": null,
        "numberStart": "08",
        "numberEnd": "26",
        "latStart": 10.46168224,
        "lonStart": -66.09831594,
        "latEnd": 10.46321402,
        "lonEnd": -66.08727084,
        "length": 0,
        "surfacetype": 1
      }
    ],
    "id": 28999
  },
  {
    "type": 1,
    "icao": "SVMI",
    "lat": 10.60328052,
    "lon": -66.9902102425,
    "communications": [
      {
        "type": 50,
        "frequency": 13295,
        "name": "ATIS"
      },
      {
        "type": 52,
        "frequency": 11950,
        "name": "CLD"
      },
      {
        "type": 53,
        "frequency": 12190,
        "name": "GND"
      },
      {
        "type": 54,
        "frequency": 11840,
        "name": "MAIQUETIA TWR"
      },
      {
        "type": 55,
        "frequency": 12040,
        "name": "MAIQUETIA APP"
      },
      {
        "type": 56,
        "frequency": 11840,
        "name": "MAIQUETIA DEP"
      },
      {
        "type": 51,
        "frequency": 12880,
        "name": "MAIQUETIA UNICOM"
      },
      {
        "type": 55,
        "frequency": 12010,
        "name": "MAIQUETIA APPROACH"
      },
      {
        "type": 54,
        "frequency": 11810,
        "name": "MAIQUETIA TOWER"
      },
      {
        "type": 54,
        "frequency": 12170,
        "name": "MAIQUETIA GROUND"
      },
      {
        "type": 54,
        "frequency": 12150,
        "name": "EMERG"
      }
    ],
    "elevation": 229,
    "tower": true,
    "name": "Caracas Simon Bolivar Intl",
    "runways": [
      {
        "type": 100,
        "width": 45.11,
        "surfaceType": null,
        "numberStart": "10",
        "numberEnd": "28",
        "latStart": 10.60381059,
        "lonStart": -67.01268712,
        "latEnd": 10.60477778,
        "lonEnd": -66.98083333,
        "length": 0,
        "surfacetype": 1
      },
      {
        "type": 100,
        "width": 44.2,
        "surfaceType": null,
        "numberStart": "09",
        "numberEnd": "27",
        "latStart": 10.59879806,
        "lonStart": -66.9974277,
        "latEnd": 10.60573565,
        "lonEnd": -66.96989282,
        "length": 0,
        "surfacetype": 1
      }
    ],
    "id": 29012
  },
  {
    "type": 1,
    "icao": "SVMP",
    "lat": 10.13316105,
    "lon": -66.78784973500001,
    "communications": [
      {
        "type": 53,
        "frequency": 12190,
        "name": "GND"
      },
      {
        "type": 54,
        "frequency": 12200,
        "name": "TWR"
      }
    ],
    "elevation": 574,
    "tower": true,
    "name": "METROPOLITANO",
    "runways": [
      {
        "type": 100,
        "width": 29.87,
        "surfaceType": null,
        "numberStart": "08",
        "numberEnd": "26",
        "latStart": 10.13171704,
        "lonStart": -66.79419706,
        "latEnd": 10.13460506,
        "lonEnd": -66.78150241,
        "length": 0,
        "surfacetype": 1
      }
    ],
    "id": 29013
  }
]