[
  {
    "type": 1,
    "icao": "SKRG",
    "lat": 6.166596575,
    "lon": -75.4245210375,
    "communications": [
      {
        "type": 53,
        "frequency": 12190,
        "name": "GND"
      },
      {
        "type": 54,
        "frequency": 12720,
        "name": "MEDELLIN FIS"
      },
      {
        "type": 54,
        "frequency": 11860,
        "name": "TWR"
      },
      {
        "type": 55,
        "frequency": 12110,
        "name": "MEDELLIN APP"
      }
    ],
    "elevation": 6955,
    "tower": true,
    "name": "JOSE MARIA CORDOVA",
    "runways": [
      {
        "type": 100,
        "width": 45.11,
        "surfaceType": null,
        "numberStart": "18",
        "numberEnd": "36",
        "latStart": 6.18035419,
        "lonStart": -75.423225,
        "latEnd": 6.14871019,
        "lonEnd": -75.423014,
        "length": 0,
        "surfacetype": 1
      },
      {
        "type": 102,
        "width": 49.99,
        "surfaceType": 2,
        "numberStart": "H1",
        "numberEnd": null,
        "latStart": 6.16875653,
        "lonStart": -75.42995946,
        "latEnd": null,
        "lonEnd": null,
        "length": 49.99
      },
      {
        "type": 102,
        "width": 35.05,
        "surfaceType": 2,
        "numberStart": "H2",
        "numberEnd": null,
        "latStart": 6.16856539,
        "lonStart": -75.42188569,
        "latEnd": null,
        "lonEnd": null,
        "length": 35.05
      }
    ],
    "id": 12802
  },
  {
    "type": 1,
    "icao": "SKMD",
    "lat": 6.22047775,
    "lon": -75.59042500000001,
    "communications": [
      {
        "type": 53,
        "frequency": 12190,
        "name": "GND"
      },
      {
        "type": 54,
        "frequency": 11890,
        "name": "TWR"
      },
      {
        "type": 55,
        "frequency": 12110,
        "name": "MEDELLIN APP"
      }
    ],
    "elevation": 4939,
    "tower": true,
    "name": "Medellin Olaya Herrera",
    "runways": [
      {
        "type": 100,
        "width": 38,
        "surfaceType": null,
        "numberStart": "02",
        "numberEnd": "20",
        "latStart": 6.2124472,
        "lonStart": -75.5919444,
        "latEnd": 6.2285083,
        "lonEnd": -75.5889056,
        "length": 0,
        "surfacetype": 1
      }
    ],
    "id": 17009
  }
]