[
  {
    "type": 1,
    "icao": "YCNK",
    "lat": -32.784839399999996,
    "lon": 151.34012949,
    "communications": [
      {
        "type": 51,
        "frequency": 12670,
        "name": "CTAF"
      }
    ],
    "elevation": 213,
    "tower": true,
    "name": "Cessnock",
    "runways": [
      {
        "type": 100,
        "width": 17.98,
        "surfaceType": null,
        "numberStart": "17",
        "numberEnd": "35",
        "latStart": -32.78973225,
        "lonStart": 151.3392597,
        "latEnd": -32.77994655,
        "lonEnd": 151.34099928,
        "length": 0,
        "surfacetype": 1
      }
    ],
    "id": 4739
  },
  {
    "type": 1,
    "icao": "YDOC",
    "lat": -32.64916575,
    "lon": 151.20908418,
    "communications": [
      {
        "type": 51,
        "frequency": 12670,
        "name": "CTAF"
      }
    ],
    "elevation": 185,
    "tower": false,
    "name": "Dochra",
    "runways": [
      {
        "type": 100,
        "width": 32.92,
        "surfaceType": null,
        "numberStart": "18",
        "numberEnd": "36",
        "latStart": -32.65352466,
        "lonStart": 151.20831972,
        "latEnd": -32.64480684,
        "lonEnd": 151.20984864,
        "length": 0,
        "surfacetype": 3
      }
    ],
    "id": 6330
  },
  {
    "type": 1,
    "icao": "YEES",
    "lat": -32.59959336,
    "lon": 151.3404397675,
    "communications": [],
    "elevation": 115,
    "tower": false,
    "name": "ELDERSLIE",
    "runways": [
      {
        "type": 100,
        "width": 67.97,
        "surfaceType": null,
        "numberStart": "10L",
        "numberEnd": "28R",
        "latStart": -32.59889349,
        "lonStart": 151.33818455,
        "latEnd": -32.59976526,
        "lonEnd": 151.34369723,
        "length": 0,
        "surfacetype": 4
      },
      {
        "type": 100,
        "width": 10.06,
        "surfaceType": null,
        "numberStart": "10R",
        "numberEnd": "28L",
        "latStart": -32.59925495,
        "lonStart": 151.33635399,
        "latEnd": -32.60045974,
        "lonEnd": 151.3435233,
        "length": 0,
        "surfacetype": 1
      }
    ],
    "id": 6721
  },
  {
    "type": 1,
    "icao": "YGCR",
    "lat": -32.05348282,
    "lon": 151.97619391,
    "communications": [],
    "elevation": 383,
    "tower": false,
    "name": "GLOUCESTER",
    "runways": [
      {
        "type": 100,
        "width": 96.93,
        "surfaceType": null,
        "numberStart": "17",
        "numberEnd": "35",
        "latStart": -32.05048164,
        "lonStart": 151.97608995,
        "latEnd": -32.056484,
        "lonEnd": 151.97629787,
        "length": 0,
        "surfacetype": 3
      }
    ],
    "id": 10038
  },
  {
    "type": 1,
    "icao": "YMND",
    "lat": -32.699724627500004,
    "lon": 151.49288380624998,
    "communications": [
      {
        "type": 51,
        "frequency": 12670,
        "name": "MAITLAND MULTICOM"
      },
      {
        "type": 54,
        "frequency": 12570,
        "name": "BRISBANE CTR"
      }
    ],
    "elevation": 85,
    "tower": true,
    "name": "Maitland (NSW)",
    "runways": [
      {
        "type": 100,
        "width": 49.99,
        "surfaceType": null,
        "numberStart": "04",
        "numberEnd": "22",
        "latStart": -32.70060816,
        "lonStart": 151.49077778,
        "latEnd": -32.69655596,
        "lonEnd": 151.49494023,
        "length": 0,
        "surfacetype": 3
      },
      {
        "type": 100,
        "width": 70.1,
        "surfaceType": null,
        "numberStart": "17",
        "numberEnd": "35",
        "latStart": -32.69671355,
        "lonStart": 151.49122469,
        "latEnd": -32.70071692,
        "lonEnd": 151.49157523,
        "length": 0,
        "surfacetype": 3
      },
      {
        "type": 100,
        "width": 9.14,
        "surfaceType": null,
        "numberStart": "08",
        "numberEnd": "26",
        "latStart": -32.70106532,
        "lonStart": 151.48844683,
        "latEnd": -32.70145324,
        "lonEnd": 151.49695155,
        "length": 0,
        "surfacetype": 1
      },
      {
        "type": 100,
        "width": 10.97,
        "surfaceType": null,
        "numberStart": "05",
        "numberEnd": "23",
        "latStart": -32.703132,
        "lonStart": 151.48954877,
        "latEnd": -32.69755187,
        "lonEnd": 151.49960537,
        "length": 0,
        "surfacetype": 1
      }
    ],
    "id": 16501
  },
  {
    "type": 1,
    "icao": "YSGT",
    "lat": -32.60080178,
    "lon": 151.193065905,
    "communications": [
      {
        "type": 51,
        "frequency": 12670,
        "name": "CTAF"
      }
    ],
    "elevation": 150,
    "tower": false,
    "name": "Singleton",
    "runways": [
      {
        "type": 100,
        "width": 14.02,
        "surfaceType": null,
        "numberStart": "10",
        "numberEnd": "28",
        "latStart": -32.59874516,
        "lonStart": 151.188416,
        "latEnd": -32.6028584,
        "lonEnd": 151.19771581,
        "length": 0,
        "surfacetype": 1
      }
    ],
    "id": 23550
  },
  {
    "type": 1,
    "icao": "YWKW",
    "lat": -32.547607310000004,
    "lon": 151.022333635,
    "communications": [
      {
        "type": 51,
        "frequency": 12670,
        "name": "CTAF"
      }
    ],
    "elevation": 250,
    "tower": false,
    "name": "Warkworth",
    "runways": [
      {
        "type": 100,
        "width": 117.96,
        "surfaceType": null,
        "numberStart": "10",
        "numberEnd": "28",
        "latStart": -32.54545149,
        "lonStart": 151.01507127,
        "latEnd": -32.54976313,
        "lonEnd": 151.029596,
        "length": 0,
        "surfacetype": 3
      }
    ],
    "id": 26920
  },
  {
    "type": 1,
    "icao": "WWLD",
    "lat": -32.880001,
    "lon": 151.66000400000001,
    "communications": [
      {
        "type": 51,
        "frequency": 12600,
        "name": "CTAF"
      }
    ],
    "elevation": 20,
    "tower": false,
    "name": "West Wallsend",
    "runways": [
      {
        "type": 100,
        "width": 18.29,
        "surfaceType": null,
        "numberStart": "03",
        "numberEnd": "21",
        "latStart": -32.88294186,
        "lonStart": 151.65798223,
        "latEnd": -32.87706014,
        "lonEnd": 151.66202577,
        "length": 0,
        "surfacetype": 5
      }
    ],
    "id": 27134
  },
  {
    "type": 1,
    "icao": "YWLM",
    "lat": -32.795878,
    "lon": 151.83479549999998,
    "communications": [
      {
        "type": 50,
        "frequency": 12570,
        "name": "ATIS"
      },
      {
        "type": 51,
        "frequency": 11830,
        "name": "CTAF"
      },
      {
        "type": 52,
        "frequency": 13035,
        "name": "CLNC DEL"
      },
      {
        "type": 53,
        "frequency": 12180,
        "name": "GND"
      },
      {
        "type": 54,
        "frequency": 11830,
        "name": "TWR"
      },
      {
        "type": 55,
        "frequency": 13570,
        "name": "WILLY APP"
      }
    ],
    "elevation": 30,
    "tower": true,
    "name": "Williamtown",
    "runways": [
      {
        "type": 100,
        "width": 45.11,
        "surfaceType": null,
        "numberStart": "12",
        "numberEnd": "30",
        "latStart": -32.788767,
        "lonStart": 151.824869,
        "latEnd": -32.802989,
        "lonEnd": 151.844722,
        "length": 0,
        "surfacetype": 1
      }
    ],
    "id": 27348
  },
  {
    "type": 17,
    "icao": "YXFV",
    "lat": -32.92030061333333,
    "lon": 151.72974928666667,
    "communications": [],
    "elevation": 19,
    "tower": false,
    "name": "[H] Broadmeadow Helicopter Base",
    "runways": [
      {
        "type": 102,
        "width": 17.1,
        "surfaceType": 2,
        "numberStart": "H1",
        "numberEnd": null,
        "latStart": -32.92043599,
        "lonStart": 151.72939706,
        "latEnd": null,
        "lonEnd": null,
        "length": 18
      },
      {
        "type": 102,
        "width": 11.9,
        "surfaceType": 2,
        "numberStart": "H2",
        "numberEnd": null,
        "latStart": -32.92032749,
        "lonStart": 151.72970794,
        "latEnd": null,
        "lonEnd": null,
        "length": 11
      },
      {
        "type": 102,
        "width": 9.1,
        "surfaceType": 2,
        "numberStart": "H3",
        "numberEnd": null,
        "latStart": -32.92013836,
        "lonStart": 151.73014286,
        "latEnd": null,
        "lonEnd": null,
        "length": 10.1
      }
    ],
    "id": 28592
  },
  {
    "type": 17,
    "icao": "YLID",
    "lat": -32.418068,
    "lon": 151.033713,
    "communications": [],
    "elevation": 372,
    "tower": false,
    "name": "[H] LIDDELL",
    "runways": [
      {
        "type": 102,
        "width": 29.9,
        "surfaceType": 3,
        "numberStart": "H16",
        "numberEnd": null,
        "latStart": -32.418068,
        "lonStart": 151.033713,
        "latEnd": null,
        "lonEnd": null,
        "length": 29.9
      }
    ],
    "id": 30790
  },
  {
    "type": 17,
    "icao": "YNRH",
    "lat": -32.87908851,
    "lon": 151.72803036,
    "communications": [
      {
        "type": 54,
        "frequency": 11830,
        "name": "Williamtown TWR"
      }
    ],
    "elevation": 22,
    "tower": true,
    "name": "[H] Newcastle Regional Heliport",
    "runways": [
      {
        "type": 102,
        "width": 10.1,
        "surfaceType": 2,
        "numberStart": "H4",
        "numberEnd": null,
        "latStart": -32.87908851,
        "lonStart": 151.72803036,
        "latEnd": null,
        "lonEnd": null,
        "length": 10.1
      }
    ],
    "id": 31603
  }
]