[
  {
    "type": 1,
    "icao": "LFKT",
    "lat": 42.291790000000006,
    "lon": 25.737152000000002,
    "communications": [],
    "elevation": 1130,
    "tower": true,
    "name": "Corte",
    "runways": [
      {
        "type": 100,
        "width": 20.12,
        "surfaceType": null,
        "numberStart": "13",
        "numberEnd": "31",
        "latStart": 42.294268,
        "lonStart": 9.184992,
        "latEnd": 42.289312,
        "lonEnd": 9.19423,
        "length": 0,
        "surfacetype": 1
      }
    ],
    "id": 5359
  },
  {
    "type": 1,
    "icao": "LFKG",
    "lat": 42.052435,
    "lon": 25.72793,
    "communications": [],
    "elevation": 177,
    "tower": false,
    "name": "GHISONACCIA ALZITONE",
    "runways": [
      {
        "type": 100,
        "width": 17.98,
        "surfaceType": null,
        "numberStart": "01",
        "numberEnd": "19",
        "latStart": 42.048842,
        "lonStart": 9.399832,
        "latEnd": 42.056028,
        "lonEnd": 9.40042,
        "length": 0,
        "surfacetype": 1
      }
    ],
    "id": 9990
  },
  {
    "type": 1,
    "icao": "2021",
    "lat": 42.36465,
    "lon": 25.942520000000002,
    "communications": [],
    "elevation": 50,
    "tower": true,
    "name": "Moriani Plage",
    "runways": [
      {
        "type": 100,
        "width": 42.98,
        "surfaceType": null,
        "numberStart": "04",
        "numberEnd": "22",
        "latStart": 42.364314,
        "lonStart": 9.520054,
        "latEnd": 42.364986,
        "lonEnd": 9.524522,
        "length": 0,
        "surfacetype": 3
      }
    ],
    "id": 17514
  },
  {
    "type": 1,
    "icao": "LFKC",
    "lat": 42.530761999999996,
    "lon": 25.6565905,
    "communications": [
      {
        "type": 50,
        "frequency": 13117,
        "name": "LFKC ATIS"
      },
      {
        "type": 53,
        "frequency": 12170,
        "name": "CALVI GND"
      },
      {
        "type": 54,
        "frequency": 12080,
        "name": "CALVI TWR"
      },
      {
        "type": 54,
        "frequency": 12320,
        "name": "CALVI TWR"
      },
      {
        "type": 55,
        "frequency": 12382,
        "name": "BASTIA APP"
      }
    ],
    "elevation": 208,
    "tower": true,
    "name": "St Catherine",
    "runways": [
      {
        "type": 100,
        "width": 39.93,
        "surfaceType": null,
        "numberStart": "18",
        "numberEnd": "36",
        "latStart": 42.54117,
        "lonStart": 8.792827,
        "latEnd": 42.520354,
        "lonEnd": 8.793023,
        "length": 0,
        "surfacetype": 2
      }
    ],
    "id": 24026
  }
]