[
  {
    "type": 1,
    "icao": "KMAL",
    "lat": 44.8536293075,
    "lon": -74.32863990999999,
    "communications": [
      {
        "type": 51,
        "frequency": 12280,
        "name": "CTAF/UNICOM"
      }
    ],
    "elevation": 790,
    "tower": false,
    "name": "Malone-Dufort",
    "runways": [
      {
        "type": 100,
        "width": 30.48,
        "surfaceType": null,
        "numberStart": "05",
        "numberEnd": "23",
        "latStart": 44.84948404,
        "lonStart": -74.33630548,
        "latEnd": 44.85822502,
        "lonEnd": -74.32706138,
        "length": 0,
        "surfacetype": 1
      },
      {
        "type": 100,
        "width": 22.86,
        "surfaceType": null,
        "numberStart": "14",
        "numberEnd": "32",
        "latStart": 44.85607688,
        "lonStart": -74.33060331,
        "latEnd": 44.85073129,
        "lonEnd": -74.32058947,
        "length": 0,
        "surfacetype": 1
      }
    ],
    "id": 2933
  },
  {
    "type": 1,
    "icao": "KSLK",
    "lat": 44.384569250000006,
    "lon": -74.206212,
    "communications": [
      {
        "type": 51,
        "frequency": 12300,
        "name": "CTAF/UNICOM"
      },
      {
        "type": 50,
        "frequency": 12417,
        "name": "ASOS"
      },
      {
        "type": 54,
        "frequency": 12430,
        "name": "TWR"
      },
      {
        "type": 53,
        "frequency": 12160,
        "name": "GND"
      },
      {
        "type": 52,
        "frequency": 12060,
        "name": "CLR DLV"
      }
    ],
    "elevation": 1663,
    "tower": true,
    "name": "Adirondack Rgnl",
    "runways": [
      {
        "type": 100,
        "width": 45.72,
        "surfaceType": null,
        "numberStart": "05",
        "numberEnd": "23",
        "latStart": 44.380208,
        "lonStart": -74.213275,
        "latEnd": 44.394994,
        "lonEnd": -74.198892,
        "length": 0,
        "surfacetype": 1
      },
      {
        "type": 100,
        "width": 30.48,
        "surfaceType": null,
        "numberStart": "09",
        "numberEnd": "27",
        "latStart": 44.380503,
        "lonStart": -74.21385,
        "latEnd": 44.382572,
        "lonEnd": -74.198831,
        "length": 0,
        "surfacetype": 1
      }
    ],
    "id": 3277
  },
  {
    "type": 1,
    "icao": "KMSS",
    "lat": 44.9361709725,
    "lon": -74.84538402749999,
    "communications": [
      {
        "type": 50,
        "frequency": 12807,
        "name": "ASOS"
      },
      {
        "type": 51,
        "frequency": 12300,
        "name": "CTAF/UNICOM"
      },
      {
        "type": 55,
        "frequency": 13525,
        "name": "BOSTON APP/DEP"
      }
    ],
    "elevation": 215,
    "tower": false,
    "name": "MASSENA INTL RICHARDS FLD",
    "runways": [
      {
        "type": 100,
        "width": 30.48,
        "surfaceType": null,
        "numberStart": "05",
        "numberEnd": "23",
        "latStart": 44.930031,
        "lonStart": -74.849397,
        "latEnd": 44.94316389,
        "lonEnd": -74.83818611,
        "length": 0,
        "surfacetype": 1
      },
      {
        "type": 100,
        "width": 30.48,
        "surfaceType": null,
        "numberStart": "09",
        "numberEnd": "27",
        "latStart": 44.934439,
        "lonStart": -74.854478,
        "latEnd": 44.93705,
        "lonEnd": -74.839475,
        "length": 0,
        "surfacetype": 1
      }
    ],
    "id": 19522
  },
  {
    "type": 1,
    "icao": "KPTD",
    "lat": 44.6766695,
    "lon": -74.9484445,
    "communications": [
      {
        "type": 51,
        "frequency": 12280,
        "name": "UNICOM"
      }
    ],
    "elevation": 474,
    "tower": false,
    "name": "POTSDAM MUNI",
    "runways": [
      {
        "type": 100,
        "width": 18.29,
        "surfaceType": null,
        "numberStart": "06",
        "numberEnd": "24",
        "latStart": 44.673022,
        "lonStart": -74.9534,
        "latEnd": 44.680317,
        "lonEnd": -74.943489,
        "length": 0,
        "surfacetype": 1
      }
    ],
    "id": 19716
  },
  {
    "type": 17,
    "icao": "NK11",
    "lat": 44.30116083,
    "lon": -74.08070862,
    "communications": [],
    "elevation": 1663,
    "tower": false,
    "name": "[H] Troop B. Headquarters",
    "runways": [
      {
        "type": 102,
        "width": 30.5,
        "surfaceType": 1,
        "numberStart": "H1",
        "numberEnd": null,
        "latStart": 44.30116083,
        "lonStart": -74.08070862,
        "latEnd": null,
        "lonEnd": null,
        "length": 30.5
      }
    ],
    "id": 22720
  },
  {
    "type": 17,
    "icao": "NK75",
    "lat": 44.93671527,
    "lon": -74.90936667,
    "communications": [],
    "elevation": 261,
    "tower": false,
    "name": "[H] Thomas E. Perdue",
    "runways": [
      {
        "type": 102,
        "width": 15.2,
        "surfaceType": 2,
        "numberStart": "H1",
        "numberEnd": null,
        "latStart": 44.93671527,
        "lonStart": -74.90936667,
        "latEnd": null,
        "lonEnd": null,
        "length": 18.3
      }
    ],
    "id": 22773
  }
]