[
  {
    "type": 1,
    "icao": "SKSO",
    "lat": 5.676209500000001,
    "lon": -72.9702945,
    "communications": [
      {
        "type": 54,
        "frequency": 11835,
        "name": "TWR"
      }
    ],
    "elevation": 8154,
    "tower": true,
    "name": "ALBERTO LLERAS CAMARGO",
    "runways": [
      {
        "type": 100,
        "width": 24.38,
        "surfaceType": null,
        "numberStart": "04",
        "numberEnd": "22",
        "latStart": 5.669733,
        "lonStart": -72.975806,
        "latEnd": 5.682686,
        "lonEnd": -72.964783,
        "length": 0,
        "surfacetype": 1
      }
    ],
    "id": 27431
  },
  {
    "type": 1,
    "icao": "SKYP",
    "lat": 5.3191125,
    "lon": -72.3839735,
    "communications": [
      {
        "type": 54,
        "frequency": 12680,
        "name": "FIS"
      },
      {
        "type": 54,
        "frequency": 11830,
        "name": "TWR"
      },
      {
        "type": 55,
        "frequency": 12680,
        "name": "APP"
      }
    ],
    "elevation": 1028,
    "tower": true,
    "name": "EL YOPAL",
    "runways": [
      {
        "type": 100,
        "width": 29.87,
        "surfaceType": null,
        "numberStart": "05",
        "numberEnd": "23",
        "latStart": 5.310881,
        "lonStart": -72.392197,
        "latEnd": 5.327344,
        "lonEnd": -72.37575,
        "length": 0,
        "surfacetype": 1
      }
    ],
    "id": 27449
  }
]