[
  {
    "type": 1,
    "icao": "RJOE",
    "lat": 34.529989,
    "lon": 136.67526900000001,
    "communications": [],
    "elevation": 20,
    "tower": true,
    "name": "Akeno AB",
    "runways": [
      {
        "type": 100,
        "width": 30.48,
        "surfaceType": null,
        "numberStart": "04",
        "numberEnd": "22",
        "latStart": 34.52811736,
        "lonStart": 136.67375482,
        "latEnd": 34.53186064,
        "lonEnd": 136.67678318,
        "length": 0,
        "surfacetype": 2
      },
      {
        "type": 100,
        "width": 30.48,
        "surfaceType": null,
        "numberStart": "13",
        "numberEnd": "31",
        "latStart": 34.53123979,
        "lonStart": 136.67299985,
        "latEnd": 34.52873821,
        "lonEnd": 136.67753815,
        "length": 0,
        "surfacetype": 2
      }
    ],
    "id": 778
  },
  {
    "type": 1,
    "icao": "RJGG",
    "lat": 34.858413999999996,
    "lon": 136.8054085,
    "communications": [
      {
        "type": 50,
        "frequency": 12107,
        "name": "ATIS"
      },
      {
        "type": 52,
        "frequency": 12185,
        "name": "CLD"
      },
      {
        "type": 52,
        "frequency": 12620,
        "name": "CLD"
      },
      {
        "type": 53,
        "frequency": 12620,
        "name": "GND"
      },
      {
        "type": 53,
        "frequency": 12180,
        "name": "GND"
      },
      {
        "type": 54,
        "frequency": 12620,
        "name": "TWR"
      },
      {
        "type": 54,
        "frequency": 11885,
        "name": "TWR"
      },
      {
        "type": 55,
        "frequency": 12105,
        "name": "APP"
      },
      {
        "type": 55,
        "frequency": 11917,
        "name": "APP"
      },
      {
        "type": 55,
        "frequency": 12550,
        "name": "RDR"
      },
      {
        "type": 55,
        "frequency": 11925,
        "name": "TCA"
      },
      {
        "type": 55,
        "frequency": 12117,
        "name": "TCA"
      },
      {
        "type": 56,
        "frequency": 12000,
        "name": "DEP"
      }
    ],
    "elevation": 15,
    "tower": true,
    "name": "CHUBU CENTRAIR INTL",
    "runways": [
      {
        "type": 100,
        "width": 60.05,
        "surfaceType": null,
        "numberStart": "18",
        "numberEnd": "36",
        "latStart": 34.873886,
        "lonStart": 136.801678,
        "latEnd": 34.842942,
        "lonEnd": 136.809139,
        "length": 0,
        "surfacetype": 1
      }
    ],
    "id": 3920
  }
]