[
  {
    "type": 1,
    "icao": "UTSB",
    "lat": 39.775000000000006,
    "lon": 52.134166500000006,
    "communications": [
      {
        "type": 54,
        "frequency": 11940,
        "name": "TWR"
      },
      {
        "type": 54,
        "frequency": 12010,
        "name": "TWR"
      },
      {
        "type": 55,
        "frequency": 12460,
        "name": "APP"
      }
    ],
    "elevation": 750,
    "tower": true,
    "name": "BUKHARA",
    "runways": [
      {
        "type": 100,
        "width": 44.81,
        "surfaceType": null,
        "numberStart": "01",
        "numberEnd": "19",
        "latStart": 39.761667,
        "lonStart": 64.48,
        "latEnd": 39.788333,
        "lonEnd": 64.486667,
        "length": 0,
        "surfacetype": 1
      }
    ],
    "id": 1968
  },
  {
    "type": 1,
    "icao": "UT1P",
    "lat": 39.689411,
    "lon": 52.120126,
    "communications": [],
    "elevation": 689,
    "tower": false,
    "name": "KAGAN SOUTH",
    "runways": [
      {
        "type": 100,
        "width": 57.91,
        "surfaceType": null,
        "numberStart": "03",
        "numberEnd": "21",
        "latStart": 39.684989,
        "lonStart": 64.546419,
        "latEnd": 39.693833,
        "lonEnd": 64.554389,
        "length": 0,
        "surfacetype": 1
      }
    ],
    "id": 13177
  },
  {
    "type": 1,
    "icao": "UT73",
    "lat": 39.137786000000006,
    "lon": 52.154564,
    "communications": [],
    "elevation": 1047,
    "tower": false,
    "name": "MAYMANAK",
    "runways": [
      {
        "type": 100,
        "width": 38.1,
        "surfaceType": null,
        "numberStart": "01",
        "numberEnd": "19",
        "latStart": 39.127147,
        "lonStart": 65.160703,
        "latEnd": 39.148425,
        "lonEnd": 65.169894,
        "length": 0,
        "surfacetype": 1
      }
    ],
    "id": 15948
  }
]