[
  {
    "type": 17,
    "icao": "3NK9",
    "lat": 42.1009075,
    "lon": -76.82551223,
    "communications": [],
    "elevation": 909,
    "tower": false,
    "name": "[H] Arnot Ogden Hospital",
    "runways": [
      {
        "type": 102,
        "width": 20.1,
        "surfaceType": 1,
        "numberStart": "H1",
        "numberEnd": null,
        "latStart": 42.1009075,
        "lonStart": -76.82551223,
        "latEnd": null,
        "lonEnd": null,
        "length": 33.5
      }
    ],
    "id": 28189
  },
  {
    "type": 17,
    "icao": "NY12",
    "lat": 42.94089972,
    "lon": -76.56327473,
    "communications": [],
    "elevation": 729,
    "tower": false,
    "name": "[H] Auburn Memorial Hospital",
    "runways": [
      {
        "type": 102,
        "width": 12.2,
        "surfaceType": 2,
        "numberStart": "H1",
        "numberEnd": null,
        "latStart": 42.94089972,
        "lonStart": -76.56327473,
        "latEnd": null,
        "lonEnd": null,
        "length": 12.2
      }
    ],
    "id": 28226
  },
  {
    "type": 17,
    "icao": "NK49",
    "lat": 42.10285194,
    "lon": -76.22131973,
    "communications": [],
    "elevation": 907,
    "tower": false,
    "name": "[H] Ibm Owego",
    "runways": [
      {
        "type": 102,
        "width": 61,
        "surfaceType": 1,
        "numberStart": "H1",
        "numberEnd": null,
        "latStart": 42.10285194,
        "lonStart": -76.22131973,
        "latEnd": null,
        "lonEnd": null,
        "length": 146.3
      }
    ],
    "id": 30469
  },
  {
    "type": 17,
    "icao": "5NY0",
    "lat": 42.11118527,
    "lon": -76.17742917,
    "communications": [],
    "elevation": 837,
    "tower": false,
    "name": "[H] Mdc Site 1",
    "runways": [
      {
        "type": 102,
        "width": 27.43,
        "surfaceType": 1,
        "numberStart": "H1",
        "numberEnd": null,
        "latStart": 42.11118527,
        "lonStart": -76.17742917,
        "latEnd": null,
        "lonEnd": null,
        "length": 27.43
      }
    ],
    "id": 31167
  },
  {
    "type": 17,
    "icao": "16NY",
    "lat": 42.93978861,
    "lon": -76.11492389,
    "communications": [],
    "elevation": 1378,
    "tower": false,
    "name": "[H] Station 241",
    "runways": [
      {
        "type": 102,
        "width": 7.6,
        "surfaceType": 2,
        "numberStart": "H1",
        "numberEnd": null,
        "latStart": 42.93978861,
        "lonStart": -76.11492389,
        "latEnd": null,
        "lonEnd": null,
        "length": 7.6
      }
    ],
    "id": 33062
  },
  {
    "type": 17,
    "icao": "9NY3",
    "lat": 42.09729638,
    "lon": -76.22465334,
    "communications": [],
    "elevation": 883,
    "tower": false,
    "name": "[H] Susquehanna",
    "runways": [
      {
        "type": 102,
        "width": 30.5,
        "surfaceType": 2,
        "numberStart": "H1",
        "numberEnd": null,
        "latStart": 42.09729638,
        "lonStart": -76.22465334,
        "latEnd": null,
        "lonEnd": null,
        "length": 30.5
      },
      {
        "type": 102,
        "width": 21.3,
        "surfaceType": 2,
        "numberStart": "H2",
        "numberEnd": null,
        "latStart": 42.09729638,
        "lonStart": -76.22465334,
        "latEnd": null,
        "lonEnd": null,
        "length": 21.3
      }
    ],
    "id": 33147
  }
]