[
  {
    "type": 1,
    "icao": "SKAR",
    "lat": 4.451605875,
    "lon": -75.766303,
    "communications": [
      {
        "type": 54,
        "frequency": 11850,
        "name": "TWR"
      },
      {
        "type": 55,
        "frequency": 12070,
        "name": "APP"
      }
    ],
    "elevation": 3988,
    "tower": true,
    "name": "El Eden",
    "runways": [
      {
        "type": 100,
        "width": 36,
        "surfaceType": null,
        "numberStart": "02",
        "numberEnd": "20",
        "latStart": 4.44138333,
        "lonStart": -75.768825,
        "latEnd": 4.46182842,
        "lonEnd": -75.763781,
        "length": 0,
        "surfacetype": 1
      }
    ],
    "id": 4884
  },
  {
    "type": 1,
    "icao": "SKGO",
    "lat": 4.7581205,
    "lon": -75.9557805,
    "communications": [
      {
        "type": 54,
        "frequency": 11830,
        "name": "TWR"
      },
      {
        "type": 55,
        "frequency": 11990,
        "name": "PEREIRA APP"
      }
    ],
    "elevation": 2979,
    "tower": true,
    "name": "SANTA ANA",
    "runways": [
      {
        "type": 100,
        "width": 39.93,
        "surfaceType": null,
        "numberStart": "01",
        "numberEnd": "19",
        "latStart": 4.748122,
        "lonStart": -75.956619,
        "latEnd": 4.768119,
        "lonEnd": -75.954942,
        "length": 0,
        "surfacetype": 1
      }
    ],
    "id": 27389
  },
  {
    "type": 1,
    "icao": "SKIB",
    "lat": 4.421662215,
    "lon": -75.13363612500001,
    "communications": [
      {
        "type": 54,
        "frequency": 11830,
        "name": "TWR"
      },
      {
        "type": 55,
        "frequency": 11950,
        "name": "BOGOTA APP"
      }
    ],
    "elevation": 2999,
    "tower": true,
    "name": "PERALES",
    "runways": [
      {
        "type": 100,
        "width": 30,
        "surfaceType": null,
        "numberStart": "14",
        "numberEnd": "32",
        "latStart": 4.4269865,
        "lonStart": -75.13977241,
        "latEnd": 4.41633793,
        "lonEnd": -75.12749984,
        "length": 0,
        "surfacetype": 1
      }
    ],
    "id": 27392
  },
  {
    "type": 1,
    "icao": "SKPE",
    "lat": 4.812615,
    "lon": -75.739654,
    "communications": [
      {
        "type": 54,
        "frequency": 11870,
        "name": "TWR"
      },
      {
        "type": 55,
        "frequency": 11990,
        "name": "APP"
      }
    ],
    "elevation": 4418,
    "tower": true,
    "name": "Matecana",
    "runways": [
      {
        "type": 100,
        "width": 45.11,
        "surfaceType": null,
        "numberStart": "08",
        "numberEnd": "26",
        "latStart": 4.80980804,
        "lonStart": -75.74831395,
        "latEnd": 4.81542196,
        "lonEnd": -75.73099405,
        "length": 0,
        "surfacetype": 1
      }
    ],
    "id": 27418
  }
]