[
  {
    "type": 1,
    "icao": "FBML",
    "lat": -24.39,
    "lon": 25.4983,
    "communications": [],
    "elevation": 3790,
    "tower": false,
    "name": "Molepolole",
    "runways": [
      {
        "type": 100,
        "width": 10.06,
        "surfaceType": null,
        "numberStart": "03",
        "numberEnd": "21",
        "latStart": -24.3938,
        "lonStart": 25.4959,
        "latEnd": -24.3862,
        "lonEnd": 25.5007,
        "length": 0,
        "surfacetype": 4
      }
    ],
    "id": 17364
  },
  {
    "type": 1,
    "icao": "FBSK",
    "lat": -24.555225,
    "lon": 25.918208,
    "communications": [
      {
        "type": 53,
        "frequency": 12190,
        "name": "KHAMA GND"
      },
      {
        "type": 54,
        "frequency": 11830,
        "name": "KHAMA TWR"
      },
      {
        "type": 55,
        "frequency": 12820,
        "name": "GABORONE APP"
      }
    ],
    "elevation": 3299,
    "tower": true,
    "name": "SIR SERETSE KHAMA INTL",
    "runways": [
      {
        "type": 100,
        "width": 45.11,
        "surfaceType": null,
        "numberStart": "08",
        "numberEnd": "26",
        "latStart": -24.561669,
        "lonStart": 25.905172,
        "latEnd": -24.548781,
        "lonEnd": 25.931244,
        "length": 0,
        "surfacetype": 2
      }
    ],
    "id": 22300
  },
  {
    "type": 1,
    "icao": "FBTP",
    "lat": -24.21749225,
    "lon": 25.34413125,
    "communications": [],
    "elevation": 3750,
    "tower": false,
    "name": "THEBEPHATSHWA",
    "runways": [
      {
        "type": 100,
        "width": 45.11,
        "surfaceType": null,
        "numberStart": "08",
        "numberEnd": "26",
        "latStart": -24.227008,
        "lonStart": 25.333972,
        "latEnd": -24.215236,
        "lonEnd": 25.360572,
        "length": 0,
        "surfacetype": 1
      },
      {
        "type": 100,
        "width": 18.29,
        "surfaceType": null,
        "numberStart": "08L",
        "numberEnd": "26R",
        "latStart": -24.217786,
        "lonStart": 25.332075,
        "latEnd": -24.209939,
        "lonEnd": 25.349906,
        "length": 0,
        "surfacetype": 1
      }
    ],
    "id": 24685
  }
]