[
  {
    "type": 1,
    "icao": "OPKC",
    "lat": 24.906540919999998,
    "lon": 67.16079305,
    "communications": [
      {
        "type": 50,
        "frequency": 12670,
        "name": "ATIS"
      },
      {
        "type": 53,
        "frequency": 12160,
        "name": "Ground"
      },
      {
        "type": 53,
        "frequency": 11840,
        "name": "Ground"
      },
      {
        "type": 54,
        "frequency": 11880,
        "name": "Tower"
      },
      {
        "type": 54,
        "frequency": 11830,
        "name": "Tower"
      },
      {
        "type": 55,
        "frequency": 12550,
        "name": "Approach"
      },
      {
        "type": 55,
        "frequency": 12130,
        "name": "Approach"
      }
    ],
    "elevation": 100,
    "tower": true,
    "name": "Karachi Jinnah International",
    "runways": [
      {
        "type": 100,
        "width": 46.02,
        "surfaceType": null,
        "numberStart": "07R",
        "numberEnd": "25L",
        "latStart": 24.90038042,
        "lonStart": 67.1426268,
        "latEnd": 24.90868042,
        "lonEnd": 67.1750318,
        "length": 0,
        "surfacetype": 2
      },
      {
        "type": 100,
        "width": 46.02,
        "surfaceType": null,
        "numberStart": "07L",
        "numberEnd": "25R",
        "latStart": 24.90470242,
        "lonStart": 67.1475488,
        "latEnd": 24.91240042,
        "lonEnd": 67.1779648,
        "length": 0,
        "surfacetype": 2
      }
    ],
    "id": 4336
  },
  {
    "type": 1,
    "icao": "OPSF",
    "lat": 24.874206,
    "lon": 67.118504,
    "communications": [
      {
        "type": 54,
        "frequency": 12250,
        "name": "TWR"
      }
    ],
    "elevation": 29,
    "tower": true,
    "name": "SHAREA FAISAL",
    "runways": [
      {
        "type": 100,
        "width": 45.72,
        "surfaceType": null,
        "numberStart": "08",
        "numberEnd": "26",
        "latStart": 24.872081,
        "lonStart": 67.106575,
        "latEnd": 24.876331,
        "lonEnd": 67.130433,
        "length": 0,
        "surfacetype": 1
      }
    ],
    "id": 23627
  }
]