[
  {
    "type": 1,
    "icao": "SLVR",
    "lat": -17.644755500000002,
    "lon": -63.13536184,
    "communications": [
      {
        "type": 54,
        "frequency": 11860,
        "name": "TWR"
      },
      {
        "type": 55,
        "frequency": 11970,
        "name": "APP"
      },
      {
        "type": 53,
        "frequency": 12190,
        "name": "GND"
      },
      {
        "type": 52,
        "frequency": 12180,
        "name": "CLNC DEL"
      }
    ],
    "elevation": 1225,
    "tower": true,
    "name": "Viru Viru",
    "runways": [
      {
        "type": 100,
        "width": 45.11,
        "surfaceType": null,
        "numberStart": "16",
        "numberEnd": "34",
        "latStart": -17.63146714,
        "lonStart": -63.14430023,
        "latEnd": -17.65804386,
        "lonEnd": -63.12642345,
        "length": 0,
        "surfacetype": 1
      }
    ],
    "id": 4916
  },
  {
    "type": 1,
    "icao": "SLET",
    "lat": -17.811580499999998,
    "lon": -63.1714805,
    "communications": [
      {
        "type": 53,
        "frequency": 12170,
        "name": "GND"
      },
      {
        "type": 54,
        "frequency": 11830,
        "name": "TROMPILLO TWR"
      },
      {
        "type": 55,
        "frequency": 11970,
        "name": "VIRU VIRU APP"
      }
    ],
    "elevation": 1371,
    "tower": true,
    "name": "EL TROMPILLO",
    "runways": [
      {
        "type": 100,
        "width": 37.8,
        "surfaceType": null,
        "numberStart": "15",
        "numberEnd": "33",
        "latStart": -17.801389,
        "lonStart": -63.1793,
        "latEnd": -17.821772,
        "lonEnd": -63.163661,
        "length": 0,
        "surfacetype": 1
      }
    ],
    "id": 27458
  }
]