[
  {
    "type": 1,
    "icao": "KTLH",
    "lat": 30.397151257500003,
    "lon": -84.3513504525,
    "communications": [
      {
        "type": 50,
        "frequency": 11945,
        "name": "ATIS"
      },
      {
        "type": 51,
        "frequency": 11870,
        "name": "CTAF"
      },
      {
        "type": 51,
        "frequency": 12295,
        "name": "UNICOM"
      },
      {
        "type": 52,
        "frequency": 12665,
        "name": "CLNC DEL"
      },
      {
        "type": 53,
        "frequency": 12190,
        "name": "GND"
      },
      {
        "type": 54,
        "frequency": 11870,
        "name": "TWR"
      },
      {
        "type": 55,
        "frequency": 12870,
        "name": "APP/DEP"
      },
      {
        "type": 55,
        "frequency": 13385,
        "name": "APP/DEP"
      },
      {
        "type": 55,
        "frequency": 13580,
        "name": "APP/DEP"
      }
    ],
    "elevation": 81,
    "tower": true,
    "name": "Tallahassee Rgnl",
    "runways": [
      {
        "type": 100,
        "width": 45.72,
        "surfaceType": null,
        "numberStart": "09",
        "numberEnd": "27",
        "latStart": 30.3913144,
        "lonStart": -84.35654141,
        "latEnd": 30.39151494,
        "lonEnd": -84.33110297,
        "length": 0,
        "surfacetype": 1
      },
      {
        "type": 100,
        "width": 45.72,
        "surfaceType": null,
        "numberStart": "18",
        "numberEnd": "36",
        "latStart": 30.4124879,
        "lonStart": -84.35897755,
        "latEnd": 30.39328779,
        "lonEnd": -84.35877988,
        "length": 0,
        "surfacetype": 1
      }
    ],
    "id": 3330
  },
  {
    "type": 1,
    "icao": "2J9",
    "lat": 30.597872080000002,
    "lon": -84.55742555500001,
    "communications": [],
    "elevation": 222,
    "tower": false,
    "name": "Quincy Municipal",
    "runways": [
      {
        "type": 100,
        "width": 22.86,
        "surfaceType": null,
        "numberStart": "14",
        "numberEnd": "32",
        "latStart": 30.60077861,
        "lonStart": -84.56072361,
        "latEnd": 30.59496555,
        "lonEnd": -84.5541275,
        "length": 0,
        "surfacetype": 1
      }
    ],
    "id": 7036
  },
  {
    "type": 17,
    "icao": "4GA3",
    "lat": 30.90324388,
    "lon": -84.55185778,
    "communications": [],
    "elevation": 120,
    "tower": false,
    "name": "[H] Memorial Hospital",
    "runways": [
      {
        "type": 102,
        "width": 9.1,
        "surfaceType": 2,
        "numberStart": "H1",
        "numberEnd": null,
        "latStart": 30.90324388,
        "lonStart": -84.55185778,
        "latEnd": null,
        "lonEnd": null,
        "length": 9.1
      }
    ],
    "id": 8068
  },
  {
    "type": 1,
    "icao": "5FD5",
    "lat": 30.59547194,
    "lon": -84.98130834,
    "communications": [],
    "elevation": 100,
    "tower": false,
    "name": "Able Airpark",
    "runways": [
      {
        "type": 100,
        "width": 22.86,
        "surfaceType": null,
        "numberStart": "09",
        "numberEnd": "27",
        "latStart": 30.59542407,
        "lonStart": -84.98449447,
        "latEnd": 30.59551981,
        "lonEnd": -84.97812221,
        "length": 0,
        "surfacetype": 3
      }
    ],
    "id": 8565
  },
  {
    "type": 1,
    "icao": "5FL6",
    "lat": 30.60435944,
    "lon": -84.79075056,
    "communications": [],
    "elevation": 295,
    "tower": false,
    "name": "Flat Creek",
    "runways": [
      {
        "type": 100,
        "width": 21.34,
        "surfaceType": null,
        "numberStart": "18",
        "numberEnd": "36",
        "latStart": 30.60792477,
        "lonStart": -84.79082286,
        "latEnd": 30.60079411,
        "lonEnd": -84.79067826,
        "length": 0,
        "surfacetype": 3
      }
    ],
    "id": 8576
  },
  {
    "type": 1,
    "icao": "6FL2",
    "lat": 30.72741361,
    "lon": -84.9177,
    "communications": [],
    "elevation": 160,
    "tower": false,
    "name": "Kilpatrick Farm",
    "runways": [
      {
        "type": 100,
        "width": 18.29,
        "surfaceType": null,
        "numberStart": "10",
        "numberEnd": "28",
        "latStart": 30.7277998,
        "lonStart": -84.92053651,
        "latEnd": 30.72702742,
        "lonEnd": -84.91486349,
        "length": 0,
        "surfacetype": 3
      }
    ],
    "id": 9072
  },
  {
    "type": 17,
    "icao": "29FD",
    "lat": 30.57047305,
    "lon": -84.54991084,
    "communications": [],
    "elevation": 229,
    "tower": false,
    "name": "[H] Gadsden Memorial Hospital",
    "runways": [
      {
        "type": 102,
        "width": 18.3,
        "surfaceType": 3,
        "numberStart": "H1",
        "numberEnd": null,
        "latStart": 30.57047305,
        "lonStart": -84.54991084,
        "latEnd": null,
        "lonEnd": null,
        "length": 18.3
      }
    ],
    "id": 11660
  },
  {
    "type": 17,
    "icao": "31FD",
    "lat": 30.7063025,
    "lon": -84.84242028,
    "communications": [],
    "elevation": 233,
    "tower": false,
    "name": "[H] Florida State Hospital",
    "runways": [
      {
        "type": 102,
        "width": 6.1,
        "surfaceType": 3,
        "numberStart": "H1",
        "numberEnd": null,
        "latStart": 30.7063025,
        "lonStart": -84.84242028,
        "latEnd": null,
        "lonEnd": null,
        "length": 6.1
      }
    ],
    "id": 11736
  },
  {
    "type": 1,
    "icao": "53FD",
    "lat": 30.47659083,
    "lon": -84.03433528,
    "communications": [],
    "elevation": 80,
    "tower": false,
    "name": "Charlottes Field",
    "runways": [
      {
        "type": 100,
        "width": 38.1,
        "surfaceType": null,
        "numberStart": "10",
        "numberEnd": "28",
        "latStart": 30.47692944,
        "lonStart": -84.03713088,
        "latEnd": 30.47625222,
        "lonEnd": -84.03153968,
        "length": 0,
        "surfacetype": 3
      }
    ],
    "id": 12601
  },
  {
    "type": 1,
    "icao": "53J",
    "lat": 30.73296888,
    "lon": -84.82908723,
    "communications": [],
    "elevation": 235,
    "tower": false,
    "name": "Chattahoochee",
    "runways": [
      {
        "type": 100,
        "width": 30.48,
        "surfaceType": null,
        "numberStart": "05",
        "numberEnd": "23",
        "latStart": 30.73119306,
        "lonStart": -84.83108231,
        "latEnd": 30.7347447,
        "lonEnd": -84.82709215,
        "length": 0,
        "surfacetype": 3
      }
    ],
    "id": 12608
  },
  {
    "type": 1,
    "icao": "68J",
    "lat": 30.5473095,
    "lon": -84.3738365,
    "communications": [
      {
        "type": 51,
        "frequency": 12280,
        "name": "CTAF/UNICOM"
      },
      {
        "type": 55,
        "frequency": 12870,
        "name": "APP/DEP"
      }
    ],
    "elevation": 155,
    "tower": false,
    "name": "TALLAHASSEE COML",
    "runways": [
      {
        "type": 100,
        "width": 15.24,
        "surfaceType": null,
        "numberStart": "16",
        "numberEnd": "34",
        "latStart": 30.551472,
        "lonStart": -84.375706,
        "latEnd": 30.543147,
        "lonEnd": -84.371967,
        "length": 0,
        "surfacetype": 1
      }
    ],
    "id": 13195
  },
  {
    "type": 1,
    "icao": "70J",
    "lat": 30.8879765,
    "lon": -84.1547345,
    "communications": [
      {
        "type": 51,
        "frequency": 12270,
        "name": "CTAF/UNICOM"
      },
      {
        "type": 55,
        "frequency": 12870,
        "name": "TALLAHASSEE APP/DEP"
      }
    ],
    "elevation": 265,
    "tower": false,
    "name": "CAIRO GRADY CO",
    "runways": [
      {
        "type": 100,
        "width": 22.86,
        "surfaceType": null,
        "numberStart": "13",
        "numberEnd": "31",
        "latStart": 30.890775,
        "lonStart": -84.160222,
        "latEnd": 30.885178,
        "lonEnd": -84.149247,
        "length": 0,
        "surfacetype": 1
      }
    ],
    "id": 13273
  },
  {
    "type": 1,
    "icao": "76FD",
    "lat": 30.6704725,
    "lon": -84.41407389,
    "communications": [],
    "elevation": 270,
    "tower": false,
    "name": "Peavy Farms",
    "runways": [
      {
        "type": 100,
        "width": 16.76,
        "surfaceType": null,
        "numberStart": "16",
        "numberEnd": "34",
        "latStart": 30.67403305,
        "lonStart": -84.4157464,
        "latEnd": 30.66691195,
        "lonEnd": -84.41240138,
        "length": 0,
        "surfacetype": 3
      }
    ],
    "id": 13515
  },
  {
    "type": 1,
    "icao": "83GA",
    "lat": 30.999722220000002,
    "lon": -84.50611112,
    "communications": [],
    "elevation": 129,
    "tower": false,
    "name": "Brock Airpark",
    "runways": [
      {
        "type": 100,
        "width": 30.48,
        "surfaceType": null,
        "numberStart": "18",
        "numberEnd": "36",
        "latStart": 31.00445098,
        "lonStart": -84.50630377,
        "latEnd": 30.99499346,
        "lonEnd": -84.50591847,
        "length": 0,
        "surfacetype": 3
      }
    ],
    "id": 13781
  },
  {
    "type": 1,
    "icao": "87J",
    "lat": 30.679361659999998,
    "lon": -84.36907223,
    "communications": [],
    "elevation": 260,
    "tower": false,
    "name": "Rutten Dusting Strip",
    "runways": [
      {
        "type": 100,
        "width": 30.48,
        "surfaceType": null,
        "numberStart": "09",
        "numberEnd": "27",
        "latStart": 30.67930924,
        "lonStart": -84.37256407,
        "latEnd": 30.67941408,
        "lonEnd": -84.36558039,
        "length": 0,
        "surfacetype": 3
      }
    ],
    "id": 13927
  },
  {
    "type": 1,
    "icao": "FA26",
    "lat": 30.53722222,
    "lon": -84.45194445,
    "communications": [],
    "elevation": 200,
    "tower": false,
    "name": "Dogwood Farm",
    "runways": [
      {
        "type": 100,
        "width": 30.48,
        "surfaceType": null,
        "numberStart": "09",
        "numberEnd": "27",
        "latStart": 30.53710256,
        "lonStart": -84.4559229,
        "latEnd": 30.53734188,
        "lonEnd": -84.447966,
        "length": 0,
        "surfacetype": 3
      }
    ],
    "id": 16786
  },
  {
    "type": 1,
    "icao": "FD01",
    "lat": 30.279648610000002,
    "lon": -84.0487775,
    "communications": [],
    "elevation": 34,
    "tower": false,
    "name": "Hidden Acres Airpark",
    "runways": [
      {
        "type": 100,
        "width": 21.34,
        "surfaceType": null,
        "numberStart": "14",
        "numberEnd": "32",
        "latStart": 30.28185332,
        "lonStart": -84.0509968,
        "latEnd": 30.2774439,
        "lonEnd": -84.0465582,
        "length": 0,
        "surfacetype": 3
      }
    ],
    "id": 16989
  },
  {
    "type": 17,
    "icao": "FD18",
    "lat": 30.4574225,
    "lon": -84.26101,
    "communications": [],
    "elevation": 277,
    "tower": false,
    "name": "[H] Tallahassee Memorial Hospital",
    "runways": [
      {
        "type": 102,
        "width": 16.5,
        "surfaceType": 2,
        "numberStart": "H1",
        "numberEnd": null,
        "latStart": 30.4574225,
        "lonStart": -84.26101,
        "latEnd": null,
        "lonEnd": null,
        "length": 16.5
      }
    ],
    "id": 17007
  },
  {
    "type": 1,
    "icao": "FD68",
    "lat": 30.19798111,
    "lon": -84.25350695,
    "communications": [],
    "elevation": 15,
    "tower": false,
    "name": "Wakulla Club",
    "runways": [
      {
        "type": 100,
        "width": 15.24,
        "surfaceType": null,
        "numberStart": "01",
        "numberEnd": "19",
        "latStart": 30.19333083,
        "lonStart": -84.25426312,
        "latEnd": 30.20263139,
        "lonEnd": -84.25275078,
        "length": 0,
        "surfacetype": 3
      }
    ],
    "id": 17053
  },
  {
    "type": 1,
    "icao": "FL12",
    "lat": 30.590476940000002,
    "lon": -84.03044695,
    "communications": [],
    "elevation": 183,
    "tower": false,
    "name": "Ingalls Field",
    "runways": [
      {
        "type": 100,
        "width": 30.48,
        "surfaceType": null,
        "numberStart": "12",
        "numberEnd": "30",
        "latStart": 30.59395387,
        "lonStart": -84.03804331,
        "latEnd": 30.58700001,
        "lonEnd": -84.02285059,
        "length": 0,
        "surfacetype": 3
      }
    ],
    "id": 17117
  },
  {
    "type": 1,
    "icao": "KBGE",
    "lat": 30.97153575,
    "lon": -84.637048,
    "communications": [
      {
        "type": 50,
        "frequency": 12112,
        "name": "AWOS 3"
      },
      {
        "type": 51,
        "frequency": 12297,
        "name": "CTAF/UNICOM"
      },
      {
        "type": 55,
        "frequency": 12870,
        "name": "TALLAHASSEE APP/DEP"
      }
    ],
    "elevation": 141,
    "tower": false,
    "name": "DECATUR CO INDUSTRIAL AIRPARK",
    "runways": [
      {
        "type": 100,
        "width": 45.72,
        "surfaceType": null,
        "numberStart": "09",
        "numberEnd": "27",
        "latStart": 30.972819,
        "lonStart": -84.6433,
        "latEnd": 30.972894,
        "lonEnd": -84.625747,
        "length": 0,
        "surfacetype": 1
      },
      {
        "type": 100,
        "width": 30.48,
        "surfaceType": null,
        "numberStart": "14",
        "numberEnd": "32",
        "latStart": 30.975369,
        "lonStart": -84.644856,
        "latEnd": 30.965061,
        "lonEnd": -84.634289,
        "length": 0,
        "surfacetype": 1
      }
    ],
    "id": 18864
  }
]