[
  {
    "type": 1,
    "icao": "LFEB",
    "lat": 48.443286,
    "lon": -2.103299,
    "communications": [
      {
        "type": 51,
        "frequency": 12350,
        "name": "DINAN MULT"
      },
      {
        "type": 55,
        "frequency": 12490,
        "name": "RENNES APP"
      }
    ],
    "elevation": 393,
    "tower": true,
    "name": "Dinan Trelivan",
    "runways": [
      {
        "type": 100,
        "width": 29.87,
        "surfaceType": null,
        "numberStart": "07",
        "numberEnd": "25",
        "latStart": 48.441953,
        "lonStart": -2.108909,
        "latEnd": 48.444619,
        "lonEnd": -2.097689,
        "length": 0,
        "surfacetype": 1
      }
    ],
    "id": 6300
  },
  {
    "type": 1,
    "icao": "LFRD",
    "lat": 48.58798350000001,
    "lon": -2.079916,
    "communications": [
      {
        "type": 50,
        "frequency": 12457,
        "name": "LFRD ATIS"
      },
      {
        "type": 54,
        "frequency": 12015,
        "name": "DINARD TWR"
      },
      {
        "type": 55,
        "frequency": 12490,
        "name": "RENNES APP"
      }
    ],
    "elevation": 216,
    "tower": true,
    "name": "Dinard Pleurtuit-St Malo",
    "runways": [
      {
        "type": 100,
        "width": 45.11,
        "surfaceType": null,
        "numberStart": "17",
        "numberEnd": "35",
        "latStart": 48.598056,
        "lonStart": -2.082677,
        "latEnd": 48.578622,
        "lonEnd": -2.077547,
        "length": 0,
        "surfacetype": 1
      },
      {
        "type": 100,
        "width": 45.11,
        "surfaceType": null,
        "numberStart": "12",
        "numberEnd": "30",
        "latStart": 48.590485,
        "lonStart": -2.088926,
        "latEnd": 48.584771,
        "lonEnd": -2.070514,
        "length": 0,
        "surfacetype": 1
      }
    ],
    "id": 6301
  },
  {
    "type": 1,
    "icao": "LFRP",
    "lat": 48.001856000000004,
    "lon": -2.37873899,
    "communications": [
      {
        "type": 51,
        "frequency": 12350,
        "name": "PLOERMEL MULT"
      }
    ],
    "elevation": 235,
    "tower": true,
    "name": "Ploermel Loyat",
    "runways": [
      {
        "type": 100,
        "width": 50,
        "surfaceType": null,
        "numberStart": "10",
        "numberEnd": "28",
        "latStart": 48.00216431,
        "lonStart": -2.3840991,
        "latEnd": 48.00154769,
        "lonEnd": -2.37337888,
        "length": 0,
        "surfacetype": 3
      }
    ],
    "id": 20272
  },
  {
    "type": 1,
    "icao": "LFED",
    "lat": 48.056782999999996,
    "lon": -2.9212720450000003,
    "communications": [
      {
        "type": 50,
        "frequency": 12975,
        "name": "PONTIVY FSS"
      },
      {
        "type": 51,
        "frequency": 12975,
        "name": "PONTIVY MULT"
      }
    ],
    "elevation": 406,
    "tower": true,
    "name": "Pontivy",
    "runways": [
      {
        "type": 100,
        "width": 30,
        "surfaceType": null,
        "numberStart": "10",
        "numberEnd": "28",
        "latStart": 48.05712417,
        "lonStart": -2.92879461,
        "latEnd": 48.05644183,
        "lonEnd": -2.91374948,
        "length": 0,
        "surfacetype": 1
      }
    ],
    "id": 20354
  },
  {
    "type": 1,
    "icao": "LFRT",
    "lat": 48.538265685,
    "lon": -2.85461322,
    "communications": [
      {
        "type": 50,
        "frequency": 11940,
        "name": "SAINT_BRIEUC FSS"
      },
      {
        "type": 51,
        "frequency": 11940,
        "name": "ST_BRIEUC MULT"
      },
      {
        "type": 54,
        "frequency": 11940,
        "name": "ST_BRIEUC TWR"
      },
      {
        "type": 55,
        "frequency": 12490,
        "name": "RENNES APP"
      }
    ],
    "elevation": 452,
    "tower": true,
    "name": "Saint Brieuc Armor",
    "runways": [
      {
        "type": 100,
        "width": 45.11,
        "surfaceType": null,
        "numberStart": "06",
        "numberEnd": "24",
        "latStart": 48.53314168,
        "lonStart": -2.86738022,
        "latEnd": 48.54338969,
        "lonEnd": -2.84184622,
        "length": 0,
        "surfacetype": 1
      }
    ],
    "id": 22690
  }
]