[
  {
    "type": 1,
    "icao": "CFH4",
    "lat": 45.870000000000005,
    "lon": -8.801403,
    "communications": [
      {
        "type": 51,
        "frequency": 12220,
        "name": "UNICOM/CTAF"
      }
    ],
    "elevation": 62,
    "tower": false,
    "name": "FOX HARBOUR",
    "runways": [
      {
        "type": 100,
        "width": 22.86,
        "surfaceType": null,
        "numberStart": "15",
        "numberEnd": "33",
        "latStart": 45.873933,
        "lonStart": -63.468873,
        "latEnd": 45.866067,
        "lonEnd": -63.45335,
        "length": 0,
        "surfacetype": 1
      }
    ],
    "id": 7667
  },
  {
    "type": 1,
    "icao": "CYTN",
    "lat": 45.61113475,
    "lon": -8.5070755,
    "communications": [
      {
        "type": 51,
        "frequency": 12280,
        "name": "CTAF/UNICOM"
      },
      {
        "type": 55,
        "frequency": 13530,
        "name": "MONCTON CNTR"
      },
      {
        "type": 55,
        "frequency": 13565,
        "name": "MONCTON CNTR"
      }
    ],
    "elevation": 319,
    "tower": false,
    "name": "TRENTON",
    "runways": [
      {
        "type": 100,
        "width": 44.2,
        "surfaceType": null,
        "numberStart": "07",
        "numberEnd": "25",
        "latStart": 45.607075,
        "lonStart": -62.628133,
        "latEnd": 45.616606,
        "lonEnd": -62.614089,
        "length": 0,
        "surfacetype": 1
      },
      {
        "type": 100,
        "width": 18.29,
        "surfaceType": null,
        "numberStart": "10",
        "numberEnd": "28",
        "latStart": 45.609997,
        "lonStart": -62.627636,
        "latEnd": 45.610861,
        "lonEnd": -62.619131,
        "length": 0,
        "surfacetype": 1
      }
    ],
    "id": 24847
  }
]