[
  {
    "type": 1,
    "icao": "EPBC",
    "lat": 52.27080006571428,
    "lon": 29.86421408714286,
    "communications": [
      {
        "type": 54,
        "frequency": 11917,
        "name": "INFO"
      }
    ],
    "elevation": 352,
    "tower": true,
    "name": "BABICE",
    "runways": [
      {
        "type": 100,
        "width": 149.96,
        "surfaceType": null,
        "numberStart": "10L",
        "numberEnd": "28R",
        "latStart": 52.27124803,
        "lonStart": 20.90245353,
        "latEnd": 52.26929397,
        "lonEnd": 20.91667553,
        "length": 0,
        "surfacetype": 3
      },
      {
        "type": 100,
        "width": 89.92,
        "surfaceType": null,
        "numberStart": "10R",
        "numberEnd": "28L",
        "latStart": 52.27051015,
        "lonStart": 20.89799831,
        "latEnd": 52.26695985,
        "lonEnd": 20.92397314,
        "length": 0,
        "surfacetype": 2
      },
      {
        "type": 102,
        "width": 14.9,
        "surfaceType": 2,
        "numberStart": "H1",
        "numberEnd": null,
        "latStart": 52.27224619,
        "lonStart": 20.89848745,
        "latEnd": null,
        "lonEnd": null,
        "length": 14
      },
      {
        "type": 102,
        "width": 7,
        "surfaceType": 2,
        "numberStart": "H2",
        "numberEnd": null,
        "latStart": 52.27291538,
        "lonStart": 20.90616421,
        "latEnd": null,
        "lonEnd": null,
        "length": 7
      },
      {
        "type": 102,
        "width": 18.9,
        "surfaceType": 2,
        "numberStart": "H3",
        "numberEnd": null,
        "latStart": 52.27242689,
        "lonStart": 20.90814129,
        "latEnd": null,
        "lonEnd": null,
        "length": 18.9
      }
    ],
    "id": 1416
  },
  {
    "type": 1,
    "icao": "EHDS",
    "lat": 52.4632912,
    "lon": 29.39107099,
    "communications": [],
    "elevation": 16,
    "tower": false,
    "name": "Dalfsen Gliders",
    "runways": [
      {
        "type": 100,
        "width": 36.58,
        "surfaceType": null,
        "numberStart": "07",
        "numberEnd": "25",
        "latStart": 52.46154438,
        "lonStart": 6.31710396,
        "latEnd": 52.46503802,
        "lonEnd": 6.33129644,
        "length": 0,
        "surfacetype": 3
      }
    ],
    "id": 5961
  },
  {
    "type": 1,
    "icao": "EHNP",
    "lat": 52.729980499999996,
    "lon": 29.2351916,
    "communications": [],
    "elevation": -8,
    "tower": false,
    "name": "Emmeloord",
    "runways": [
      {
        "type": 100,
        "width": 49.99,
        "surfaceType": null,
        "numberStart": "09",
        "numberEnd": "27",
        "latStart": 52.73023632,
        "lonStart": 5.74065852,
        "latEnd": 52.72972468,
        "lonEnd": 5.75274108,
        "length": 0,
        "surfacetype": 3
      }
    ],
    "id": 7165
  },
  {
    "type": 1,
    "icao": "EHHO",
    "lat": 52.73096075,
    "lon": 29.61986648,
    "communications": [
      {
        "type": 54,
        "frequency": 12735,
        "name": "Hoogeveen Information"
      }
    ],
    "elevation": 41,
    "tower": true,
    "name": "Hoogeveen",
    "runways": [
      {
        "type": 100,
        "width": 24,
        "surfaceType": null,
        "numberStart": "09",
        "numberEnd": "27",
        "latStart": 52.7312835,
        "lonStart": 6.50909496,
        "latEnd": 52.730638,
        "lonEnd": 6.5251118,
        "length": 0,
        "surfacetype": 3
      }
    ],
    "id": 12020
  },
  {
    "type": 1,
    "icao": "EDDG",
    "lat": 52.13519675,
    "lon": 29.904653500000002,
    "communications": [
      {
        "type": 50,
        "frequency": 12717,
        "name": "Muenster ATIS"
      },
      {
        "type": 53,
        "frequency": 12187,
        "name": "Muenster GND"
      },
      {
        "type": 54,
        "frequency": 12352,
        "name": "Langen INFO"
      },
      {
        "type": 54,
        "frequency": 12980,
        "name": "Muenster TWR"
      },
      {
        "type": 55,
        "frequency": 12930,
        "name": "Langen RADAR"
      }
    ],
    "elevation": 159,
    "tower": true,
    "name": "Muenster-Osnabrueck",
    "runways": [
      {
        "type": 100,
        "width": 30,
        "surfaceType": null,
        "numberStart": "07L",
        "numberEnd": "25R",
        "latStart": 52.134303,
        "lonStart": 7.673567,
        "latEnd": 52.137131,
        "lonEnd": 7.686881,
        "length": 0,
        "surfacetype": 3
      },
      {
        "type": 100,
        "width": 45.11,
        "surfaceType": null,
        "numberStart": "07",
        "numberEnd": "25",
        "latStart": 52.131512,
        "lonStart": 7.670075,
        "latEnd": 52.137841,
        "lonEnd": 7.700016,
        "length": 0,
        "surfacetype": 1
      }
    ],
    "id": 17686
  },
  {
    "type": 1,
    "icao": "EDWN",
    "lat": 52.457525000000004,
    "lon": 29.818598,
    "communications": [
      {
        "type": 54,
        "frequency": 12265,
        "name": "Nordhorn INFO"
      }
    ],
    "elevation": 86,
    "tower": true,
    "name": "Nordhorn-Lingen",
    "runways": [
      {
        "type": 100,
        "width": 20.12,
        "surfaceType": null,
        "numberStart": "06",
        "numberEnd": "24",
        "latStart": 52.455208,
        "lonStart": 7.177354,
        "latEnd": 52.459842,
        "lonEnd": 7.188195,
        "length": 0,
        "surfacetype": 1
      }
    ],
    "id": 18410
  },
  {
    "type": 1,
    "icao": "EDXE",
    "lat": 52.276758099999995,
    "lon": 29.881604335,
    "communications": [
      {
        "type": 54,
        "frequency": 12205,
        "name": "Rheine Info"
      }
    ],
    "elevation": 131,
    "tower": true,
    "name": "Rheine - Eschendorf",
    "runways": [
      {
        "type": 100,
        "width": 30,
        "surfaceType": null,
        "numberStart": "10",
        "numberEnd": "28",
        "latStart": 52.27776239,
        "lonStart": 7.48851533,
        "latEnd": 52.27616901,
        "lonEnd": 7.49715264,
        "length": 0,
        "surfacetype": 3
      },
      {
        "type": 100,
        "width": 30,
        "surfaceType": null,
        "numberStart": "11",
        "numberEnd": "29",
        "latStart": 52.277701,
        "lonStart": 7.486333,
        "latEnd": 52.2754,
        "lonEnd": 7.498663,
        "length": 0,
        "surfacetype": 3
      }
    ],
    "id": 21406
  },
  {
    "type": 1,
    "icao": "EHTL",
    "lat": 52.0664806,
    "lon": 29.0136296775,
    "communications": [],
    "elevation": 264,
    "tower": false,
    "name": "Terlet Gliders",
    "runways": [
      {
        "type": 100,
        "width": 51.21,
        "surfaceType": null,
        "numberStart": "01",
        "numberEnd": "19",
        "latStart": 52.07164668,
        "lonStart": 5.96101057,
        "latEnd": 52.06131072,
        "lonEnd": 5.95618943,
        "length": 0,
        "surfacetype": 3
      },
      {
        "type": 100,
        "width": 45.72,
        "surfaceType": null,
        "numberStart": "02",
        "numberEnd": "20",
        "latStart": 52.07166918,
        "lonStart": 5.9709016,
        "latEnd": 52.06129582,
        "lonEnd": 5.966298,
        "length": 0,
        "surfacetype": 2
      }
    ],
    "id": 25171
  },
  {
    "type": 1,
    "icao": "EHTW",
    "lat": 52.27209524999999,
    "lon": 29.5725695,
    "communications": [
      {
        "type": 54,
        "frequency": 12210,
        "name": "TWR"
      },
      {
        "type": 54,
        "frequency": 11995,
        "name": "TWR"
      },
      {
        "type": 55,
        "frequency": 12210,
        "name": "APP"
      },
      {
        "type": 55,
        "frequency": 11857,
        "name": "APP"
      },
      {
        "type": 55,
        "frequency": 11857,
        "name": "DIRECTOR"
      },
      {
        "type": 55,
        "frequency": 12210,
        "name": "DIRECTOR"
      },
      {
        "type": 55,
        "frequency": 12245,
        "name": "FINAL"
      },
      {
        "type": 55,
        "frequency": 12330,
        "name": "FINAL"
      }
    ],
    "elevation": 114,
    "tower": true,
    "name": "Twenthe",
    "runways": [
      {
        "type": 100,
        "width": 45.11,
        "surfaceType": null,
        "numberStart": "06",
        "numberEnd": "24",
        "latStart": 52.268182,
        "lonStart": 6.871232,
        "latEnd": 52.283494,
        "lonEnd": 6.907107,
        "length": 0,
        "surfacetype": 1
      },
      {
        "type": 100,
        "width": 24.99,
        "surfaceType": null,
        "numberStart": "11",
        "numberEnd": "29",
        "latStart": 52.271625,
        "lonStart": 6.870472,
        "latEnd": 52.26508,
        "lonEnd": 6.897637,
        "length": 0,
        "surfacetype": 1
      }
    ],
    "id": 25742
  },
  {
    "type": 1,
    "icao": "EHDV",
    "lat": 52.6685181,
    "lon": 29.29750032,
    "communications": [],
    "elevation": 0,
    "tower": false,
    "name": "Voorst Sport",
    "runways": [
      {
        "type": 100,
        "width": 36.58,
        "surfaceType": null,
        "numberStart": "05",
        "numberEnd": "23",
        "latStart": 52.66594852,
        "lonStart": 5.92391296,
        "latEnd": 52.67108768,
        "lonEnd": 5.93332484,
        "length": 0,
        "surfacetype": 3
      }
    ],
    "id": 26406
  }
]