[
  {
    "type": 1,
    "icao": "SLSU",
    "lat": -19.007306210000003,
    "lon": -65.28910977999999,
    "communications": [
      {
        "type": 54,
        "frequency": 11870,
        "name": "TWR"
      },
      {
        "type": 55,
        "frequency": 11910,
        "name": "APP"
      },
      {
        "type": 53,
        "frequency": 12190,
        "name": "GND"
      }
    ],
    "elevation": 9526,
    "tower": true,
    "name": "Juana Azurduy de Padilla - Sucre",
    "runways": [
      {
        "type": 100,
        "width": 29.87,
        "surfaceType": null,
        "numberStart": "05",
        "numberEnd": "23",
        "latStart": -19.01641795,
        "lonStart": -65.29888718,
        "latEnd": -18.99819447,
        "lonEnd": -65.27933238,
        "length": 0,
        "surfacetype": 2
      }
    ],
    "id": 4913
  },
  {
    "type": 1,
    "icao": "SLPO",
    "lat": -19.54320261,
    "lon": -65.72391783500001,
    "communications": [
      {
        "type": 54,
        "frequency": 11830,
        "name": "POTOSI TWR"
      }
    ],
    "elevation": 12913,
    "tower": true,
    "name": "CAPITAN NICOLAS ROJAS",
    "runways": [
      {
        "type": 100,
        "width": 29.87,
        "surfaceType": null,
        "numberStart": "06",
        "numberEnd": "24",
        "latStart": -19.55034722,
        "lonStart": -65.73514167,
        "latEnd": -19.536058,
        "lonEnd": -65.712694,
        "length": 0,
        "surfacetype": 1
      }
    ],
    "id": 27466
  }
]