[
  {
    "type": 1,
    "icao": "SLPO",
    "lat": -19.5430695,
    "lon": -65.72370649999999,
    "communications": [
      {
        "type": 54,
        "frequency": 11830,
        "name": "POTOSI TWR"
      }
    ],
    "elevation": 12913,
    "tower": true,
    "name": "CAPITAN NICOLAS ROJAS",
    "runways": [
      {
        "type": 100,
        "width": 29.87,
        "surfaceType": null,
        "numberStart": "06",
        "numberEnd": "24",
        "latStart": -19.550081,
        "lonStart": -65.734719,
        "latEnd": -19.536058,
        "lonEnd": -65.712694,
        "length": 0,
        "surfacetype": 1
      }
    ],
    "id": 3656
  },
  {
    "type": 1,
    "icao": "SLSU",
    "lat": -19.0074711,
    "lon": -65.289272285,
    "communications": [
      {
        "type": 54,
        "frequency": 11870,
        "name": "TWR"
      },
      {
        "type": 55,
        "frequency": 11910,
        "name": "APP"
      },
      {
        "type": 53,
        "frequency": 12190,
        "name": "GND"
      }
    ],
    "elevation": 9526,
    "tower": true,
    "name": "Juana Azurduy de Padilla - Sucre",
    "runways": [
      {
        "type": 100,
        "width": 29.87,
        "surfaceType": null,
        "numberStart": "05",
        "numberEnd": "23",
        "latStart": -19.01641795,
        "lonStart": -65.29888718,
        "latEnd": -18.99852425,
        "lonEnd": -65.27965739,
        "length": 0,
        "surfacetype": 2
      }
    ],
    "id": 13121
  }
]