[
  {
    "type": 1,
    "icao": "PM64",
    "lat": 28.3891835,
    "lon": -74.9559,
    "communications": [],
    "elevation": 12,
    "tower": false,
    "name": "KURE",
    "runways": [
      {
        "type": 100,
        "width": 30.48,
        "surfaceType": null,
        "numberStart": "06",
        "numberEnd": "24",
        "latStart": 28.387228,
        "lonStart": -178.302939,
        "latEnd": 28.391139,
        "lonEnd": -178.291789,
        "length": 0,
        "surfacetype": 4
      }
    ],
    "id": 13499
  },
  {
    "type": 1,
    "icao": "PMDY",
    "lat": 28.201436,
    "lon": -74.593744595,
    "communications": [
      {
        "type": 50,
        "frequency": 11832,
        "name": "AWOS 3"
      },
      {
        "type": 51,
        "frequency": 12290,
        "name": "CTAF"
      }
    ],
    "elevation": 13,
    "tower": false,
    "name": "Midway Atoll",
    "runways": [
      {
        "type": 100,
        "width": 60.96,
        "surfaceType": null,
        "numberStart": "06",
        "numberEnd": "24",
        "latStart": 28.19747044,
        "lonStart": -177.39289075,
        "latEnd": 28.20540156,
        "lonEnd": -177.3700444,
        "length": 0,
        "surfacetype": 1
      }
    ],
    "id": 17168
  },
  {
    "type": 16,
    "icao": "QKRE",
    "lat": 28.403343,
    "lon": -74.95385873500001,
    "communications": [],
    "elevation": 0,
    "tower": false,
    "name": "[S] Kure Island Seaport",
    "runways": [
      {
        "type": 101,
        "width": 914.4,
        "surfaceType": null,
        "numberStart": "18",
        "numberEnd": "36",
        "latStart": 28.40745747,
        "lonStart": -178.306946,
        "latEnd": 28.39922853,
        "lonEnd": -178.306946,
        "length": 0
      }
    ],
    "id": 34219
  },
  {
    "type": 16,
    "icao": "QMDY",
    "lat": 28.211166,
    "lon": -74.573987235,
    "communications": [],
    "elevation": 0,
    "tower": false,
    "name": "[S] Midway Atoll Seaport",
    "runways": [
      {
        "type": 101,
        "width": 914.4,
        "surfaceType": null,
        "numberStart": "18",
        "numberEnd": "36",
        "latStart": 28.21528047,
        "lonStart": -177.355026,
        "latEnd": 28.20705153,
        "lonEnd": -177.355026,
        "length": 0
      }
    ],
    "id": 34292
  }
]