[
  {
    "type": 1,
    "icao": "YAVN",
    "lat": -36.00710957,
    "lon": 55.363730125000004,
    "communications": [],
    "elevation": 0,
    "tower": false,
    "name": "AVONDALE",
    "runways": [
      {
        "type": 100,
        "width": 49.99,
        "surfaceType": null,
        "numberStart": "4",
        "numberEnd": "22",
        "latStart": -36.0029984,
        "lonStart": 146.74069742,
        "latEnd": -36.009457,
        "lonEnd": 146.734026,
        "length": 0,
        "surfacetype": 3
      },
      {
        "type": 100,
        "width": 78.03,
        "surfaceType": null,
        "numberStart": "12",
        "numberEnd": "30",
        "latStart": -36.00626027,
        "lonStart": 146.73340269,
        "latEnd": -36.00972261,
        "lonEnd": 146.7402868,
        "length": 0,
        "surfacetype": 3
      }
    ],
    "id": 492
  },
  {
    "type": 1,
    "icao": "YBGP",
    "lat": -36.054758135,
    "lon": 55.325893515,
    "communications": [],
    "elevation": 519,
    "tower": false,
    "name": "BOGONG PARK",
    "runways": [
      {
        "type": 100,
        "width": 75.9,
        "surfaceType": null,
        "numberStart": "1",
        "numberEnd": "19",
        "latStart": -36.04980327,
        "lonStart": 146.71150003,
        "latEnd": -36.059713,
        "lonEnd": 146.710103,
        "length": 0,
        "surfacetype": 3
      }
    ],
    "id": 1805
  },
  {
    "type": 1,
    "icao": "YBRA",
    "lat": -36.9668865,
    "lon": 55.361745860000006,
    "communications": [
      {
        "type": 51,
        "frequency": 12670,
        "name": "CTAF"
      }
    ],
    "elevation": 2308,
    "tower": false,
    "name": "Benambra",
    "runways": [
      {
        "type": 100,
        "width": 24.08,
        "surfaceType": null,
        "numberStart": "14",
        "numberEnd": "32",
        "latStart": -36.961988,
        "lonStart": 147.69527672,
        "latEnd": -36.971785,
        "lonEnd": 147.702983,
        "length": 0,
        "surfacetype": 4
      }
    ],
    "id": 2536
  },
  {
    "type": 1,
    "icao": "YCRG",
    "lat": -36.183378184999995,
    "lon": 55.849019095,
    "communications": [
      {
        "type": 51,
        "frequency": 12670,
        "name": "CORRYONG CTAF"
      },
      {
        "type": 54,
        "frequency": 12520,
        "name": "MELBOURNE CNTR"
      }
    ],
    "elevation": 960,
    "tower": false,
    "name": "Corryong",
    "runways": [
      {
        "type": 100,
        "width": 18,
        "surfaceType": null,
        "numberStart": "06",
        "numberEnd": "24",
        "latStart": -36.18530492,
        "lonStart": 147.87948964,
        "latEnd": -36.18145145,
        "lonEnd": 147.89422709,
        "length": 0,
        "surfacetype": 1
      }
    ],
    "id": 5357
  },
  {
    "type": 1,
    "icao": "YGEI",
    "lat": -36.381828,
    "lon": 55.898002919999996,
    "communications": [
      {
        "type": 51,
        "frequency": 12670,
        "name": "GEEHI MULT"
      },
      {
        "type": 54,
        "frequency": 12520,
        "name": "MELBOURNE CENTRE CNTR"
      }
    ],
    "elevation": 1389,
    "tower": true,
    "name": "Geehi Landing Ground",
    "runways": [
      {
        "type": 100,
        "width": 14.94,
        "surfaceType": null,
        "numberStart": "15",
        "numberEnd": "33",
        "latStart": -36.38013218,
        "lonStart": 148.17952966,
        "latEnd": -36.38352382,
        "lonEnd": 148.18145843,
        "length": 0,
        "surfacetype": 3
      }
    ],
    "id": 10367
  },
  {
    "type": 1,
    "icao": "YKHA",
    "lat": -36.214497875,
    "lon": 55.946582709999994,
    "communications": [
      {
        "type": 51,
        "frequency": 12670,
        "name": "KHANCOBAN MULT"
      },
      {
        "type": 54,
        "frequency": 12520,
        "name": "MELBOURNE CENTRE CNTR"
      }
    ],
    "elevation": 966,
    "tower": true,
    "name": "Khancoban",
    "runways": [
      {
        "type": 100,
        "width": 14.94,
        "surfaceType": null,
        "numberStart": "14",
        "numberEnd": "32",
        "latStart": -36.21262392,
        "lonStart": 148.10953725,
        "latEnd": -36.21637183,
        "lonEnd": 148.11268239,
        "length": 0,
        "surfacetype": 1
      }
    ],
    "id": 13816
  },
  {
    "type": 1,
    "icao": "YMBT",
    "lat": -36.730641219999995,
    "lon": 55.216096955000005,
    "communications": [
      {
        "type": 51,
        "frequency": 12670,
        "name": "CTAF"
      }
    ],
    "elevation": 1107,
    "tower": false,
    "name": "MOUNT BEAUTY",
    "runways": [
      {
        "type": 100,
        "width": 27.13,
        "surfaceType": null,
        "numberStart": "14",
        "numberEnd": "32",
        "latStart": -36.72734979,
        "lonStart": 147.16612656,
        "latEnd": -36.73393265,
        "lonEnd": 147.17051767,
        "length": 0,
        "surfacetype": 15
      }
    ],
    "id": 16289
  },
  {
    "type": 1,
    "icao": "YITT",
    "lat": -36.51451292,
    "lon": 55.420617095,
    "communications": [
      {
        "type": 51,
        "frequency": 12670,
        "name": "CTAF"
      }
    ],
    "elevation": 820,
    "tower": false,
    "name": "Mitta Mitta",
    "runways": [
      {
        "type": 100,
        "width": 17.98,
        "surfaceType": null,
        "numberStart": "14",
        "numberEnd": "32",
        "latStart": -36.51091009,
        "lonStart": 147.35934994,
        "latEnd": -36.51811575,
        "lonEnd": 147.36477246,
        "length": 0,
        "surfacetype": 4
      }
    ],
    "id": 17324
  },
  {
    "type": 1,
    "icao": "YPOK",
    "lat": -36.71751775,
    "lon": 55.08772991,
    "communications": [
      {
        "type": 51,
        "frequency": 12600,
        "name": "POREPUNKAH MULT"
      },
      {
        "type": 54,
        "frequency": 12520,
        "name": "MELBOURNE CENTRE CNTR"
      }
    ],
    "elevation": 956,
    "tower": true,
    "name": "Porepunkah",
    "runways": [
      {
        "type": 100,
        "width": 29.87,
        "surfaceType": null,
        "numberStart": "18",
        "numberEnd": "36",
        "latStart": -36.72151292,
        "lonStart": 146.8889824,
        "latEnd": -36.71352258,
        "lonEnd": 146.89121053,
        "length": 0,
        "surfacetype": 3
      }
    ],
    "id": 20368
  }
]