[
  {
    "type": 1,
    "icao": "PASC",
    "lat": 70.194754,
    "lon": -39.14675797,
    "communications": [
      {
        "type": 50,
        "frequency": 11840,
        "name": "ATIS"
      },
      {
        "type": 51,
        "frequency": 12360,
        "name": "CTAF"
      },
      {
        "type": 51,
        "frequency": 12300,
        "name": "UNICOM"
      }
    ],
    "elevation": 64,
    "tower": false,
    "name": "DEADHORSE",
    "runways": [
      {
        "type": 100,
        "width": 46.02,
        "surfaceType": null,
        "numberStart": "04",
        "numberEnd": "22",
        "latStart": 70.19244722,
        "lonStart": -148.49057672,
        "latEnd": 70.19706078,
        "lonEnd": -148.4397476,
        "length": 0,
        "surfacetype": 1
      }
    ],
    "id": 5713
  },
  {
    "type": 1,
    "icao": "22AK",
    "lat": 70.41635916,
    "lon": -39.980227320000004,
    "communications": [],
    "elevation": 5,
    "tower": false,
    "name": "Helmericks",
    "runways": [
      {
        "type": 100,
        "width": 15.24,
        "surfaceType": null,
        "numberStart": "03",
        "numberEnd": "21",
        "latStart": 70.41459324,
        "lonStart": -150.37857972,
        "latEnd": 70.41812508,
        "lonEnd": -150.36104306,
        "length": 0,
        "surfacetype": 4
      }
    ],
    "id": 11651
  },
  {
    "type": 1,
    "icao": "AK11",
    "lat": 70.40167694,
    "lon": -39.142877479999996,
    "communications": [],
    "elevation": 15,
    "tower": false,
    "name": "Point Mcintyre",
    "runways": [
      {
        "type": 100,
        "width": 21.34,
        "surfaceType": null,
        "numberStart": "04",
        "numberEnd": "22",
        "latStart": 70.40095456,
        "lonStart": -148.68815428,
        "latEnd": 70.40239932,
        "lonEnd": -148.67632018,
        "length": 0,
        "surfacetype": 5
      }
    ],
    "id": 20304
  },
  {
    "type": 1,
    "icao": "PAKU",
    "lat": 70.33081861,
    "lon": -39.644582420000006,
    "communications": [],
    "elevation": 67,
    "tower": false,
    "name": "Ugnu-Kuparuk",
    "runways": [
      {
        "type": 100,
        "width": 39.62,
        "surfaceType": null,
        "numberStart": "05",
        "numberEnd": "23",
        "latStart": 70.32924845,
        "lonStart": -149.62155361,
        "latEnd": 70.33238877,
        "lonEnd": -149.57355585,
        "length": 0,
        "surfacetype": 5
      }
    ],
    "id": 25879
  },
  {
    "type": 1,
    "icao": "PUO",
    "lat": 70.25185402,
    "lon": -39.05539042,
    "communications": [],
    "elevation": 43,
    "tower": false,
    "name": "[X] Prudhoe Bay",
    "runways": [
      {
        "type": 100,
        "width": 45.72,
        "surfaceType": null,
        "numberStart": "05",
        "numberEnd": "23",
        "latStart": 70.25010638,
        "lonStart": -148.3643825,
        "latEnd": 70.25360166,
        "lonEnd": -148.32115805,
        "length": 0,
        "surfacetype": 5
      }
    ],
    "id": 34573
  }
]