[
  {
    "type": 1,
    "icao": "LIPA",
    "lat": 46.031110999999996,
    "lon": 29.311389,
    "communications": [
      {
        "type": 50,
        "frequency": 12930,
        "name": "ATIS"
      },
      {
        "type": 52,
        "frequency": 12210,
        "name": "CLNC DEL"
      },
      {
        "type": 55,
        "frequency": 12012,
        "name": "APP"
      }
    ],
    "elevation": 410,
    "tower": true,
    "name": "AVIANO AB",
    "runways": [
      {
        "type": 100,
        "width": 43.89,
        "surfaceType": null,
        "numberStart": "05",
        "numberEnd": "23",
        "latStart": 46.023333,
        "lonStart": 12.583889,
        "latEnd": 46.038889,
        "lonEnd": 12.608889,
        "length": 0,
        "surfacetype": 1
      }
    ],
    "id": 491
  },
  {
    "type": 1,
    "icao": "LIDB",
    "lat": 46.170002,
    "lon": 29.208103725,
    "communications": [],
    "elevation": 1240,
    "tower": false,
    "name": "Belluno",
    "runways": [
      {
        "type": 100,
        "width": 42.06,
        "surfaceType": null,
        "numberStart": "05",
        "numberEnd": "23",
        "latStart": 46.16770441,
        "lonStart": 12.24390786,
        "latEnd": 46.17229959,
        "lonEnd": 12.25210194,
        "length": 0,
        "surfacetype": 3
      }
    ],
    "id": 2515
  },
  {
    "type": 1,
    "icao": "LOKL",
    "lat": 46.798,
    "lon": 29.840039185,
    "communications": [],
    "elevation": 2088,
    "tower": true,
    "name": "Lienz Nikolsdorf",
    "runways": [
      {
        "type": 100,
        "width": 11.89,
        "surfaceType": null,
        "numberStart": "12",
        "numberEnd": "30",
        "latStart": 46.79938121,
        "lonStart": 12.88345958,
        "latEnd": 46.79661879,
        "lonEnd": 12.89054042,
        "length": 0,
        "surfacetype": 1
      }
    ],
    "id": 15256
  },
  {
    "type": 1,
    "icao": "LIPD",
    "lat": 46.031399,
    "lon": 29.608888645,
    "communications": [],
    "elevation": 305,
    "tower": false,
    "name": "Udine Campoformido",
    "runways": [
      {
        "type": 100,
        "width": 39.93,
        "surfaceType": null,
        "numberStart": "04",
        "numberEnd": "22",
        "latStart": 46.02888381,
        "lonStart": 13.1838631,
        "latEnd": 46.03391419,
        "lonEnd": 13.1899429,
        "length": 0,
        "surfacetype": 4
      }
    ],
    "id": 25871
  }
]