[
  {
    "type": 1,
    "icao": "RCBS",
    "lat": 24.427896,
    "lon": 118.358916135,
    "communications": [
      {
        "type": 50,
        "frequency": 12720,
        "name": "KINMEN ATIS"
      },
      {
        "type": 54,
        "frequency": 11800,
        "name": "KINMEN TWR"
      },
      {
        "type": 53,
        "frequency": 12620,
        "name": "KINMEN GND"
      },
      {
        "type": 55,
        "frequency": 12460,
        "name": "KAOHSIUNG APPROACH"
      },
      {
        "type": 55,
        "frequency": 13310,
        "name": "KAOHSIUNG APPROACH"
      }
    ],
    "elevation": 56,
    "tower": true,
    "name": "Kinmen Shangyi",
    "runways": [
      {
        "type": 100,
        "width": 45.11,
        "surfaceType": null,
        "numberStart": "06",
        "numberEnd": "24",
        "latStart": 24.42184829,
        "lonStart": 118.34563909,
        "latEnd": 24.43394371,
        "lonEnd": 118.37219318,
        "length": 0,
        "surfacetype": 1
      }
    ],
    "id": 24335
  },
  {
    "type": 1,
    "icao": "ZSAM",
    "lat": 24.544,
    "lon": 118.12774200000001,
    "communications": [
      {
        "type": 50,
        "frequency": 12625,
        "name": "ATIS"
      },
      {
        "type": 53,
        "frequency": 12170,
        "name": "XIAMEN GND"
      },
      {
        "type": 54,
        "frequency": 11825,
        "name": "XIAMEN TWR"
      },
      {
        "type": 54,
        "frequency": 13000,
        "name": "XIAMEN TWR"
      },
      {
        "type": 55,
        "frequency": 12135,
        "name": "XIAMEN APP"
      },
      {
        "type": 55,
        "frequency": 11905,
        "name": "XIAMEN APP"
      }
    ],
    "elevation": 59,
    "tower": true,
    "name": "GAOQI",
    "runways": [
      {
        "type": 100,
        "width": 45.11,
        "surfaceType": null,
        "numberStart": "05",
        "numberEnd": "23",
        "latStart": 24.534589,
        "lonStart": 118.114517,
        "latEnd": 24.553411,
        "lonEnd": 118.140967,
        "length": 0,
        "surfacetype": 1
      }
    ],
    "id": 34937
  }
]