[
  {
    "type": 1,
    "icao": "KCAO",
    "lat": 36.4461265,
    "lon": -103.14928175,
    "communications": [
      {
        "type": 50,
        "frequency": 12062,
        "name": "ASOS"
      },
      {
        "type": 51,
        "frequency": 12280,
        "name": "CTAF/UNICOM"
      }
    ],
    "elevation": 4964,
    "tower": false,
    "name": "CLAYTON MUNI AIRPARK",
    "runways": [
      {
        "type": 100,
        "width": 22.86,
        "surfaceType": null,
        "numberStart": "02",
        "numberEnd": "20",
        "latStart": 36.438764,
        "lonStart": -103.157925,
        "latEnd": 36.453717,
        "lonEnd": -103.147144,
        "length": 0,
        "surfacetype": 1
      },
      {
        "type": 100,
        "width": 18.29,
        "surfaceType": null,
        "numberStart": "12",
        "numberEnd": "30",
        "latStart": 36.449647,
        "lonStart": -103.15135,
        "latEnd": 36.442378,
        "lonEnd": -103.140708,
        "length": 0,
        "surfacetype": 1
      }
    ],
    "id": 3971
  },
  {
    "type": 1,
    "icao": "97XS",
    "lat": 36.283364160000005,
    "lon": -103.01715306,
    "communications": [],
    "elevation": 4509,
    "tower": false,
    "name": "Circle H Farms Ltd",
    "runways": [
      {
        "type": 100,
        "width": 12.19,
        "surfaceType": null,
        "numberStart": "06",
        "numberEnd": "24",
        "latStart": 36.28195693,
        "lonStart": -103.02194941,
        "latEnd": 36.28477139,
        "lonEnd": -103.01235671,
        "length": 0,
        "surfacetype": 5
      }
    ],
    "id": 5011
  },
  {
    "type": 1,
    "icao": "NM15",
    "lat": 36.04614472,
    "lon": -103.88746778,
    "communications": [],
    "elevation": 5534,
    "tower": false,
    "name": "Clavel Ranch",
    "runways": [
      {
        "type": 100,
        "width": 91.44,
        "surfaceType": null,
        "numberStart": "08",
        "numberEnd": "26",
        "latStart": 36.04614472,
        "lonStart": -103.89194588,
        "latEnd": 36.04614472,
        "lonEnd": -103.88298968,
        "length": 0,
        "surfacetype": 3
      }
    ],
    "id": 5065
  }
]