[
  {
    "type": 1,
    "icao": "EGHJ",
    "lat": 50.678044895,
    "lon": -1.1095856099999999,
    "communications": [
      {
        "type": 54,
        "frequency": 12325,
        "name": "Bembridge Radio"
      }
    ],
    "elevation": 55,
    "tower": true,
    "name": "Bembridge",
    "runways": [
      {
        "type": 100,
        "width": 22.86,
        "surfaceType": null,
        "numberStart": "12",
        "numberEnd": "30",
        "latStart": 50.67980749,
        "lonStart": -1.11479203,
        "latEnd": 50.6762823,
        "lonEnd": -1.10437919,
        "length": 0,
        "surfacetype": 2
      }
    ],
    "id": 2531
  },
  {
    "type": 1,
    "icao": "EGHH",
    "lat": 50.78006542,
    "lon": -1.842532835,
    "communications": [
      {
        "type": 50,
        "frequency": 13372,
        "name": "Bournemouth Information"
      },
      {
        "type": 53,
        "frequency": 12170,
        "name": "Bournemouth Ground"
      },
      {
        "type": 54,
        "frequency": 11947,
        "name": "Bournemouth Radar"
      },
      {
        "type": 54,
        "frequency": 12560,
        "name": "Bournemouth Tower"
      },
      {
        "type": 55,
        "frequency": 11947,
        "name": "Bournemouth Approach"
      }
    ],
    "elevation": 38,
    "tower": true,
    "name": "Bournemouth",
    "runways": [
      {
        "type": 100,
        "width": 46.02,
        "surfaceType": null,
        "numberStart": "08",
        "numberEnd": "26",
        "latStart": 50.77747484,
        "lonStart": -1.85812666,
        "latEnd": 50.782656,
        "lonEnd": -1.82693901,
        "length": 0,
        "surfacetype": 1
      }
    ],
    "id": 3061
  },
  {
    "type": 1,
    "icao": "EGHF",
    "lat": 50.815968803333334,
    "lon": -1.2081427166666667,
    "communications": [],
    "elevation": 32,
    "tower": false,
    "name": "Lee on Solent",
    "runways": [
      {
        "type": 100,
        "width": 46.02,
        "surfaceType": null,
        "numberStart": "05",
        "numberEnd": "23",
        "latStart": 50.81118428,
        "lonStart": -1.21392387,
        "latEnd": 50.81948372,
        "lonEnd": -1.20069613,
        "length": 0,
        "surfacetype": 1
      },
      {
        "type": 102,
        "width": 17.98,
        "surfaceType": 1,
        "numberStart": "H1",
        "numberEnd": null,
        "latStart": 50.81723841,
        "lonStart": -1.20980815,
        "latEnd": null,
        "lonEnd": null,
        "length": 17.98
      }
    ],
    "id": 15107
  },
  {
    "type": 1,
    "icao": "EGHN",
    "lat": 50.653027030000004,
    "lon": -1.182182025,
    "communications": [
      {
        "type": 54,
        "frequency": 11927,
        "name": "Sandown Radio"
      }
    ],
    "elevation": 60,
    "tower": true,
    "name": "Sandown",
    "runways": [
      {
        "type": 100,
        "width": 42.06,
        "surfaceType": null,
        "numberStart": "05",
        "numberEnd": "23",
        "latStart": 50.65021804,
        "lonStart": -1.186615,
        "latEnd": 50.65583602,
        "lonEnd": -1.17774905,
        "length": 0,
        "surfacetype": 3
      }
    ],
    "id": 22849
  },
  {
    "type": 1,
    "icao": "EGHI",
    "lat": 50.9502555,
    "lon": -1.3568055,
    "communications": [
      {
        "type": 54,
        "frequency": 11820,
        "name": "Southampton Tower"
      }
    ],
    "elevation": 42,
    "tower": true,
    "name": "Southampton",
    "runways": [
      {
        "type": 100,
        "width": 36.88,
        "surfaceType": null,
        "numberStart": "02",
        "numberEnd": "20",
        "latStart": 50.94295,
        "lonStart": -1.360875,
        "latEnd": 50.957561,
        "lonEnd": -1.352736,
        "length": 0,
        "surfacetype": 1
      }
    ],
    "id": 23896
  },
  {
    "type": 17,
    "icao": "EGLH",
    "lat": 50.66167476,
    "lon": -1.59030635,
    "communications": [],
    "elevation": 36,
    "tower": false,
    "name": "[H] Needles Lighthouse",
    "runways": [
      {
        "type": 102,
        "width": 4.6,
        "surfaceType": 1,
        "numberStart": "H1",
        "numberEnd": null,
        "latStart": 50.66167476,
        "lonStart": -1.59030635,
        "latEnd": null,
        "lonEnd": null,
        "length": 4.6
      }
    ],
    "id": 31581
  }
]