[
  {
    "type": 1,
    "icao": "SKLT",
    "lat": -4.1931665,
    "lon": -69.94268199999999,
    "communications": [
      {
        "type": 54,
        "frequency": 11810,
        "name": "TWR"
      },
      {
        "type": 55,
        "frequency": 11910,
        "name": "LETICIA APP"
      }
    ],
    "elevation": 276,
    "tower": true,
    "name": "ALFREDO VASQUEZ COBO",
    "runways": [
      {
        "type": 100,
        "width": 39.93,
        "surfaceType": null,
        "numberStart": "03",
        "numberEnd": "21",
        "latStart": -4.2011,
        "lonStart": -69.945686,
        "latEnd": -4.185233,
        "lonEnd": -69.939678,
        "length": 0,
        "surfacetype": 1
      }
    ],
    "id": 208
  },
  {
    "type": 1,
    "icao": "SBTT",
    "lat": -4.2556695,
    "lon": -69.935829,
    "communications": [
      {
        "type": 54,
        "frequency": 12590,
        "name": "RDO"
      }
    ],
    "elevation": 279,
    "tower": true,
    "name": "TABATINGA",
    "runways": [
      {
        "type": 100,
        "width": 32,
        "surfaceType": null,
        "numberStart": "12",
        "numberEnd": "30",
        "latStart": -4.251567,
        "lonStart": -69.944625,
        "latEnd": -4.259772,
        "lonEnd": -69.927033,
        "length": 0,
        "surfacetype": 1
      }
    ],
    "id": 24526
  }
]