[
  {
    "type": 1,
    "icao": "EGNG",
    "lat": 54.211280974999994,
    "lon": 26.458126905,
    "communications": [],
    "elevation": 160,
    "tower": false,
    "name": "Bagby",
    "runways": [
      {
        "type": 100,
        "width": 17.98,
        "surfaceType": null,
        "numberStart": "06",
        "numberEnd": "24",
        "latStart": 54.20964966,
        "lonStart": -1.29665848,
        "latEnd": 54.21291229,
        "lonEnd": -1.28780977,
        "length": 0,
        "surfacetype": 3
      }
    ],
    "id": 2062
  },
  {
    "type": 1,
    "icao": "EGNC",
    "lat": 54.9383231275,
    "lon": 26.0630797725,
    "communications": [
      {
        "type": 50,
        "frequency": 11842,
        "name": "Carlisle Info"
      },
      {
        "type": 54,
        "frequency": 12360,
        "name": "Carlisle Tower"
      }
    ],
    "elevation": 189,
    "tower": true,
    "name": "Carlisle",
    "runways": [
      {
        "type": 100,
        "width": 29.87,
        "surfaceType": null,
        "numberStart": "07",
        "numberEnd": "25",
        "latStart": 54.9333028,
        "lonStart": -2.82130962,
        "latEnd": 54.94163001,
        "lonEnd": -2.79680056,
        "length": 0,
        "surfacetype": 1
      },
      {
        "type": 100,
        "width": 22.86,
        "surfaceType": null,
        "numberStart": "01",
        "numberEnd": "19",
        "latStart": 54.935008,
        "lonStart": -2.811353,
        "latEnd": 54.9433517,
        "lonEnd": -2.81106653,
        "length": 0,
        "surfacetype": 1
      }
    ],
    "id": 4552
  },
  {
    "type": 1,
    "icao": "XCUR",
    "lat": 54.933404165,
    "lon": 26.5418422,
    "communications": [],
    "elevation": 799,
    "tower": false,
    "name": "Currock Hill",
    "runways": [
      {
        "type": 100,
        "width": 46.02,
        "surfaceType": null,
        "numberStart": "06",
        "numberEnd": "24",
        "latStart": 54.93048207,
        "lonStart": -1.85264186,
        "latEnd": 54.93632626,
        "lonEnd": -1.83849981,
        "length": 0,
        "surfacetype": 3
      }
    ],
    "id": 5592
  },
  {
    "type": 1,
    "icao": "EGNV",
    "lat": 54.5091905,
    "lon": 26.536844560000002,
    "communications": [
      {
        "type": 50,
        "frequency": 13620,
        "name": "ATIS"
      },
      {
        "type": 54,
        "frequency": 11980,
        "name": "TWR"
      },
      {
        "type": 55,
        "frequency": 11885,
        "name": "APP"
      }
    ],
    "elevation": 120,
    "tower": true,
    "name": "Durham Tees Valley",
    "runways": [
      {
        "type": 100,
        "width": 45.11,
        "surfaceType": null,
        "numberStart": "05",
        "numberEnd": "23",
        "latStart": 54.502231,
        "lonStart": -1.44246088,
        "latEnd": 54.51615,
        "lonEnd": -1.41640488,
        "length": 0,
        "surfacetype": 1
      }
    ],
    "id": 6584
  },
  {
    "type": 1,
    "icao": "EG35",
    "lat": 54.308663329999995,
    "lon": 26.6665180425,
    "communications": [],
    "elevation": 780,
    "tower": false,
    "name": "Fadmoor",
    "runways": [
      {
        "type": 100,
        "width": 24.08,
        "surfaceType": null,
        "numberStart": "01",
        "numberEnd": "19",
        "latStart": 54.30580253,
        "lonStart": -0.97574475,
        "latEnd": 54.31108105,
        "lonEnd": -0.97404797,
        "length": 0,
        "surfacetype": 3
      },
      {
        "type": 100,
        "width": 24.08,
        "surfaceType": null,
        "numberStart": "13",
        "numberEnd": "31",
        "latStart": 54.3105964,
        "lonStart": -0.97643747,
        "latEnd": 54.30717334,
        "lonEnd": -0.96994968,
        "length": 0,
        "surfacetype": 3
      }
    ],
    "id": 7744
  },
  {
    "type": 1,
    "icao": "EG41",
    "lat": 54.686558610000006,
    "lon": 26.611290005,
    "communications": [],
    "elevation": 377,
    "tower": false,
    "name": "Fishburn",
    "runways": [
      {
        "type": 100,
        "width": 29.87,
        "surfaceType": null,
        "numberStart": "08",
        "numberEnd": "26",
        "latStart": 54.68595633,
        "lonStart": -1.46458088,
        "latEnd": 54.68716089,
        "lonEnd": -1.45520517,
        "length": 0,
        "surfacetype": 3
      }
    ],
    "id": 9316
  },
  {
    "type": 1,
    "icao": "EG80",
    "lat": 54.766756375,
    "lon": 26.688442707500002,
    "communications": [],
    "elevation": 450,
    "tower": false,
    "name": "Peterlee",
    "runways": [
      {
        "type": 100,
        "width": 24.08,
        "surfaceType": null,
        "numberStart": "12",
        "numberEnd": "30",
        "latStart": 54.76825254,
        "lonStart": -1.38962766,
        "latEnd": 54.76570849,
        "lonEnd": -1.37943592,
        "length": 0,
        "surfacetype": 3
      },
      {
        "type": 100,
        "width": 9.14,
        "surfaceType": null,
        "numberStart": "12R",
        "numberEnd": "30L",
        "latStart": 54.76753768,
        "lonStart": -1.38783679,
        "latEnd": 54.76552679,
        "lonEnd": -1.37977172,
        "length": 0,
        "surfacetype": 1
      }
    ],
    "id": 20010
  },
  {
    "type": 1,
    "icao": "EGXD",
    "lat": 54.14018900000001,
    "lon": 26.354473,
    "communications": [
      {
        "type": 53,
        "frequency": 12210,
        "name": "Dishforth Ground"
      },
      {
        "type": 54,
        "frequency": 12210,
        "name": "Dishforth Tower"
      },
      {
        "type": 55,
        "frequency": 12210,
        "name": "Dishforth Approach"
      }
    ],
    "elevation": 117,
    "tower": true,
    "name": "RAF Dishforth",
    "runways": [
      {
        "type": 100,
        "width": 46.02,
        "surfaceType": null,
        "numberStart": "15",
        "numberEnd": "33",
        "latStart": 54.144142,
        "lonStart": -1.426925,
        "latEnd": 54.129406,
        "lonEnd": -1.4129,
        "length": 0,
        "surfacetype": 1
      },
      {
        "type": 100,
        "width": 46.02,
        "surfaceType": null,
        "numberStart": "10",
        "numberEnd": "28",
        "latStart": 54.143861,
        "lonStart": -1.427936,
        "latEnd": 54.143347,
        "lonEnd": -1.407114,
        "length": 0,
        "surfacetype": 1
      }
    ],
    "id": 20770
  },
  {
    "type": 1,
    "icao": "EGXE",
    "lat": 54.29256518,
    "lon": 26.37022451,
    "communications": [
      {
        "type": 54,
        "frequency": 12210,
        "name": "Leeming Tower"
      },
      {
        "type": 55,
        "frequency": 12500,
        "name": "Leeming Approach"
      },
      {
        "type": 55,
        "frequency": 12210,
        "name": "Leeming Ground"
      }
    ],
    "elevation": 132,
    "tower": true,
    "name": "RAF Leeming",
    "runways": [
      {
        "type": 100,
        "width": 46.02,
        "surfaceType": null,
        "numberStart": "16",
        "numberEnd": "34",
        "latStart": 54.30197405,
        "lonStart": -1.54270729,
        "latEnd": 54.28315631,
        "lonEnd": -1.52819884,
        "length": 0,
        "surfacetype": 1
      }
    ],
    "id": 20778
  },
  {
    "type": 1,
    "icao": "EGXU",
    "lat": 54.049117,
    "lon": 26.395381325,
    "communications": [
      {
        "type": 53,
        "frequency": 12210,
        "name": "Linton Ground"
      },
      {
        "type": 54,
        "frequency": 12210,
        "name": "Linton Tower"
      },
      {
        "type": 55,
        "frequency": 11855,
        "name": "Linton Approach"
      },
      {
        "type": 56,
        "frequency": 11855,
        "name": "Linton Departure"
      }
    ],
    "elevation": 53,
    "tower": true,
    "name": "RAF Linton On Ouse",
    "runways": [
      {
        "type": 100,
        "width": 46.02,
        "surfaceType": null,
        "numberStart": "03",
        "numberEnd": "21",
        "latStart": 54.04238335,
        "lonStart": -1.26041641,
        "latEnd": 54.05641265,
        "lonEnd": -1.24579559,
        "length": 0,
        "surfacetype": 1
      },
      {
        "type": 100,
        "width": 46.02,
        "surfaceType": null,
        "numberStart": "10",
        "numberEnd": "28",
        "latStart": 54.04947763,
        "lonStart": -1.26266531,
        "latEnd": 54.04819437,
        "lonEnd": -1.24234669,
        "length": 0,
        "surfacetype": 1
      }
    ],
    "id": 20780
  },
  {
    "type": 1,
    "icao": "EGXZ",
    "lat": 54.20567225,
    "lon": 26.409961250000002,
    "communications": [
      {
        "type": 54,
        "frequency": 12210,
        "name": "Topcliffe Tower"
      },
      {
        "type": 55,
        "frequency": 12500,
        "name": "Topcliffe Approach"
      }
    ],
    "elevation": 92,
    "tower": true,
    "name": "RAF Topcliffe",
    "runways": [
      {
        "type": 100,
        "width": 46.02,
        "surfaceType": null,
        "numberStart": "03",
        "numberEnd": "21",
        "latStart": 54.197736,
        "lonStart": -1.387061,
        "latEnd": 54.213231,
        "lonEnd": -1.376475,
        "length": 0,
        "surfacetype": 1
      },
      {
        "type": 100,
        "width": 46.02,
        "surfaceType": null,
        "numberStart": "13",
        "numberEnd": "31",
        "latStart": 54.209169,
        "lonStart": -1.388878,
        "latEnd": 54.202553,
        "lonEnd": -1.373225,
        "length": 0,
        "surfacetype": 1
      }
    ],
    "id": 20791
  },
  {
    "type": 1,
    "icao": "EGX4",
    "lat": 54.228427515,
    "lon": 26.6258186,
    "communications": [],
    "elevation": 120,
    "tower": false,
    "name": "Wombleton",
    "runways": [
      {
        "type": 100,
        "width": 14.02,
        "surfaceType": null,
        "numberStart": "10",
        "numberEnd": "28",
        "latStart": 54.22862097,
        "lonStart": -0.97659686,
        "latEnd": 54.22823406,
        "lonEnd": -0.96527133,
        "length": 0,
        "surfacetype": 1
      }
    ],
    "id": 27520
  },
  {
    "type": 1,
    "icao": "EDXY",
    "lat": 54.68498055,
    "lon": 26.991935492,
    "communications": [
      {
        "type": 54,
        "frequency": 11825,
        "name": "Wyk INFO"
      }
    ],
    "elevation": 24,
    "tower": true,
    "name": "Wyk auf Foehr",
    "runways": [
      {
        "type": 100,
        "width": 39.93,
        "surfaceType": null,
        "numberStart": "02",
        "numberEnd": "20",
        "latStart": 54.683621,
        "lonStart": 8.527738,
        "latEnd": 54.688872,
        "lonEnd": 8.530687,
        "length": 0,
        "surfacetype": 3
      },
      {
        "type": 100,
        "width": 39.93,
        "surfaceType": null,
        "numberStart": "10",
        "numberEnd": "28",
        "latStart": 54.684488,
        "lonStart": 8.527,
        "latEnd": 54.684183,
        "lonEnd": 8.536431,
        "length": 0,
        "surfacetype": 3
      },
      {
        "type": 102,
        "width": 14.9,
        "surfaceType": 3,
        "numberStart": "H",
        "numberEnd": null,
        "latStart": 54.68373875,
        "lonStart": 8.53188446,
        "latEnd": null,
        "lonEnd": null,
        "length": 14.9
      }
    ],
    "id": 27609
  },
  {
    "type": 1,
    "icao": "EGX5",
    "lat": 54.58474624,
    "lon": 26.755716064999998,
    "communications": [],
    "elevation": 28,
    "tower": false,
    "name": "Yearb",
    "runways": [
      {
        "type": 100,
        "width": 17.98,
        "surfaceType": null,
        "numberStart": "07",
        "numberEnd": "25",
        "latStart": 54.58380052,
        "lonStart": -1.07425983,
        "latEnd": 54.58569196,
        "lonEnd": -1.0653292,
        "length": 0,
        "surfacetype": 3
      }
    ],
    "id": 27765
  }
]