[
  {
    "type": 1,
    "icao": "EDOB",
    "lat": 50.90402147,
    "lon": 31.07935519,
    "communications": [
      {
        "type": 54,
        "frequency": 12365,
        "name": "Bad Berka Info"
      }
    ],
    "elevation": 1023,
    "tower": true,
    "name": "Bad Berka",
    "runways": [
      {
        "type": 100,
        "width": 35,
        "surfaceType": null,
        "numberStart": "07",
        "numberEnd": "25",
        "latStart": 50.9027314,
        "lonStart": 11.25339884,
        "latEnd": 50.90531154,
        "lonEnd": 11.26405688,
        "length": 0,
        "surfacetype": 3
      }
    ],
    "id": 2035
  },
  {
    "type": 1,
    "icao": "EDCJ",
    "lat": 50.747389,
    "lon": 31.790193504999998,
    "communications": [
      {
        "type": 54,
        "frequency": 12250,
        "name": "EDCJ TWR"
      }
    ],
    "elevation": 1202,
    "tower": true,
    "name": "Chemnitz Jahnsdorf",
    "runways": [
      {
        "type": 100,
        "width": 19.81,
        "surfaceType": null,
        "numberStart": "07",
        "numberEnd": "25",
        "latStart": 50.74580707,
        "lonStart": 12.83141608,
        "latEnd": 50.74897093,
        "lonEnd": 12.84319592,
        "length": 0,
        "surfacetype": 1
      }
    ],
    "id": 4859
  },
  {
    "type": 1,
    "icao": "LKCH",
    "lat": 50.471703659999996,
    "lon": 31.9692350925,
    "communications": [
      {
        "type": 54,
        "frequency": 12360,
        "name": "INFO"
      }
    ],
    "elevation": 1130,
    "tower": true,
    "name": "Chomutov",
    "runways": [
      {
        "type": 100,
        "width": 99.97,
        "surfaceType": null,
        "numberStart": "14",
        "numberEnd": "32",
        "latStart": 50.472528,
        "lonStart": 13.46339635,
        "latEnd": 50.46683087,
        "lonEnd": 13.47090704,
        "length": 0,
        "surfacetype": 3
      },
      {
        "type": 100,
        "width": 99.97,
        "surfaceType": null,
        "numberStart": "04",
        "numberEnd": "22",
        "latStart": 50.46950319,
        "lonStart": 13.46876057,
        "latEnd": 50.47795258,
        "lonEnd": 13.47933572,
        "length": 0,
        "surfacetype": 3
      }
    ],
    "id": 4954
  },
  {
    "type": 1,
    "icao": "EDAJ",
    "lat": 50.88150066,
    "lon": 31.506597765000002,
    "communications": [
      {
        "type": 54,
        "frequency": 11807,
        "name": "Gera Info"
      }
    ],
    "elevation": 1015,
    "tower": true,
    "name": "Gera-Leumnitz",
    "runways": [
      {
        "type": 100,
        "width": 24,
        "surfaceType": null,
        "numberStart": "06",
        "numberEnd": "24",
        "latStart": 50.87965792,
        "lonStart": 12.12985213,
        "latEnd": 50.8833434,
        "lonEnd": 12.14172942,
        "length": 0,
        "surfacetype": 1
      }
    ],
    "id": 10420
  },
  {
    "type": 1,
    "icao": "EDOT",
    "lat": 50.643940285,
    "lon": 31.40827926,
    "communications": [
      {
        "type": 54,
        "frequency": 12200,
        "name": "Greiz Info"
      }
    ],
    "elevation": 1278,
    "tower": true,
    "name": "Greiz-Obergrochlitz",
    "runways": [
      {
        "type": 100,
        "width": 30,
        "surfaceType": null,
        "numberStart": "05",
        "numberEnd": "23",
        "latStart": 50.64183267,
        "lonStart": 12.17051062,
        "latEnd": 50.6460479,
        "lonEnd": 12.17882312,
        "length": 0,
        "surfacetype": 3
      }
    ],
    "id": 10790
  },
  {
    "type": 1,
    "icao": "EDQM",
    "lat": 50.28863915,
    "lon": 31.066355075,
    "communications": [
      {
        "type": 54,
        "frequency": 12435,
        "name": "Hof Tower"
      }
    ],
    "elevation": 1959,
    "tower": true,
    "name": "Hof Plauen",
    "runways": [
      {
        "type": 100,
        "width": 29.5,
        "surfaceType": null,
        "numberStart": "09",
        "numberEnd": "27",
        "latStart": 50.28826515,
        "lonStart": 11.843697,
        "latEnd": 50.28901315,
        "lonEnd": 11.864433,
        "length": 0,
        "surfacetype": 1
      }
    ],
    "id": 11922
  },
  {
    "type": 1,
    "icao": "LKKV",
    "lat": 50.2034868775,
    "lon": 31.55245574,
    "communications": [
      {
        "type": 54,
        "frequency": 12122,
        "name": "TWR"
      },
      {
        "type": 54,
        "frequency": 12150,
        "name": "TWR"
      },
      {
        "type": 55,
        "frequency": 11995,
        "name": "APP"
      }
    ],
    "elevation": 1987,
    "tower": true,
    "name": "Karlovy Vary",
    "runways": [
      {
        "type": 100,
        "width": 29.87,
        "surfaceType": null,
        "numberStart": "12",
        "numberEnd": "30",
        "latStart": 50.20574297,
        "lonStart": 12.90720792,
        "latEnd": 50.20212619,
        "lonEnd": 12.92039417,
        "length": 0,
        "surfacetype": 3
      },
      {
        "type": 100,
        "width": 29.87,
        "surfaceType": null,
        "numberStart": "11",
        "numberEnd": "29",
        "latStart": 50.20682883,
        "lonStart": 12.90123933,
        "latEnd": 50.19924952,
        "lonEnd": 12.9290011,
        "length": 0,
        "surfacetype": 1
      }
    ],
    "id": 13621
  },
  {
    "type": 1,
    "icao": "EDAC",
    "lat": 50.982687229999996,
    "lon": 31.743806055,
    "communications": [
      {
        "type": 54,
        "frequency": 12357,
        "name": "Altenburg Info"
      }
    ],
    "elevation": 640,
    "tower": true,
    "name": "Leipzig-Altenburg",
    "runways": [
      {
        "type": 100,
        "width": 45,
        "surfaceType": null,
        "numberStart": "04",
        "numberEnd": "22",
        "latStart": 50.9742369,
        "lonStart": 12.49647455,
        "latEnd": 50.99113756,
        "lonEnd": 12.51851616,
        "length": 0,
        "surfacetype": 1
      }
    ],
    "id": 15129
  },
  {
    "type": 1,
    "icao": "LKRK",
    "lat": 50.09432229,
    "lon": 31.8900991925,
    "communications": [
      {
        "type": 54,
        "frequency": 12350,
        "name": "INFO"
      }
    ],
    "elevation": 1272,
    "tower": true,
    "name": "Rakovnik",
    "runways": [
      {
        "type": 100,
        "width": 89.92,
        "surfaceType": null,
        "numberStart": "09L",
        "numberEnd": "27R",
        "latStart": 50.09466252,
        "lonStart": 13.68693661,
        "latEnd": 50.09485324,
        "lonEnd": 13.69749034,
        "length": 0,
        "surfacetype": 3
      },
      {
        "type": 100,
        "width": 88.09,
        "surfaceType": null,
        "numberStart": "09R",
        "numberEnd": "27L",
        "latStart": 50.09371037,
        "lonStart": 13.68454389,
        "latEnd": 50.09406303,
        "lonEnd": 13.69753142,
        "length": 0,
        "surfacetype": 3
      }
    ],
    "id": 21140
  },
  {
    "type": 1,
    "icao": "LKTO",
    "lat": 50.0864974,
    "lon": 31.51597752,
    "communications": [
      {
        "type": 54,
        "frequency": 12260,
        "name": "INFO"
      }
    ],
    "elevation": 2135,
    "tower": true,
    "name": "Touzim",
    "runways": [
      {
        "type": 100,
        "width": 99.97,
        "surfaceType": null,
        "numberStart": "08",
        "numberEnd": "26",
        "latStart": 50.08501587,
        "lonStart": 12.94397611,
        "latEnd": 50.08797893,
        "lonEnd": 12.96137332,
        "length": 0,
        "surfacetype": 3
      }
    ],
    "id": 25510
  },
  {
    "type": 1,
    "icao": "EDOU",
    "lat": 50.96509446,
    "lon": 31.17990254,
    "communications": [
      {
        "type": 54,
        "frequency": 12240,
        "name": "Weimar Info"
      }
    ],
    "elevation": 971,
    "tower": true,
    "name": "Weimar-Umpferstedt",
    "runways": [
      {
        "type": 100,
        "width": 30,
        "surfaceType": null,
        "numberStart": "10",
        "numberEnd": "28",
        "latStart": 50.96561968,
        "lonStart": 11.39523584,
        "latEnd": 50.96456924,
        "lonEnd": 11.40453085,
        "length": 0,
        "surfacetype": 3
      }
    ],
    "id": 27043
  },
  {
    "type": 1,
    "icao": "LKZD",
    "lat": 50.317358915,
    "lon": 31.910455325,
    "communications": [
      {
        "type": 54,
        "frequency": 12542,
        "name": "INFO"
      }
    ],
    "elevation": 880,
    "tower": true,
    "name": "Zatec/Macerka",
    "runways": [
      {
        "type": 100,
        "width": 39.93,
        "surfaceType": null,
        "numberStart": "11",
        "numberEnd": "29",
        "latStart": 50.31911299,
        "lonStart": 13.50530581,
        "latEnd": 50.31560484,
        "lonEnd": 13.52003265,
        "length": 0,
        "surfacetype": 3
      }
    ],
    "id": 27878
  }
]