[
  {
    "type": 1,
    "icao": "P01",
    "lat": 32.45,
    "lon": -40.212779,
    "communications": [
      {
        "type": 51,
        "frequency": 12290,
        "name": "CTAF"
      }
    ],
    "elevation": 1458,
    "tower": false,
    "name": "ERIC MARCUS MUNI",
    "runways": [
      {
        "type": 100,
        "width": 18.29,
        "surfaceType": null,
        "numberStart": "12",
        "numberEnd": "30",
        "latStart": 32.453889,
        "lonStart": -112.871669,
        "latEnd": 32.446111,
        "lonEnd": -112.863331,
        "length": 0,
        "surfacetype": 1
      }
    ],
    "id": 6794
  },
  {
    "type": 1,
    "icao": "KLGF",
    "lat": 32.8645,
    "lon": -40.7677235,
    "communications": [
      {
        "type": 51,
        "frequency": 12620,
        "name": "CTAF"
      },
      {
        "type": 55,
        "frequency": 12555,
        "name": "YUMA APP"
      },
      {
        "type": 56,
        "frequency": 12000,
        "name": "YUMA DEP"
      }
    ],
    "elevation": 422,
    "tower": false,
    "name": "LAGUNA AAF",
    "runways": [
      {
        "type": 100,
        "width": 45.72,
        "surfaceType": null,
        "numberStart": "18",
        "numberEnd": "36",
        "latStart": 32.8754,
        "lonStart": -114.392842,
        "latEnd": 32.859031,
        "lonEnd": -114.396506,
        "length": 0,
        "surfacetype": 1
      },
      {
        "type": 100,
        "width": 30.48,
        "surfaceType": null,
        "numberStart": "06",
        "numberEnd": "24",
        "latStart": 32.859783,
        "lonStart": -114.400869,
        "latEnd": 32.863786,
        "lonEnd": -114.381906,
        "length": 0,
        "surfacetype": 1
      }
    ],
    "id": 14318
  }
]