[
  {
    "type": 1,
    "icao": "MP23",
    "lat": 9.166285,
    "lon": -35.192158,
    "communications": [],
    "elevation": 394,
    "tower": false,
    "name": "CALZADA LARGA",
    "runways": [
      {
        "type": 100,
        "width": 49.99,
        "surfaceType": null,
        "numberStart": "18",
        "numberEnd": "36",
        "latStart": 9.171689,
        "lonStart": -79.545197,
        "latEnd": 9.160881,
        "lonEnd": -79.544961,
        "length": 0,
        "surfacetype": 1
      }
    ],
    "id": 3561
  },
  {
    "type": 1,
    "icao": "MPEJ",
    "lat": 9.356639000000001,
    "lon": -35.2593945,
    "communications": [
      {
        "type": 51,
        "frequency": 12280,
        "name": "UNICOM"
      },
      {
        "type": 53,
        "frequency": 12170,
        "name": "GND"
      },
      {
        "type": 54,
        "frequency": 11850,
        "name": "JIMENEZ TWR"
      },
      {
        "type": 55,
        "frequency": 11970,
        "name": "PANAMA APP"
      },
      {
        "type": 55,
        "frequency": 12330,
        "name": "PANAMA APP"
      },
      {
        "type": 55,
        "frequency": 11920,
        "name": "PANAMA APP"
      },
      {
        "type": 55,
        "frequency": 12120,
        "name": "PANAMA APP"
      }
    ],
    "elevation": 25,
    "tower": true,
    "name": "ENRIQUE ADOLFO JIMENEZ",
    "runways": [
      {
        "type": 100,
        "width": 46.02,
        "surfaceType": null,
        "numberStart": "18",
        "numberEnd": "36",
        "latStart": 9.364903,
        "lonStart": -79.867164,
        "latEnd": 9.348375,
        "lonEnd": -79.867664,
        "length": 0,
        "surfacetype": 2
      }
    ],
    "id": 6780
  },
  {
    "type": 1,
    "icao": "MPTO",
    "lat": 9.0713635,
    "lon": -35.153723257500005,
    "communications": [
      {
        "type": 52,
        "frequency": 12980,
        "name": "CLNC DEL"
      },
      {
        "type": 53,
        "frequency": 12190,
        "name": "GND"
      },
      {
        "type": 54,
        "frequency": 11810,
        "name": "TWR"
      },
      {
        "type": 55,
        "frequency": 11970,
        "name": "PANAMA APP"
      }
    ],
    "elevation": 135,
    "tower": true,
    "name": "Tocumen Intl",
    "runways": [
      {
        "type": 100,
        "width": 45.11,
        "surfaceType": null,
        "numberStart": "03R",
        "numberEnd": "21L",
        "latStart": 9.04758637,
        "lonStart": -79.39263628,
        "latEnd": 9.07149763,
        "lonEnd": -79.37903172,
        "length": 0,
        "surfacetype": 2
      },
      {
        "type": 100,
        "width": 60.96,
        "surfaceType": null,
        "numberStart": "03L",
        "numberEnd": "21R",
        "latStart": 9.07281592,
        "lonStart": -79.38730846,
        "latEnd": 9.09355408,
        "lonEnd": -79.37485354,
        "length": 0,
        "surfacetype": 1
      }
    ],
    "id": 25416
  }
]