[
  {
    "type": 1,
    "icao": "EDGA",
    "lat": 50.592768500000005,
    "lon": 29.268636,
    "communications": [
      {
        "type": 54,
        "frequency": 12305,
        "name": "Ailertchen Info"
      }
    ],
    "elevation": 1541,
    "tower": true,
    "name": "Ailertchen",
    "runways": [
      {
        "type": 100,
        "width": 40,
        "surfaceType": null,
        "numberStart": "04",
        "numberEnd": "22",
        "latStart": 50.590879,
        "lonStart": 7.942614,
        "latEnd": 50.594658,
        "lonEnd": 7.946926,
        "length": 0,
        "surfacetype": 3
      }
    ],
    "id": 730
  },
  {
    "type": 1,
    "icao": "EDX9",
    "lat": 50.750567,
    "lon": 29.9985115,
    "communications": [
      {
        "type": 51,
        "frequency": 12350,
        "name": "Alsfeld Info"
      }
    ],
    "elevation": 954,
    "tower": true,
    "name": "Alsfeld",
    "runways": [
      {
        "type": 100,
        "width": 30,
        "surfaceType": null,
        "numberStart": "06",
        "numberEnd": "24",
        "latStart": 50.748929,
        "lonStart": 9.244818,
        "latEnd": 50.752205,
        "lonEnd": 9.252337,
        "length": 0,
        "surfacetype": 3
      }
    ],
    "id": 924
  },
  {
    "type": 1,
    "icao": "EDX3",
    "lat": 50.7897994725,
    "lon": 29.847594145000002,
    "communications": [],
    "elevation": 738,
    "tower": false,
    "name": "Amoeneburg",
    "runways": [
      {
        "type": 100,
        "width": 32,
        "surfaceType": null,
        "numberStart": "04",
        "numberEnd": "22",
        "latStart": 50.78724318,
        "lonStart": 8.90199275,
        "latEnd": 50.78989116,
        "lonEnd": 8.90633255,
        "length": 0,
        "surfacetype": 3
      },
      {
        "type": 100,
        "width": 32,
        "surfaceType": null,
        "numberStart": "03",
        "numberEnd": "21",
        "latStart": 50.78987919,
        "lonStart": 8.90630831,
        "latEnd": 50.79218436,
        "lonEnd": 8.91155737,
        "length": 0,
        "surfacetype": 3
      }
    ],
    "id": 996
  },
  {
    "type": 1,
    "icao": "EDX5",
    "lat": 50.60001811,
    "lon": 29.523331534999997,
    "communications": [
      {
        "type": 51,
        "frequency": 12997,
        "name": "Asslar Info"
      }
    ],
    "elevation": 728,
    "tower": true,
    "name": "Asslarer Huette",
    "runways": [
      {
        "type": 100,
        "width": 50,
        "surfaceType": null,
        "numberStart": "17",
        "numberEnd": "35",
        "latStart": 50.59773263,
        "lonStart": 8.44435948,
        "latEnd": 50.60230359,
        "lonEnd": 8.44335248,
        "length": 0,
        "surfacetype": 3
      }
    ],
    "id": 1279
  },
  {
    "type": 1,
    "icao": "EDKI",
    "lat": 50.817034500000005,
    "lon": 29.321957,
    "communications": [
      {
        "type": 54,
        "frequency": 12275,
        "name": "Betzdorf Info"
      }
    ],
    "elevation": 1125,
    "tower": true,
    "name": "Betzdorf",
    "runways": [
      {
        "type": 100,
        "width": 30,
        "surfaceType": null,
        "numberStart": "08",
        "numberEnd": "26",
        "latStart": 50.816271,
        "lonStart": 7.826116,
        "latEnd": 50.817798,
        "lonEnd": 7.834438,
        "length": 0,
        "surfacetype": 3
      }
    ],
    "id": 2641
  },
  {
    "type": 1,
    "icao": "EDGT",
    "lat": 50.79496948,
    "lon": 29.6260532475,
    "communications": [
      {
        "type": 54,
        "frequency": 12380,
        "name": "Bottenhorn Info"
      }
    ],
    "elevation": 1656,
    "tower": true,
    "name": "Bottenhorn",
    "runways": [
      {
        "type": 100,
        "width": 30,
        "surfaceType": null,
        "numberStart": "10",
        "numberEnd": "28",
        "latStart": 50.7955372,
        "lonStart": 8.45877344,
        "latEnd": 50.7947287,
        "lonEnd": 8.46491688,
        "length": 0,
        "surfacetype": 3
      },
      {
        "type": 100,
        "width": 30,
        "surfaceType": null,
        "numberStart": "11",
        "numberEnd": "29",
        "latStart": 50.79535848,
        "lonStart": 8.45645731,
        "latEnd": 50.79425354,
        "lonEnd": 8.46479228,
        "length": 0,
        "surfacetype": 3
      }
    ],
    "id": 3044
  },
  {
    "type": 1,
    "icao": "ED04",
    "lat": 50.52533127,
    "lon": 29.4583226425,
    "communications": [
      {
        "type": 51,
        "frequency": 12220,
        "name": "Braunfels Info"
      }
    ],
    "elevation": 787,
    "tower": false,
    "name": "Braunfels",
    "runways": [
      {
        "type": 100,
        "width": 30,
        "surfaceType": null,
        "numberStart": "07",
        "numberEnd": "25",
        "latStart": 50.52534076,
        "lonStart": 8.39222731,
        "latEnd": 50.52615559,
        "lonEnd": 8.39608401,
        "length": 0,
        "surfacetype": 3
      },
      {
        "type": 100,
        "width": 30,
        "surfaceType": null,
        "numberStart": "06",
        "numberEnd": "24",
        "latStart": 50.52447794,
        "lonStart": 8.38955688,
        "latEnd": 50.52535079,
        "lonEnd": 8.39227119,
        "length": 0,
        "surfacetype": 3
      }
    ],
    "id": 3130
  },
  {
    "type": 1,
    "icao": "EDGB",
    "lat": 50.67670175000001,
    "lon": 29.420797765,
    "communications": [
      {
        "type": 54,
        "frequency": 12260,
        "name": "Breitscheid Info"
      }
    ],
    "elevation": 1833,
    "tower": true,
    "name": "Breitscheid",
    "runways": [
      {
        "type": 100,
        "width": 30,
        "surfaceType": null,
        "numberStart": "07R",
        "numberEnd": "25L",
        "latStart": 50.67504179,
        "lonStart": 8.16335952,
        "latEnd": 50.67780573,
        "lonEnd": 8.17641128,
        "length": 0,
        "surfacetype": 3
      },
      {
        "type": 100,
        "width": 14,
        "surfaceType": null,
        "numberStart": "07L",
        "numberEnd": "25R",
        "latStart": 50.67582089,
        "lonStart": 8.16447169,
        "latEnd": 50.6780426,
        "lonEnd": 8.17495565,
        "length": 0,
        "surfacetype": 1
      },
      {
        "type": 100,
        "width": 30,
        "surfaceType": null,
        "numberStart": "07",
        "numberEnd": "25",
        "latStart": 50.67552428,
        "lonStart": 8.16313184,
        "latEnd": 50.67797521,
        "lonEnd": 8.17461137,
        "length": 0,
        "surfacetype": 3
      }
    ],
    "id": 3150
  },
  {
    "type": 1,
    "icao": "ED06",
    "lat": 50.435735654999995,
    "lon": 29.525576094999998,
    "communications": [],
    "elevation": 1108,
    "tower": true,
    "name": "Butzbach Pfingstweide",
    "runways": [
      {
        "type": 100,
        "width": 13,
        "surfaceType": null,
        "numberStart": "10",
        "numberEnd": "28",
        "latStart": 50.436257,
        "lonStart": 8.615838,
        "latEnd": 50.435422,
        "lonEnd": 8.622798,
        "length": 0,
        "surfacetype": 1
      },
      {
        "type": 100,
        "width": 30,
        "surfaceType": null,
        "numberStart": "10C",
        "numberEnd": "28C",
        "latStart": 50.43623579,
        "lonStart": 8.61601655,
        "latEnd": 50.43502783,
        "lonEnd": 8.6262472,
        "length": 0,
        "surfacetype": 3
      }
    ],
    "id": 3464
  },
  {
    "type": 1,
    "icao": "EDRW",
    "lat": 50.565991499999996,
    "lon": 29.107624,
    "communications": [
      {
        "type": 54,
        "frequency": 12892,
        "name": "Dierdorf Info"
      }
    ],
    "elevation": 951,
    "tower": true,
    "name": "Dierdorf - Wienau",
    "runways": [
      {
        "type": 100,
        "width": 10,
        "surfaceType": null,
        "numberStart": "06",
        "numberEnd": "24",
        "latStart": 50.565338,
        "lonStart": 7.648603,
        "latEnd": 50.566645,
        "lonEnd": 7.656425,
        "length": 0,
        "surfacetype": 1
      }
    ],
    "id": 6272
  },
  {
    "type": 1,
    "icao": "EDFY",
    "lat": 50.426778,
    "lon": 29.217212155000002,
    "communications": [
      {
        "type": 54,
        "frequency": 12360,
        "name": "Elz Info"
      }
    ],
    "elevation": 698,
    "tower": true,
    "name": "Elz",
    "runways": [
      {
        "type": 100,
        "width": 6,
        "surfaceType": null,
        "numberStart": "07",
        "numberEnd": "25",
        "latStart": 50.42598411,
        "lonStart": 8.00685242,
        "latEnd": 50.42757189,
        "lonEnd": 8.01493637,
        "length": 0,
        "surfacetype": 1
      }
    ],
    "id": 7146
  },
  {
    "type": 1,
    "icao": "EDDF",
    "lat": 50.03260298625,
    "lon": 29.27765643125,
    "communications": [
      {
        "type": 50,
        "frequency": 11802,
        "name": "ATIS 1"
      },
      {
        "type": 50,
        "frequency": 11872,
        "name": "ATIS 2"
      },
      {
        "type": 52,
        "frequency": 12190,
        "name": "Delivery"
      },
      {
        "type": 53,
        "frequency": 12170,
        "name": "Apron West"
      },
      {
        "type": 53,
        "frequency": 12180,
        "name": "Ground"
      },
      {
        "type": 53,
        "frequency": 12185,
        "name": "Apron South"
      },
      {
        "type": 53,
        "frequency": 12195,
        "name": "Apron East"
      },
      {
        "type": 54,
        "frequency": 11990,
        "name": "Tower"
      },
      {
        "type": 54,
        "frequency": 12485,
        "name": "Tower"
      },
      {
        "type": 54,
        "frequency": 13650,
        "name": "Tower"
      },
      {
        "type": 55,
        "frequency": 11845,
        "name": "Langen Radar"
      },
      {
        "type": 55,
        "frequency": 12655,
        "name": "Langen Radar"
      },
      {
        "type": 55,
        "frequency": 13612,
        "name": "Langen Radar"
      },
      {
        "type": 56,
        "frequency": 12015,
        "name": "Langen Radar"
      },
      {
        "type": 56,
        "frequency": 12080,
        "name": "Langen Radar"
      }
    ],
    "elevation": 354,
    "tower": true,
    "name": "Frankfurt am Main",
    "runways": [
      {
        "type": 100,
        "width": 60.05,
        "surfaceType": null,
        "numberStart": "07C",
        "numberEnd": "25C",
        "latStart": 50.0326072,
        "lonStart": 8.53462945,
        "latEnd": 50.04511549,
        "lonEnd": 8.58699023,
        "length": 0,
        "surfacetype": 1
      },
      {
        "type": 100,
        "width": 45.11,
        "surfaceType": null,
        "numberStart": "07L",
        "numberEnd": "25R",
        "latStart": 50.03707042,
        "lonStart": 8.49705958,
        "latEnd": 50.04584141,
        "lonEnd": 8.53371385,
        "length": 0,
        "surfacetype": 2
      },
      {
        "type": 100,
        "width": 45.11,
        "surfaceType": null,
        "numberStart": "07R",
        "numberEnd": "25L",
        "latStart": 50.02753053,
        "lonStart": 8.53415898,
        "latEnd": 50.0400449,
        "lonEnd": 8.58654613,
        "length": 0,
        "surfacetype": 1
      },
      {
        "type": 100,
        "width": 45.11,
        "surfaceType": null,
        "numberStart": "18",
        "numberEnd": "36",
        "latStart": 50.0341366,
        "lonStart": 8.5259243,
        "latEnd": 49.99847734,
        "lonEnd": 8.52629069,
        "length": 0,
        "surfacetype": 1
      }
    ],
    "id": 9675
  },
  {
    "type": 1,
    "icao": "EDGF",
    "lat": 50.4754165,
    "lon": 29.957,
    "communications": [
      {
        "type": 54,
        "frequency": 12240,
        "name": "Fulda Info"
      }
    ],
    "elevation": 1558,
    "tower": true,
    "name": "Fulda Jossa",
    "runways": [
      {
        "type": 100,
        "width": 29.87,
        "surfaceType": null,
        "numberStart": "08",
        "numberEnd": "26",
        "latStart": 50.474966,
        "lonStart": 9.438133,
        "latEnd": 50.475867,
        "lonEnd": 9.4467,
        "length": 0,
        "surfacetype": 3
      }
    ],
    "id": 9778
  },
  {
    "type": 1,
    "icao": "EDFG",
    "lat": 50.19703617166667,
    "lon": 29.68078163,
    "communications": [
      {
        "type": 54,
        "frequency": 12305,
        "name": "Gelnhausen Info"
      }
    ],
    "elevation": 422,
    "tower": true,
    "name": "Gelnhausen",
    "runways": [
      {
        "type": 100,
        "width": 30,
        "surfaceType": null,
        "numberStart": "07L",
        "numberEnd": "25R",
        "latStart": 50.19776398,
        "lonStart": 9.16935873,
        "latEnd": 50.19813578,
        "lonEnd": 9.17273769,
        "length": 0,
        "surfacetype": 3
      },
      {
        "type": 100,
        "width": 30,
        "surfaceType": null,
        "numberStart": "06",
        "numberEnd": "24",
        "latStart": 50.19647675,
        "lonStart": 9.16089702,
        "latEnd": 50.19695925,
        "lonEnd": 9.16381251,
        "length": 0,
        "surfacetype": 3
      },
      {
        "type": 100,
        "width": 24.99,
        "surfaceType": null,
        "numberStart": "07",
        "numberEnd": "25",
        "latStart": 50.19582027,
        "lonStart": 9.162278,
        "latEnd": 50.197061,
        "lonEnd": 9.173733,
        "length": 0,
        "surfacetype": 3
      }
    ],
    "id": 10375
  },
  {
    "type": 1,
    "icao": "EDFL",
    "lat": 50.5443645,
    "lon": 29.565774,
    "communications": [
      {
        "type": 54,
        "frequency": 12250,
        "name": "Luetzellinden Info"
      }
    ],
    "elevation": 754,
    "tower": true,
    "name": "Giessen Luetzellinden",
    "runways": [
      {
        "type": 100,
        "width": 16,
        "surfaceType": null,
        "numberStart": "07",
        "numberEnd": "25",
        "latStart": 50.543261,
        "lonStart": 8.58608,
        "latEnd": 50.545468,
        "lonEnd": 8.595554,
        "length": 0,
        "surfacetype": 1
      }
    ],
    "id": 10456
  },
  {
    "type": 1,
    "icao": "EDX2",
    "lat": 50.6042205,
    "lon": 29.663603499999997,
    "communications": [
      {
        "type": 51,
        "frequency": 12200,
        "name": "Giessen-Wieseck Segelflug"
      }
    ],
    "elevation": 518,
    "tower": false,
    "name": "Giessen Wieseckaue",
    "runways": [
      {
        "type": 100,
        "width": 25,
        "surfaceType": null,
        "numberStart": "08",
        "numberEnd": "26",
        "latStart": 50.6035,
        "lonStart": 8.722266,
        "latEnd": 50.604941,
        "lonEnd": 8.735,
        "length": 0,
        "surfacetype": 3
      }
    ],
    "id": 10457
  },
  {
    "type": 1,
    "icao": "ED07",
    "lat": 50.2419058425,
    "lon": 29.3193988175,
    "communications": [
      {
        "type": 51,
        "frequency": 12335,
        "name": "Glashuetten Info"
      }
    ],
    "elevation": 1325,
    "tower": false,
    "name": "Glashuetten - Oberems",
    "runways": [
      {
        "type": 100,
        "width": 44.3,
        "surfaceType": null,
        "numberStart": "13R",
        "numberEnd": "31L",
        "latStart": 50.24386999,
        "lonStart": 8.39508192,
        "latEnd": 50.24257489,
        "lonEnd": 8.39715557,
        "length": 0,
        "surfacetype": 3
      },
      {
        "type": 100,
        "width": 50,
        "surfaceType": null,
        "numberStart": "13L",
        "numberEnd": "31R",
        "latStart": 50.24139395,
        "lonStart": 8.40015392,
        "latEnd": 50.23978454,
        "lonEnd": 8.40269892,
        "length": 0,
        "surfacetype": 3
      }
    ],
    "id": 10515
  },
  {
    "type": 1,
    "icao": "EDFI",
    "lat": 50.78783932,
    "lon": 29.58677592,
    "communications": [
      {
        "type": 54,
        "frequency": 11832,
        "name": "Hirzenhain Info"
      }
    ],
    "elevation": 1706,
    "tower": true,
    "name": "Hirzenhain",
    "runways": [
      {
        "type": 100,
        "width": 30,
        "surfaceType": null,
        "numberStart": "11",
        "numberEnd": "29",
        "latStart": 50.78921938,
        "lonStart": 8.38709258,
        "latEnd": 50.78645926,
        "lonEnd": 8.39671717,
        "length": 0,
        "surfacetype": 3
      }
    ],
    "id": 11890
  },
  {
    "type": 1,
    "icao": "EDX1",
    "lat": 50.50165061,
    "lon": 29.85969616,
    "communications": [
      {
        "type": 51,
        "frequency": 12315,
        "name": "Hoherodskopf Start"
      }
    ],
    "elevation": 2198,
    "tower": true,
    "name": "Hoherodskopf",
    "runways": [
      {
        "type": 100,
        "width": 30,
        "surfaceType": null,
        "numberStart": "07",
        "numberEnd": "25",
        "latStart": 50.50068321,
        "lonStart": 9.21677431,
        "latEnd": 50.50261801,
        "lonEnd": 9.22826,
        "length": 0,
        "surfacetype": 3
      }
    ],
    "id": 11941
  },
  {
    "type": 1,
    "icao": "EDY1",
    "lat": 50.74638592833333,
    "lon": 29.88237893333333,
    "communications": [
      {
        "type": 54,
        "frequency": 12880,
        "name": "Homberg Info"
      }
    ],
    "elevation": 1138,
    "tower": true,
    "name": "Homberg Ohm",
    "runways": [
      {
        "type": 100,
        "width": 4,
        "surfaceType": null,
        "numberStart": "04",
        "numberEnd": "22",
        "latStart": 50.74638696,
        "lonStart": 9.01900451,
        "latEnd": 50.74876968,
        "lonEnd": 9.02240397,
        "length": 0,
        "surfacetype": 1
      },
      {
        "type": 100,
        "width": 30,
        "surfaceType": null,
        "numberStart": "04C",
        "numberEnd": "22C",
        "latStart": 50.74504355,
        "lonStart": 9.01712921,
        "latEnd": 50.749199,
        "lonEnd": 9.023005,
        "length": 0,
        "surfacetype": 3
      },
      {
        "type": 100,
        "width": 30,
        "surfaceType": null,
        "numberStart": "05",
        "numberEnd": "23",
        "latStart": 50.7439005,
        "lonStart": 9.01515532,
        "latEnd": 50.74501588,
        "lonEnd": 9.01709346,
        "length": 0,
        "surfacetype": 3
      }
    ],
    "id": 11989
  },
  {
    "type": 1,
    "icao": "EDKH",
    "lat": 50.928715499999996,
    "lon": 29.411379,
    "communications": [
      {
        "type": 54,
        "frequency": 13012,
        "name": "Huensborn Info"
      }
    ],
    "elevation": 1305,
    "tower": true,
    "name": "Huensborn",
    "runways": [
      {
        "type": 100,
        "width": 30,
        "surfaceType": null,
        "numberStart": "09",
        "numberEnd": "27",
        "latStart": 50.928551,
        "lonStart": 7.893878,
        "latEnd": 50.92888,
        "lonEnd": 7.904538,
        "length": 0,
        "surfacetype": 3
      }
    ],
    "id": 12156
  },
  {
    "type": 1,
    "icao": "EDFJ",
    "lat": 50.098623065,
    "lon": 29.989347374999998,
    "communications": [
      {
        "type": 54,
        "frequency": 11842,
        "name": "Hammelburg Info"
      }
    ],
    "elevation": 1131,
    "tower": true,
    "name": "Lager Hammelburg",
    "runways": [
      {
        "type": 100,
        "width": 28,
        "surfaceType": null,
        "numberStart": "09L",
        "numberEnd": "27R",
        "latStart": 50.09907749,
        "lonStart": 9.88028955,
        "latEnd": 50.09872155,
        "lonEnd": 9.88728209,
        "length": 0,
        "surfacetype": 3
      },
      {
        "type": 100,
        "width": 10,
        "surfaceType": null,
        "numberStart": "10",
        "numberEnd": "28",
        "latStart": 50.09868201,
        "lonStart": 9.88024889,
        "latEnd": 50.098288,
        "lonEnd": 9.887921,
        "length": 0,
        "surfacetype": 1
      },
      {
        "type": 100,
        "width": 30,
        "surfaceType": null,
        "numberStart": "09R",
        "numberEnd": "27L",
        "latStart": 50.09868327,
        "lonStart": 9.88025019,
        "latEnd": 50.09828607,
        "lonEnd": 9.88792134,
        "length": 0,
        "surfacetype": 3
      }
    ],
    "id": 14775
  },
  {
    "type": 1,
    "icao": "EDFN",
    "lat": 50.8742142,
    "lon": 29.844466750000002,
    "communications": [
      {
        "type": 54,
        "frequency": 12300,
        "name": "Marburg Info"
      }
    ],
    "elevation": 833,
    "tower": true,
    "name": "Marburg Schoenstadt",
    "runways": [
      {
        "type": 100,
        "width": 30,
        "surfaceType": null,
        "numberStart": "04",
        "numberEnd": "22",
        "latStart": 50.87109287,
        "lonStart": 8.81159797,
        "latEnd": 50.87733553,
        "lonEnd": 8.81775883,
        "length": 0,
        "surfacetype": 3
      }
    ],
    "id": 16658
  },
  {
    "type": 1,
    "icao": "EDFA",
    "lat": 50.28899766,
    "lon": 29.411045295,
    "communications": [
      {
        "type": 54,
        "frequency": 12102,
        "name": "Anspach Info"
      }
    ],
    "elevation": 1102,
    "tower": false,
    "name": "Neu-Anspach",
    "runways": [
      {
        "type": 100,
        "width": 28,
        "surfaceType": null,
        "numberStart": "06",
        "numberEnd": "24",
        "latStart": 50.28731808,
        "lonStart": 8.53141335,
        "latEnd": 50.29067724,
        "lonEnd": 8.53893475,
        "length": 0,
        "surfacetype": 3
      }
    ],
    "id": 18218
  },
  {
    "type": 1,
    "icao": "EDFP",
    "lat": 50.362274895,
    "lon": 29.53621419,
    "communications": [
      {
        "type": 51,
        "frequency": 12285,
        "name": "Ober-Moerlen Info"
      }
    ],
    "elevation": 828,
    "tower": false,
    "name": "Ober-Moerlen",
    "runways": [
      {
        "type": 100,
        "width": 30,
        "surfaceType": null,
        "numberStart": "05",
        "numberEnd": "23",
        "latStart": 50.3600291,
        "lonStart": 8.70790769,
        "latEnd": 50.36452069,
        "lonEnd": 8.71569998,
        "length": 0,
        "surfacetype": 3
      }
    ],
    "id": 18791
  },
  {
    "type": 1,
    "icao": "ED03",
    "lat": 50.5322345,
    "lon": 29.6303435,
    "communications": [
      {
        "type": 54,
        "frequency": 12212,
        "name": "Pohlheim Info"
      }
    ],
    "elevation": 770,
    "tower": true,
    "name": "Pohlheim Viehweide",
    "runways": [
      {
        "type": 100,
        "width": 30,
        "surfaceType": null,
        "numberStart": "07",
        "numberEnd": "25",
        "latStart": 50.531884,
        "lonStart": 8.728102,
        "latEnd": 50.532585,
        "lonEnd": 8.73856,
        "length": 0,
        "surfacetype": 3
      }
    ],
    "id": 20302
  },
  {
    "type": 1,
    "icao": "EDGR",
    "lat": 50.56634121,
    "lon": 29.717551739999998,
    "communications": [
      {
        "type": 54,
        "frequency": 12365,
        "name": "Reiskirchen Info"
      }
    ],
    "elevation": 702,
    "tower": true,
    "name": "Reiskirchen",
    "runways": [
      {
        "type": 100,
        "width": 20,
        "surfaceType": null,
        "numberStart": "04",
        "numberEnd": "22",
        "latStart": 50.56468448,
        "lonStart": 8.86710554,
        "latEnd": 50.56799794,
        "lonEnd": 8.87109015,
        "length": 0,
        "surfacetype": 3
      }
    ],
    "id": 21348
  },
  {
    "type": 1,
    "icao": "ED09",
    "lat": 50.3026785375,
    "lon": 29.3424849575,
    "communications": [
      {
        "type": 51,
        "frequency": 13012,
        "name": "Riedelbach Info"
      }
    ],
    "elevation": 1720,
    "tower": false,
    "name": "Riedelbach",
    "runways": [
      {
        "type": 100,
        "width": 23,
        "surfaceType": null,
        "numberStart": "06",
        "numberEnd": "24",
        "latStart": 50.30002998,
        "lonStart": 8.37958362,
        "latEnd": 50.30498493,
        "lonEnd": 8.3902444,
        "length": 0,
        "surfacetype": 3
      },
      {
        "type": 100,
        "width": 30,
        "surfaceType": null,
        "numberStart": "08",
        "numberEnd": "26",
        "latStart": 50.30179313,
        "lonStart": 8.38146517,
        "latEnd": 50.30390611,
        "lonEnd": 8.38900613,
        "length": 0,
        "surfacetype": 3
      }
    ],
    "id": 21471
  },
  {
    "type": 1,
    "icao": "EDX4",
    "lat": 50.535693645,
    "lon": 29.841095960000004,
    "communications": [
      {
        "type": 51,
        "frequency": 12350,
        "name": "Schotten Info"
      }
    ],
    "elevation": 1640,
    "tower": true,
    "name": "Schotten",
    "runways": [
      {
        "type": 100,
        "width": 30,
        "surfaceType": null,
        "numberStart": "04",
        "numberEnd": "22",
        "latStart": 50.53603658,
        "lonStart": 9.14746984,
        "latEnd": 50.537163,
        "lonEnd": 9.149606,
        "length": 0,
        "surfacetype": 3
      },
      {
        "type": 100,
        "width": 30,
        "surfaceType": null,
        "numberStart": "05",
        "numberEnd": "23",
        "latStart": 50.533578,
        "lonStart": 9.143754,
        "latEnd": 50.535997,
        "lonEnd": 9.147403,
        "length": 0,
        "surfacetype": 3
      }
    ],
    "id": 23124
  },
  {
    "type": 1,
    "icao": "EDGS",
    "lat": 50.70793157333333,
    "lon": 29.391590431666668,
    "communications": [
      {
        "type": 50,
        "frequency": 12862,
        "name": "ATIS"
      },
      {
        "type": 54,
        "frequency": 12037,
        "name": "INFO"
      },
      {
        "type": 55,
        "frequency": 12490,
        "name": "LANGEN RADAR"
      }
    ],
    "elevation": 1965,
    "tower": true,
    "name": "Siegerland",
    "runways": [
      {
        "type": 100,
        "width": 29.87,
        "surfaceType": null,
        "numberStart": "13",
        "numberEnd": "31",
        "latStart": 50.71276279,
        "lonStart": 8.07267627,
        "latEnd": 50.70379379,
        "lonEnd": 8.09072927,
        "length": 0,
        "surfacetype": 1
      },
      {
        "type": 100,
        "width": 29.87,
        "surfaceType": null,
        "numberStart": "13L",
        "numberEnd": "31R",
        "latStart": 50.71284346,
        "lonStart": 8.07521248,
        "latEnd": 50.70697587,
        "lonEnd": 8.0870374,
        "length": 0,
        "surfacetype": 3
      },
      {
        "type": 100,
        "width": 29.87,
        "surfaceType": null,
        "numberStart": "04",
        "numberEnd": "22",
        "latStart": 50.70354493,
        "lonStart": 8.08321558,
        "latEnd": 50.7076686,
        "lonEnd": 8.08849989,
        "length": 0,
        "surfacetype": 3
      }
    ],
    "id": 23482
  },
  {
    "type": 1,
    "icao": "EDX8",
    "lat": 50.57564506,
    "lon": 29.554444065,
    "communications": [],
    "elevation": 492,
    "tower": false,
    "name": "Wetzlar Garbenheim",
    "runways": [
      {
        "type": 100,
        "width": 30,
        "surfaceType": null,
        "numberStart": "06",
        "numberEnd": "24",
        "latStart": 50.57491443,
        "lonStart": 8.53251244,
        "latEnd": 50.57637569,
        "lonEnd": 8.53700296,
        "length": 0,
        "surfacetype": 3
      }
    ],
    "id": 27172
  },
  {
    "type": 1,
    "icao": "ETOU",
    "lat": 50.049779,
    "lon": 29.181757,
    "communications": [
      {
        "type": 54,
        "frequency": 12210,
        "name": "Wiesbaden tower"
      },
      {
        "type": 53,
        "frequency": 13855,
        "name": "Wiesbaden ground"
      },
      {
        "type": 55,
        "frequency": 12080,
        "name": "Frankfurt radar"
      },
      {
        "type": 56,
        "frequency": 12080,
        "name": "Frankfurt radar"
      }
    ],
    "elevation": 452,
    "tower": true,
    "name": "Wiesbaden Erbenheim AAF",
    "runways": [
      {
        "type": 100,
        "width": 45,
        "surfaceType": null,
        "numberStart": "06",
        "numberEnd": "24",
        "latStart": 50.047049,
        "lonStart": 8.311005,
        "latEnd": 50.052509,
        "lonEnd": 8.339305,
        "length": 0,
        "surfacetype": 1
      }
    ],
    "id": 27258
  }
]