[
  {
    "type": 17,
    "icao": "NC98",
    "lat": 36.32460027,
    "lon": -76.21910028,
    "communications": [],
    "elevation": 12,
    "tower": false,
    "name": "[H] Albemarle Hospital",
    "runways": [
      {
        "type": 102,
        "width": 21.3,
        "surfaceType": 2,
        "numberStart": "H1",
        "numberEnd": null,
        "latStart": 36.32460027,
        "lonStart": -76.21910028,
        "latEnd": null,
        "lonEnd": null,
        "length": 21.3
      }
    ],
    "id": 28069
  },
  {
    "type": 17,
    "icao": "VA69",
    "lat": 36.78875916,
    "lon": -76.22632667,
    "communications": [],
    "elevation": 20,
    "tower": false,
    "name": "[H] Armada Hoffler Business Center",
    "runways": [
      {
        "type": 102,
        "width": 9.1,
        "surfaceType": 3,
        "numberStart": "H1",
        "numberEnd": null,
        "latStart": 36.78875916,
        "lonStart": -76.22632667,
        "latEnd": null,
        "lonEnd": null,
        "length": 9.1
      }
    ],
    "id": 28180
  },
  {
    "type": 17,
    "icao": "KNCL",
    "lat": 36.931996,
    "lon": -76.301932,
    "communications": [],
    "elevation": 14,
    "tower": false,
    "name": "[H] COMLANTFLT",
    "runways": [
      {
        "type": 102,
        "width": 25.9,
        "surfaceType": 1,
        "numberStart": "H1",
        "numberEnd": null,
        "latStart": 36.931996,
        "lonStart": -76.301932,
        "latEnd": null,
        "lonEnd": null,
        "length": 19.8
      }
    ],
    "id": 28691
  },
  {
    "type": 17,
    "icao": "11VA",
    "lat": 36.74548667,
    "lon": -76.24821896,
    "communications": [],
    "elevation": 20,
    "tower": false,
    "name": "[H] Chesapeake General Hospital",
    "runways": [
      {
        "type": 102,
        "width": 13.1,
        "surfaceType": 2,
        "numberStart": "H1",
        "numberEnd": null,
        "latStart": 36.74548667,
        "lonStart": -76.24821896,
        "latEnd": null,
        "lonEnd": null,
        "length": 13.1
      }
    ],
    "id": 28908
  },
  {
    "type": 17,
    "icao": "64VA",
    "lat": 36.60487444,
    "lon": -76.00437278,
    "communications": [],
    "elevation": 6,
    "tower": false,
    "name": "[H] Creeds",
    "runways": [
      {
        "type": 102,
        "width": 53.3,
        "surfaceType": 2,
        "numberStart": "H1",
        "numberEnd": null,
        "latStart": 36.60487444,
        "lonStart": -76.00437278,
        "latEnd": null,
        "lonEnd": null,
        "length": 152.4
      }
    ],
    "id": 29185
  },
  {
    "type": 17,
    "icao": "47VA",
    "lat": 36.79598138,
    "lon": -76.23799389,
    "communications": [],
    "elevation": 20,
    "tower": false,
    "name": "[H] Division Five",
    "runways": [
      {
        "type": 102,
        "width": 18.3,
        "surfaceType": 3,
        "numberStart": "H1",
        "numberEnd": null,
        "latStart": 36.79598138,
        "lonStart": -76.23799389,
        "latEnd": null,
        "lonEnd": null,
        "length": 18.3
      }
    ],
    "id": 29373
  },
  {
    "type": 17,
    "icao": "9VA6",
    "lat": 36.75292722,
    "lon": -76.58578417,
    "communications": [],
    "elevation": 40,
    "tower": false,
    "name": "[H] Louise Obici Memorial Hospital",
    "runways": [
      {
        "type": 102,
        "width": 9.1,
        "surfaceType": 2,
        "numberStart": "H1",
        "numberEnd": null,
        "latStart": 36.75292722,
        "lonStart": -76.58578417,
        "latEnd": null,
        "lonEnd": null,
        "length": 9.1
      }
    ],
    "id": 30950
  },
  {
    "type": 17,
    "icao": "37VA",
    "lat": 36.86542583,
    "lon": -76.03437584,
    "communications": [],
    "elevation": 20,
    "tower": false,
    "name": "[H] Lynnhaven",
    "runways": [
      {
        "type": 102,
        "width": 15.2,
        "surfaceType": 1,
        "numberStart": "H1",
        "numberEnd": null,
        "latStart": 36.86542583,
        "lonStart": -76.03437584,
        "latEnd": null,
        "lonEnd": null,
        "length": 15.2
      }
    ],
    "id": 30983
  },
  {
    "type": 17,
    "icao": "86VA",
    "lat": 36.99986972,
    "lon": -76.42466973,
    "communications": [],
    "elevation": 19,
    "tower": false,
    "name": "[H] Newport News General Hospital",
    "runways": [
      {
        "type": 102,
        "width": 9.1,
        "surfaceType": 2,
        "numberStart": "H1",
        "numberEnd": null,
        "latStart": 36.99986972,
        "lonStart": -76.42466973,
        "latEnd": null,
        "lonEnd": null,
        "length": 9.1
      }
    ],
    "id": 31610
  },
  {
    "type": 17,
    "icao": "VA88",
    "lat": 36.86125888,
    "lon": -76.30355223,
    "communications": [],
    "elevation": 8,
    "tower": false,
    "name": "[H] Sentara Norfolk General Hospital",
    "runways": [
      {
        "type": 102,
        "width": 18.3,
        "surfaceType": 2,
        "numberStart": "H1",
        "numberEnd": null,
        "latStart": 36.86125888,
        "lonStart": -76.30355223,
        "latEnd": null,
        "lonEnd": null,
        "length": 18.3
      }
    ],
    "id": 32643
  },
  {
    "type": 17,
    "icao": "9VA9",
    "lat": 36.69931694,
    "lon": -76.93829417,
    "communications": [],
    "elevation": 43,
    "tower": false,
    "name": "[H] Southampton Memorial Hospital",
    "runways": [
      {
        "type": 102,
        "width": 9.1,
        "surfaceType": 2,
        "numberStart": "H1",
        "numberEnd": null,
        "latStart": 36.69931694,
        "lonStart": -76.93829417,
        "latEnd": null,
        "lonEnd": null,
        "length": 9.1
      }
    ],
    "id": 32796
  },
  {
    "type": 17,
    "icao": "2VA7",
    "lat": 36.86625916,
    "lon": -76.02576445,
    "communications": [],
    "elevation": 23,
    "tower": false,
    "name": "[H] Virginia Beach General Hospital",
    "runways": [
      {
        "type": 102,
        "width": 15.2,
        "surfaceType": 2,
        "numberStart": "H1",
        "numberEnd": null,
        "latStart": 36.86625916,
        "lonStart": -76.02576445,
        "latEnd": null,
        "lonEnd": null,
        "length": 15.2
      }
    ],
    "id": 33645
  },
  {
    "type": 17,
    "icao": "56VA",
    "lat": 36.75098305,
    "lon": -76.05826528,
    "communications": [],
    "elevation": 12,
    "tower": false,
    "name": "[H] Virginia Beach Municipal",
    "runways": [
      {
        "type": 102,
        "width": 76.2,
        "surfaceType": 3,
        "numberStart": "H1",
        "numberEnd": null,
        "latStart": 36.75098305,
        "lonStart": -76.05826528,
        "latEnd": null,
        "lonEnd": null,
        "length": 76.2
      }
    ],
    "id": 33646
  },
  {
    "type": 17,
    "icao": "00VA",
    "lat": 36.747733999999994,
    "lon": -76.042949,
    "communications": [],
    "elevation": 0,
    "tower": false,
    "name": "[H] Virginia Beach Police Helicopter Base",
    "runways": [
      {
        "type": 102,
        "width": 6.1,
        "surfaceType": 2,
        "numberStart": "H1",
        "numberEnd": null,
        "latStart": 36.747803,
        "lonStart": -76.042996,
        "latEnd": null,
        "lonEnd": null,
        "length": 6.1
      },
      {
        "type": 102,
        "width": 6.1,
        "surfaceType": 2,
        "numberStart": "H2",
        "numberEnd": null,
        "latStart": 36.747665,
        "lonStart": -76.042902,
        "latEnd": null,
        "lonEnd": null,
        "length": 6.1
      }
    ],
    "id": 33647
  },
  {
    "type": 17,
    "icao": "79VA",
    "lat": 36.80678833,
    "lon": -76.73801306,
    "communications": [],
    "elevation": 78,
    "tower": false,
    "name": "[H] Windsor",
    "runways": [
      {
        "type": 102,
        "width": 9.1,
        "surfaceType": 2,
        "numberStart": "H1",
        "numberEnd": null,
        "latStart": 36.80678833,
        "lonStart": -76.73801306,
        "latEnd": null,
        "lonEnd": null,
        "length": 9.1
      }
    ],
    "id": 33875
  }
]