[
  {
    "type": 1,
    "icao": "SDAA",
    "lat": -22.339121,
    "lon": -47.3592655,
    "communications": [],
    "elevation": 2247,
    "tower": true,
    "name": "Araras",
    "runways": [
      {
        "type": 100,
        "width": 29.87,
        "surfaceType": null,
        "numberStart": "12",
        "numberEnd": "30",
        "latStart": -22.336756,
        "lonStart": -47.364314,
        "latEnd": -22.341486,
        "lonEnd": -47.354217,
        "length": 0,
        "surfacetype": 1
      }
    ],
    "id": 25322
  },
  {
    "type": 1,
    "icao": "SDAE",
    "lat": -22.583611105,
    "lon": -47.896111115,
    "communications": [],
    "elevation": 1858,
    "tower": false,
    "name": "Sao Pedro",
    "runways": [
      {
        "type": 100,
        "width": 24.99,
        "surfaceType": null,
        "numberStart": "14",
        "numberEnd": "32",
        "latStart": -22.58120142,
        "lonStart": -47.90028986,
        "latEnd": -22.58602079,
        "lonEnd": -47.89193237,
        "length": 0,
        "surfacetype": 4
      }
    ],
    "id": 25326
  },
  {
    "type": 1,
    "icao": "SDAF",
    "lat": -22.156683,
    "lon": -47.719280499999996,
    "communications": [],
    "elevation": 2762,
    "tower": false,
    "name": "FAZENDA PALMEIRAS",
    "runways": [
      {
        "type": 100,
        "width": 17.98,
        "surfaceType": null,
        "numberStart": "10",
        "numberEnd": "28",
        "latStart": -22.157594,
        "lonStart": -47.724033,
        "latEnd": -22.155772,
        "lonEnd": -47.714528,
        "length": 0,
        "surfacetype": 1
      }
    ],
    "id": 25327
  },
  {
    "type": 1,
    "icao": "SDAI",
    "lat": -22.755786,
    "lon": -47.269443499999994,
    "communications": [],
    "elevation": 2084,
    "tower": false,
    "name": "AMERICANA",
    "runways": [
      {
        "type": 100,
        "width": 17.98,
        "surfaceType": null,
        "numberStart": "12",
        "numberEnd": "30",
        "latStart": -22.755325,
        "lonStart": -47.274831,
        "latEnd": -22.756247,
        "lonEnd": -47.264056,
        "length": 0,
        "surfacetype": 1
      }
    ],
    "id": 25330
  },
  {
    "type": 1,
    "icao": "SDAM",
    "lat": -22.85924,
    "lon": -47.108183,
    "communications": [
      {
        "type": 54,
        "frequency": 12577,
        "name": "RDO"
      }
    ],
    "elevation": 2007,
    "tower": true,
    "name": "Amarais",
    "runways": [
      {
        "type": 100,
        "width": 28.96,
        "surfaceType": null,
        "numberStart": "16",
        "numberEnd": "34",
        "latStart": -22.855197,
        "lonStart": -47.112172,
        "latEnd": -22.863283,
        "lonEnd": -47.104194,
        "length": 0,
        "surfacetype": 1
      }
    ],
    "id": 25334
  },
  {
    "type": 1,
    "icao": "SDED",
    "lat": -22.44069206,
    "lon": -47.70064289,
    "communications": [],
    "elevation": 2007,
    "tower": false,
    "name": "Edra do Brasil",
    "runways": [
      {
        "type": 100,
        "width": 20.12,
        "surfaceType": null,
        "numberStart": "13",
        "numberEnd": "31",
        "latStart": -22.43956277,
        "lonStart": -47.70413526,
        "latEnd": -22.44182135,
        "lonEnd": -47.69715052,
        "length": 0,
        "surfacetype": 3
      }
    ],
    "id": 25422
  },
  {
    "type": 17,
    "icao": "SDEH",
    "lat": -22.37805556,
    "lon": -47.325,
    "communications": [],
    "elevation": 624,
    "tower": false,
    "name": "[H] Fazenda Santo Antonio",
    "runways": [
      {
        "type": 102,
        "width": 24.1,
        "surfaceType": 2,
        "numberStart": "H1",
        "numberEnd": null,
        "latStart": -22.37805556,
        "lonStart": -47.325,
        "latEnd": null,
        "lonEnd": null,
        "length": 24.1
      }
    ],
    "id": 25426
  },
  {
    "type": 17,
    "icao": "SDFJ",
    "lat": -22.95222222,
    "lon": -47.75972222,
    "communications": [],
    "elevation": 1575,
    "tower": false,
    "name": "[H] Fazenda Murungaba",
    "runways": [
      {
        "type": 102,
        "width": 21,
        "surfaceType": 2,
        "numberStart": "H1",
        "numberEnd": null,
        "latStart": -22.95222222,
        "lonStart": -47.75972222,
        "latEnd": null,
        "lonEnd": null,
        "length": 21
      }
    ],
    "id": 25453
  },
  {
    "type": 17,
    "icao": "SDHH",
    "lat": -22.7575,
    "lon": -47.15805556,
    "communications": [],
    "elevation": 597,
    "tower": false,
    "name": "[H] Comercial Campineira de Combustiveis",
    "runways": [
      {
        "type": 102,
        "width": 20.1,
        "surfaceType": 3,
        "numberStart": "H1",
        "numberEnd": null,
        "latStart": -22.7575,
        "lonStart": -47.15805556,
        "latEnd": null,
        "lonEnd": null,
        "length": 20.1
      }
    ],
    "id": 25502
  },
  {
    "type": 17,
    "icao": "SDHZ",
    "lat": -22.90416667,
    "lon": -47.06777778,
    "communications": [],
    "elevation": 731,
    "tower": false,
    "name": "[H] Hospital Vera Cruz",
    "runways": [
      {
        "type": 102,
        "width": 20.1,
        "surfaceType": 2,
        "numberStart": "H1",
        "numberEnd": null,
        "latStart": -22.90416667,
        "lonStart": -47.06777778,
        "latEnd": null,
        "lonEnd": null,
        "length": 20.1
      }
    ],
    "id": 25519
  },
  {
    "type": 17,
    "icao": "SDIK",
    "lat": -22.81944444,
    "lon": -47.03527778,
    "communications": [],
    "elevation": 2042,
    "tower": false,
    "name": "[H] Alpha Business Empresarial",
    "runways": [
      {
        "type": 102,
        "width": 18,
        "surfaceType": 2,
        "numberStart": "H1",
        "numberEnd": null,
        "latStart": -22.81944444,
        "lonStart": -47.03527778,
        "latEnd": null,
        "lonEnd": null,
        "length": 18
      }
    ],
    "id": 25529
  },
  {
    "type": 1,
    "icao": "SDJA",
    "lat": -22.195164,
    "lon": -47.8624095,
    "communications": [],
    "elevation": 2569,
    "tower": false,
    "name": "DR AUGUSTO DE A BOTELHO",
    "runways": [
      {
        "type": 100,
        "width": 21.34,
        "surfaceType": null,
        "numberStart": "07",
        "numberEnd": "25",
        "latStart": -22.198525,
        "lonStart": -47.866961,
        "latEnd": -22.191803,
        "lonEnd": -47.857858,
        "length": 0,
        "surfacetype": 1
      }
    ],
    "id": 25543
  },
  {
    "type": 1,
    "icao": "SDLL",
    "lat": -22.2266674,
    "lon": -47.381942699999996,
    "communications": [],
    "elevation": 2021,
    "tower": true,
    "name": "Leme",
    "runways": [
      {
        "type": 100,
        "width": 15.85,
        "surfaceType": null,
        "numberStart": "08",
        "numberEnd": "26",
        "latStart": -22.2290664,
        "lonStart": -47.38661801,
        "latEnd": -22.2242684,
        "lonEnd": -47.37726739,
        "length": 0,
        "surfacetype": 2
      }
    ],
    "id": 25605
  },
  {
    "type": 17,
    "icao": "SDOJ",
    "lat": -22.89833333,
    "lon": -47.13361111,
    "communications": [],
    "elevation": 1963,
    "tower": false,
    "name": "[H] Basalto Base 5",
    "runways": [
      {
        "type": 102,
        "width": 19.8,
        "surfaceType": 2,
        "numberStart": "H1",
        "numberEnd": null,
        "latStart": -22.89833333,
        "lonStart": -47.13361111,
        "latEnd": null,
        "lonEnd": null,
        "length": 19.8
      }
    ],
    "id": 25675
  },
  {
    "type": 17,
    "icao": "SDOP",
    "lat": -22.89555556,
    "lon": -47.19,
    "communications": [],
    "elevation": 646,
    "tower": false,
    "name": "[H] ESM Sigma Pharma 2",
    "runways": [
      {
        "type": 102,
        "width": 20.1,
        "surfaceType": 2,
        "numberStart": "H1",
        "numberEnd": null,
        "latStart": -22.89555556,
        "lonStart": -47.19,
        "latEnd": null,
        "lonEnd": null,
        "length": 20.1
      }
    ],
    "id": 25681
  },
  {
    "type": 17,
    "icao": "SDPR",
    "lat": -22.94277778,
    "lon": -47.14972222,
    "communications": [],
    "elevation": 640,
    "tower": false,
    "name": "[H] Pirelli SA",
    "runways": [
      {
        "type": 102,
        "width": 24.1,
        "surfaceType": 3,
        "numberStart": "H1",
        "numberEnd": null,
        "latStart": -22.94277778,
        "lonStart": -47.14972222,
        "latEnd": null,
        "lonEnd": null,
        "length": 24.1
      }
    ],
    "id": 25709
  },
  {
    "type": 1,
    "icao": "SDPW",
    "lat": -22.711542,
    "lon": -47.618061,
    "communications": [],
    "elevation": 1887,
    "tower": true,
    "name": "Piracicaba",
    "runways": [
      {
        "type": 100,
        "width": 27.43,
        "surfaceType": null,
        "numberStart": "17",
        "numberEnd": "35",
        "latStart": -22.706728,
        "lonStart": -47.6206,
        "latEnd": -22.716356,
        "lonEnd": -47.615522,
        "length": 0,
        "surfacetype": 1
      }
    ],
    "id": 25714
  },
  {
    "type": 1,
    "icao": "SDPY",
    "lat": -22.02638889,
    "lon": -47.41944444,
    "communications": [],
    "elevation": 2241,
    "tower": false,
    "name": "Pirassununga",
    "runways": [
      {
        "type": 100,
        "width": 29.87,
        "surfaceType": null,
        "numberStart": "03",
        "numberEnd": "21",
        "latStart": -22.03025461,
        "lonStart": -47.42010036,
        "latEnd": -22.02252317,
        "lonEnd": -47.41878852,
        "length": 0,
        "surfacetype": 4
      }
    ],
    "id": 25716
  },
  {
    "type": 17,
    "icao": "SDQY",
    "lat": -22.89083333,
    "lon": -47.02972222,
    "communications": [],
    "elevation": 716,
    "tower": false,
    "name": "[H] Shopping Center Iguatemi",
    "runways": [
      {
        "type": 102,
        "width": 21,
        "surfaceType": 2,
        "numberStart": "H1",
        "numberEnd": null,
        "latStart": -22.89083333,
        "lonStart": -47.02972222,
        "latEnd": null,
        "lonEnd": null,
        "length": 21
      }
    ],
    "id": 25740
  },
  {
    "type": 1,
    "icao": "SDRK",
    "lat": -22.4302788,
    "lon": -47.5625,
    "communications": [],
    "elevation": 2031,
    "tower": true,
    "name": "Rio Claro",
    "runways": [
      {
        "type": 100,
        "width": 18.59,
        "surfaceType": null,
        "numberStart": "03",
        "numberEnd": "21",
        "latStart": -22.43601939,
        "lonStart": -47.56370719,
        "latEnd": -22.42453821,
        "lonEnd": -47.56129281,
        "length": 0,
        "surfacetype": 2
      }
    ],
    "id": 25753
  },
  {
    "type": 17,
    "icao": "SDSU",
    "lat": -22.80055556,
    "lon": -47.19222222,
    "communications": [],
    "elevation": 474,
    "tower": false,
    "name": "[H] Pirelli Sumare",
    "runways": [
      {
        "type": 102,
        "width": 20.1,
        "surfaceType": 3,
        "numberStart": "H1",
        "numberEnd": null,
        "latStart": -22.80055556,
        "lonStart": -47.19222222,
        "latEnd": null,
        "lonEnd": null,
        "length": 20.1
      }
    ],
    "id": 25788
  },
  {
    "type": 17,
    "icao": "SDYH",
    "lat": -22.92916667,
    "lon": -47.08277778,
    "communications": [],
    "elevation": 700,
    "tower": false,
    "name": "[H] Jose Roberto Magalhaes Teixeira",
    "runways": [
      {
        "type": 102,
        "width": 20.1,
        "surfaceType": 2,
        "numberStart": "H1",
        "numberEnd": null,
        "latStart": -22.92916667,
        "lonStart": -47.08277778,
        "latEnd": null,
        "lonEnd": null,
        "length": 20.1
      }
    ],
    "id": 25927
  },
  {
    "type": 1,
    "icao": "SDYM",
    "lat": -22.60388889,
    "lon": -47.41194444,
    "communications": [],
    "elevation": 2172,
    "tower": false,
    "name": "Limeira",
    "runways": [
      {
        "type": 100,
        "width": 20.12,
        "surfaceType": null,
        "numberStart": "16",
        "numberEnd": "34",
        "latStart": -22.6007234,
        "lonStart": -47.41462707,
        "latEnd": -22.60705438,
        "lonEnd": -47.40926181,
        "length": 0,
        "surfacetype": 4
      }
    ],
    "id": 25932
  },
  {
    "type": 17,
    "icao": "SDYY",
    "lat": -22.85027778,
    "lon": -47.02333333,
    "communications": [],
    "elevation": 666,
    "tower": false,
    "name": "[H] Lucent",
    "runways": [
      {
        "type": 102,
        "width": 24.1,
        "surfaceType": 3,
        "numberStart": "H1",
        "numberEnd": null,
        "latStart": -22.85027778,
        "lonStart": -47.02333333,
        "latEnd": null,
        "lonEnd": null,
        "length": 24.1
      }
    ],
    "id": 25944
  },
  {
    "type": 17,
    "icao": "SIBT",
    "lat": -22.73055556,
    "lon": -47.28472222,
    "communications": [],
    "elevation": 609,
    "tower": false,
    "name": "[H] Transportadora Americana II",
    "runways": [
      {
        "type": 102,
        "width": 20.1,
        "surfaceType": 3,
        "numberStart": "H1",
        "numberEnd": null,
        "latStart": -22.73055556,
        "lonStart": -47.28472222,
        "latEnd": null,
        "lonEnd": null,
        "length": 20.1
      }
    ],
    "id": 26103
  },
  {
    "type": 17,
    "icao": "SICC",
    "lat": -22.38888889,
    "lon": -47.28666667,
    "communications": [],
    "elevation": 628,
    "tower": false,
    "name": "[H] Fazenda Campo Alto",
    "runways": [
      {
        "type": 102,
        "width": 29.9,
        "surfaceType": 2,
        "numberStart": "H1",
        "numberEnd": null,
        "latStart": -22.38888889,
        "lonStart": -47.28666667,
        "latEnd": null,
        "lonEnd": null,
        "length": 29.9
      }
    ],
    "id": 26112
  },
  {
    "type": 17,
    "icao": "SICT",
    "lat": -22.99611111,
    "lon": -47.10583333,
    "communications": [],
    "elevation": 622,
    "tower": false,
    "name": "[H] Elektro",
    "runways": [
      {
        "type": 102,
        "width": 21,
        "surfaceType": 2,
        "numberStart": "H1",
        "numberEnd": null,
        "latStart": -22.99611111,
        "lonStart": -47.10583333,
        "latEnd": null,
        "lonEnd": null,
        "length": 21
      }
    ],
    "id": 26128
  },
  {
    "type": 17,
    "icao": "SIDF",
    "lat": -22.695,
    "lon": -47.35555556,
    "communications": [],
    "elevation": 520,
    "tower": false,
    "name": "[H] Umicore",
    "runways": [
      {
        "type": 102,
        "width": 18,
        "surfaceType": 2,
        "numberStart": "H1",
        "numberEnd": null,
        "latStart": -22.695,
        "lonStart": -47.35555556,
        "latEnd": null,
        "lonEnd": null,
        "length": 18
      }
    ],
    "id": 26140
  },
  {
    "type": 17,
    "icao": "SIEO",
    "lat": -22.71027778,
    "lon": -47.00333333,
    "communications": [],
    "elevation": 666,
    "tower": false,
    "name": "[H] AMBEV Jaguariuna",
    "runways": [
      {
        "type": 102,
        "width": 21,
        "surfaceType": 2,
        "numberStart": "H1",
        "numberEnd": null,
        "latStart": -22.71027778,
        "lonStart": -47.00333333,
        "latEnd": null,
        "lonEnd": null,
        "length": 21
      }
    ],
    "id": 26175
  },
  {
    "type": 17,
    "icao": "SIER",
    "lat": -22.6325,
    "lon": -47.68638889,
    "communications": [],
    "elevation": 506,
    "tower": false,
    "name": "[H] Cosan",
    "runways": [
      {
        "type": 102,
        "width": 21.3,
        "surfaceType": 2,
        "numberStart": "H1",
        "numberEnd": null,
        "latStart": -22.6325,
        "lonStart": -47.68638889,
        "latEnd": null,
        "lonEnd": null,
        "length": 21.3
      }
    ],
    "id": 26178
  },
  {
    "type": 17,
    "icao": "SIKU",
    "lat": -22.80638889,
    "lon": -47.04277778,
    "communications": [],
    "elevation": 658,
    "tower": false,
    "name": "[H] Northern Telecom do Brasil",
    "runways": [
      {
        "type": 102,
        "width": 20.1,
        "surfaceType": 2,
        "numberStart": "H1",
        "numberEnd": null,
        "latStart": -22.80638889,
        "lonStart": -47.04277778,
        "latEnd": null,
        "lonEnd": null,
        "length": 20.1
      }
    ],
    "id": 26333
  },
  {
    "type": 17,
    "icao": "SILH",
    "lat": -22.83638889,
    "lon": -47.06611111,
    "communications": [],
    "elevation": 639,
    "tower": false,
    "name": "[H] Parque Dom Pedro",
    "runways": [
      {
        "type": 102,
        "width": 21.3,
        "surfaceType": 1,
        "numberStart": "H1",
        "numberEnd": null,
        "latStart": -22.83638889,
        "lonStart": -47.06611111,
        "latEnd": null,
        "lonEnd": null,
        "length": 21.3
      }
    ],
    "id": 26346
  },
  {
    "type": 17,
    "icao": "SIMC",
    "lat": -22.71138889,
    "lon": -47.14111111,
    "communications": [],
    "elevation": 604,
    "tower": false,
    "name": "[H] FIC",
    "runways": [
      {
        "type": 102,
        "width": 20.1,
        "surfaceType": 2,
        "numberStart": "H1",
        "numberEnd": null,
        "latStart": -22.71138889,
        "lonStart": -47.14111111,
        "latEnd": null,
        "lonEnd": null,
        "length": 20.1
      }
    ],
    "id": 26367
  },
  {
    "type": 17,
    "icao": "SIPD",
    "lat": -22.90222222,
    "lon": -47.04833333,
    "communications": [],
    "elevation": 719,
    "tower": false,
    "name": "[H] Vitoria Hotel Residence",
    "runways": [
      {
        "type": 102,
        "width": 18,
        "surfaceType": 2,
        "numberStart": "H1",
        "numberEnd": null,
        "latStart": -22.90222222,
        "lonStart": -47.04833333,
        "latEnd": null,
        "lonEnd": null,
        "length": 18
      }
    ],
    "id": 26445
  },
  {
    "type": 17,
    "icao": "SIPT",
    "lat": -22.76861111,
    "lon": -47.1375,
    "communications": [],
    "elevation": 596,
    "tower": false,
    "name": "[H] Petrobras Refinaria Paulinea Replan",
    "runways": [
      {
        "type": 102,
        "width": 19.5,
        "surfaceType": 2,
        "numberStart": "H1",
        "numberEnd": null,
        "latStart": -22.76861111,
        "lonStart": -47.1375,
        "latEnd": null,
        "lonEnd": null,
        "length": 19.5
      }
    ],
    "id": 26461
  },
  {
    "type": 17,
    "icao": "SIPX",
    "lat": -22.9075,
    "lon": -47.00361111,
    "communications": [],
    "elevation": 729,
    "tower": false,
    "name": "[H] Gramado",
    "runways": [
      {
        "type": 102,
        "width": 20.1,
        "surfaceType": 2,
        "numberStart": "H1",
        "numberEnd": null,
        "latStart": -22.9075,
        "lonStart": -47.00361111,
        "latEnd": null,
        "lonEnd": null,
        "length": 20.1
      }
    ],
    "id": 26465
  },
  {
    "type": 1,
    "icao": "SIQK",
    "lat": -22.781388890000002,
    "lon": -47.33416667,
    "communications": [],
    "elevation": 1909,
    "tower": false,
    "name": "Rodrigues",
    "runways": [
      {
        "type": 100,
        "width": 20.12,
        "surfaceType": null,
        "numberStart": "13",
        "numberEnd": "31",
        "latStart": -22.78056922,
        "lonStart": -47.33645341,
        "latEnd": -22.78220856,
        "lonEnd": -47.33187993,
        "length": 0,
        "surfacetype": 4
      }
    ],
    "id": 26477
  },
  {
    "type": 17,
    "icao": "SISA",
    "lat": -22.0025,
    "lon": -47.86888889,
    "communications": [],
    "elevation": 879,
    "tower": false,
    "name": "[H] Transpel",
    "runways": [
      {
        "type": 102,
        "width": 18,
        "surfaceType": 2,
        "numberStart": "H1",
        "numberEnd": null,
        "latStart": -22.0025,
        "lonStart": -47.86888889,
        "latEnd": null,
        "lonEnd": null,
        "length": 18
      }
    ],
    "id": 26518
  },
  {
    "type": 17,
    "icao": "SIUE",
    "lat": -22.59888889,
    "lon": -47.88083333,
    "communications": [],
    "elevation": 491,
    "tower": false,
    "name": "[H] Grande Hotel Sao Pedro",
    "runways": [
      {
        "type": 102,
        "width": 21,
        "surfaceType": 2,
        "numberStart": "H1",
        "numberEnd": null,
        "latStart": -22.59888889,
        "lonStart": -47.88083333,
        "latEnd": null,
        "lonEnd": null,
        "length": 21
      }
    ],
    "id": 26573
  },
  {
    "type": 17,
    "icao": "SIVI",
    "lat": -22.91222222,
    "lon": -47.06361111,
    "communications": [],
    "elevation": 731,
    "tower": false,
    "name": "[H] Monte Sinai",
    "runways": [
      {
        "type": 102,
        "width": 24.1,
        "surfaceType": 2,
        "numberStart": "H1",
        "numberEnd": null,
        "latStart": -22.91222222,
        "lonStart": -47.06361111,
        "latEnd": null,
        "lonEnd": null,
        "length": 24.1
      }
    ],
    "id": 26600
  },
  {
    "type": 17,
    "icao": "SIXN",
    "lat": -22.97611111,
    "lon": -47.10111111,
    "communications": [],
    "elevation": 657,
    "tower": false,
    "name": "[H] Soufer",
    "runways": [
      {
        "type": 102,
        "width": 18,
        "surfaceType": 3,
        "numberStart": "H1",
        "numberEnd": null,
        "latStart": -22.97611111,
        "lonStart": -47.10111111,
        "latEnd": null,
        "lonEnd": null,
        "length": 18
      }
    ],
    "id": 26656
  },
  {
    "type": 17,
    "icao": "SIYA",
    "lat": -22.87055556,
    "lon": -47.18833333,
    "communications": [],
    "elevation": 597,
    "tower": false,
    "name": "[H] BSH Continental Eletrodomestic. LTDA",
    "runways": [
      {
        "type": 102,
        "width": 24.1,
        "surfaceType": 1,
        "numberStart": "H1",
        "numberEnd": null,
        "latStart": -22.87055556,
        "lonStart": -47.18833333,
        "latEnd": null,
        "lonEnd": null,
        "length": 24.1
      }
    ],
    "id": 26668
  },
  {
    "type": 17,
    "icao": "SIZE",
    "lat": -22.99722222,
    "lon": -47.12305556,
    "communications": [],
    "elevation": 675,
    "tower": false,
    "name": "[H] Coppersteel Bimetalicos",
    "runways": [
      {
        "type": 102,
        "width": 20.1,
        "surfaceType": 2,
        "numberStart": "H1",
        "numberEnd": null,
        "latStart": -22.99722222,
        "lonStart": -47.12305556,
        "latEnd": null,
        "lonEnd": null,
        "length": 20.1
      }
    ],
    "id": 26698
  },
  {
    "type": 17,
    "icao": "SIZY",
    "lat": -22.6975,
    "lon": -47.55944444,
    "communications": [],
    "elevation": 541,
    "tower": false,
    "name": "[H] Coopersucar - CTC",
    "runways": [
      {
        "type": 102,
        "width": 29.9,
        "surfaceType": 2,
        "numberStart": "H1",
        "numberEnd": null,
        "latStart": -22.6975,
        "lonStart": -47.55944444,
        "latEnd": null,
        "lonEnd": null,
        "length": 29.9
      }
    ],
    "id": 26717
  },
  {
    "type": 17,
    "icao": "SJAV",
    "lat": -22.74861111,
    "lon": -47.30111111,
    "communications": [],
    "elevation": 568,
    "tower": false,
    "name": "[H] Nauto Najar",
    "runways": [
      {
        "type": 102,
        "width": 20.1,
        "surfaceType": 2,
        "numberStart": "H1",
        "numberEnd": null,
        "latStart": -22.74861111,
        "lonStart": -47.30111111,
        "latEnd": null,
        "lonEnd": null,
        "length": 20.1
      }
    ],
    "id": 26739
  },
  {
    "type": 17,
    "icao": "SJBI",
    "lat": -22.44027778,
    "lon": -47.69777778,
    "communications": [],
    "elevation": 608,
    "tower": false,
    "name": "[H] Edra",
    "runways": [
      {
        "type": 102,
        "width": 21,
        "surfaceType": 2,
        "numberStart": "H1",
        "numberEnd": null,
        "latStart": -22.44027778,
        "lonStart": -47.69777778,
        "latEnd": null,
        "lonEnd": null,
        "length": 21
      }
    ],
    "id": 26752
  },
  {
    "type": 17,
    "icao": "SJBL",
    "lat": -22.33,
    "lon": -47.48861111,
    "communications": [],
    "elevation": 644,
    "tower": false,
    "name": "[H] Fazenda Sao Jose",
    "runways": [
      {
        "type": 102,
        "width": 21,
        "surfaceType": 3,
        "numberStart": "H1",
        "numberEnd": null,
        "latStart": -22.33,
        "lonStart": -47.48861111,
        "latEnd": null,
        "lonEnd": null,
        "length": 21
      }
    ],
    "id": 26755
  },
  {
    "type": 17,
    "icao": "SJDQ",
    "lat": -22.8975,
    "lon": -47.04694444,
    "communications": [],
    "elevation": 699,
    "tower": false,
    "name": "[H] Trade Tower",
    "runways": [
      {
        "type": 102,
        "width": 19.8,
        "surfaceType": 2,
        "numberStart": "H1",
        "numberEnd": null,
        "latStart": -22.8975,
        "lonStart": -47.04694444,
        "latEnd": null,
        "lonEnd": null,
        "length": 19.8
      }
    ],
    "id": 26808
  },
  {
    "type": 17,
    "icao": "SJEC",
    "lat": -22.63222222,
    "lon": -47.84444444,
    "communications": [],
    "elevation": 1737,
    "tower": false,
    "name": "[H] Haras Bella Vista",
    "runways": [
      {
        "type": 102,
        "width": 21,
        "surfaceType": 2,
        "numberStart": "H1",
        "numberEnd": null,
        "latStart": -22.63222222,
        "lonStart": -47.84444444,
        "latEnd": null,
        "lonEnd": null,
        "length": 21
      }
    ],
    "id": 26819
  },
  {
    "type": 17,
    "icao": "SJOD",
    "lat": -22.97055556,
    "lon": -47.29888889,
    "communications": [],
    "elevation": 566,
    "tower": false,
    "name": "[H] Alo Brasil",
    "runways": [
      {
        "type": 102,
        "width": 24.1,
        "surfaceType": 2,
        "numberStart": "H1",
        "numberEnd": null,
        "latStart": -22.97055556,
        "lonStart": -47.29888889,
        "latEnd": null,
        "lonEnd": null,
        "length": 24.1
      }
    ],
    "id": 27075
  },
  {
    "type": 17,
    "icao": "SJUI",
    "lat": -22.38222222,
    "lon": -47.00833333,
    "communications": [],
    "elevation": 653,
    "tower": false,
    "name": "[H] Fazenda Sao Francisco",
    "runways": [
      {
        "type": 102,
        "width": 24.1,
        "surfaceType": 3,
        "numberStart": "H1",
        "numberEnd": null,
        "latStart": -22.38222222,
        "lonStart": -47.00833333,
        "latEnd": null,
        "lonEnd": null,
        "length": 24.1
      }
    ],
    "id": 27231
  },
  {
    "type": 17,
    "icao": "SJUW",
    "lat": -22.85777778,
    "lon": -47.045,
    "communications": [],
    "elevation": 714,
    "tower": false,
    "name": "[H] CPFL Sede",
    "runways": [
      {
        "type": 102,
        "width": 21,
        "surfaceType": 2,
        "numberStart": "H1",
        "numberEnd": null,
        "latStart": -22.85777778,
        "lonStart": -47.045,
        "latEnd": null,
        "lonEnd": null,
        "length": 21
      }
    ],
    "id": 27245
  },
  {
    "type": 17,
    "icao": "SNON",
    "lat": -22.93916667,
    "lon": -47.07055556,
    "communications": [],
    "elevation": 706,
    "tower": false,
    "name": "[H] Casa de Campo",
    "runways": [
      {
        "type": 102,
        "width": 24.1,
        "surfaceType": 2,
        "numberStart": "H1",
        "numberEnd": null,
        "latStart": -22.93916667,
        "lonStart": -47.07055556,
        "latEnd": null,
        "lonEnd": null,
        "length": 24.1
      }
    ],
    "id": 27923
  },
  {
    "type": 17,
    "icao": "SNRL",
    "lat": -22.75861111,
    "lon": -47.32416667,
    "communications": [],
    "elevation": 1886,
    "tower": false,
    "name": "[H] Folhamatic",
    "runways": [
      {
        "type": 102,
        "width": 18,
        "surfaceType": 3,
        "numberStart": "H1",
        "numberEnd": null,
        "latStart": -22.75861111,
        "lonStart": -47.32416667,
        "latEnd": null,
        "lonEnd": null,
        "length": 18
      }
    ],
    "id": 27996
  },
  {
    "type": 17,
    "icao": "SNWX",
    "lat": -22.53888889,
    "lon": -47.41944444,
    "communications": [],
    "elevation": 608,
    "tower": false,
    "name": "[H] Newton",
    "runways": [
      {
        "type": 102,
        "width": 20.1,
        "surfaceType": 2,
        "numberStart": "H1",
        "numberEnd": null,
        "latStart": -22.53888889,
        "lonStart": -47.41944444,
        "latEnd": null,
        "lonEnd": null,
        "length": 20.1
      }
    ],
    "id": 28132
  },
  {
    "type": 17,
    "icao": "SNYY",
    "lat": -22.8125,
    "lon": -47.2075,
    "communications": [],
    "elevation": 585,
    "tower": false,
    "name": "[H] Copra",
    "runways": [
      {
        "type": 102,
        "width": 18,
        "surfaceType": 2,
        "numberStart": "H1",
        "numberEnd": null,
        "latStart": -22.8125,
        "lonStart": -47.2075,
        "latEnd": null,
        "lonEnd": null,
        "length": 18
      }
    ],
    "id": 28184
  },
  {
    "type": 17,
    "icao": "SSLY",
    "lat": -22.90194444,
    "lon": -47.04694444,
    "communications": [],
    "elevation": 716,
    "tower": false,
    "name": "[H] NorteSul",
    "runways": [
      {
        "type": 102,
        "width": 18,
        "surfaceType": 2,
        "numberStart": "H1",
        "numberEnd": null,
        "latStart": -22.90194444,
        "lonStart": -47.04694444,
        "latEnd": null,
        "lonEnd": null,
        "length": 18
      }
    ],
    "id": 28607
  },
  {
    "type": 1,
    "icao": "SSMV",
    "lat": -22.042499999999997,
    "lon": -47.56,
    "communications": [],
    "elevation": 2434,
    "tower": false,
    "name": "Fazenda Boa Vista",
    "runways": [
      {
        "type": 100,
        "width": 17.98,
        "surfaceType": null,
        "numberStart": "16",
        "numberEnd": "34",
        "latStart": -22.03965043,
        "lonStart": -47.56241661,
        "latEnd": -22.04534957,
        "lonEnd": -47.55758339,
        "length": 0,
        "surfacetype": 4
      }
    ],
    "id": 28627
  },
  {
    "type": 17,
    "icao": "SSNX",
    "lat": -22.21333333,
    "lon": -47.73666667,
    "communications": [],
    "elevation": 784,
    "tower": false,
    "name": "[H] Fazenda da Toca",
    "runways": [
      {
        "type": 102,
        "width": 21,
        "surfaceType": 2,
        "numberStart": "H1",
        "numberEnd": null,
        "latStart": -22.21333333,
        "lonStart": -47.73666667,
        "latEnd": null,
        "lonEnd": null,
        "length": 21
      }
    ],
    "id": 28653
  },
  {
    "type": 17,
    "icao": "SSQW",
    "lat": -22.93555556,
    "lon": -47.07166667,
    "communications": [],
    "elevation": 749,
    "tower": false,
    "name": "[H] Royal Palm Plaza",
    "runways": [
      {
        "type": 102,
        "width": 21,
        "surfaceType": 2,
        "numberStart": "H1",
        "numberEnd": null,
        "latStart": -22.93555556,
        "lonStart": -47.07166667,
        "latEnd": null,
        "lonEnd": null,
        "length": 21
      }
    ],
    "id": 28724
  },
  {
    "type": 17,
    "icao": "SWZX",
    "lat": -22.00083333,
    "lon": -47.91638889,
    "communications": [],
    "elevation": 819,
    "tower": false,
    "name": "[H] Opto",
    "runways": [
      {
        "type": 102,
        "width": 19.5,
        "surfaceType": 2,
        "numberStart": "H1",
        "numberEnd": null,
        "latStart": -22.00083333,
        "lonStart": -47.91638889,
        "latEnd": null,
        "lonEnd": null,
        "length": 19.5
      }
    ],
    "id": 29644
  }
]