[
  {
    "type": 1,
    "icao": "SLVM",
    "lat": -21.254675,
    "lon": -42.3338165,
    "communications": [
      {
        "type": 54,
        "frequency": 11870,
        "name": "VILLAMONTES TWR"
      }
    ],
    "elevation": 1306,
    "tower": true,
    "name": "TCNL RAFAEL PABON",
    "runways": [
      {
        "type": 100,
        "width": 35.05,
        "surfaceType": null,
        "numberStart": "18",
        "numberEnd": "36",
        "latStart": -21.247914,
        "lonStart": -63.406197,
        "latEnd": -21.261436,
        "lonEnd": -63.405022,
        "length": 0,
        "surfacetype": 1
      }
    ],
    "id": 24627
  },
  {
    "type": 1,
    "icao": "SLYA",
    "lat": -21.9609265,
    "lon": -42.803618,
    "communications": [
      {
        "type": 54,
        "frequency": 11830,
        "name": "TWR"
      }
    ],
    "elevation": 2116,
    "tower": true,
    "name": "YACUIBA",
    "runways": [
      {
        "type": 100,
        "width": 35.97,
        "surfaceType": null,
        "numberStart": "02",
        "numberEnd": "20",
        "latStart": -21.969825,
        "lonStart": -63.655208,
        "latEnd": -21.952028,
        "lonEnd": -63.648133,
        "length": 0,
        "surfacetype": 1
      }
    ],
    "id": 27648
  },
  {
    "type": 17,
    "icao": "SJVT",
    "lat": -21.91833333,
    "lon": -42.25972222,
    "communications": [],
    "elevation": 325,
    "tower": false,
    "name": "[H] Cimento Rio Branco-Cantagalo",
    "runways": [
      {
        "type": 102,
        "width": 22.9,
        "surfaceType": 2,
        "numberStart": "H1",
        "numberEnd": null,
        "latStart": -21.91833333,
        "lonStart": -42.25972222,
        "latEnd": null,
        "lonEnd": null,
        "length": 22.9
      }
    ],
    "id": 28962
  },
  {
    "type": 17,
    "icao": "SSUG",
    "lat": -21.46055556,
    "lon": -42.69805556,
    "communications": [],
    "elevation": 150,
    "tower": false,
    "name": "[H] Da Aurora",
    "runways": [
      {
        "type": 102,
        "width": 20.1,
        "surfaceType": 2,
        "numberStart": "H1",
        "numberEnd": null,
        "latStart": -21.46055556,
        "lonStart": -42.69805556,
        "latEnd": null,
        "lonEnd": null,
        "length": 20.1
      }
    ],
    "id": 29239
  },
  {
    "type": 17,
    "icao": "SSUE",
    "lat": -21.95111111,
    "lon": -42.89888889,
    "communications": [],
    "elevation": 392,
    "tower": false,
    "name": "[H] Fazenda Cachoeirao",
    "runways": [
      {
        "type": 102,
        "width": 24.1,
        "surfaceType": 2,
        "numberStart": "H1",
        "numberEnd": null,
        "latStart": -21.95111111,
        "lonStart": -42.89888889,
        "latEnd": null,
        "lonEnd": null,
        "length": 24.1
      }
    ],
    "id": 29666
  }
]