[
  {
    "type": 17,
    "icao": "LS41",
    "lat": 32.53348444,
    "lon": -93.70851112,
    "communications": [],
    "elevation": 165,
    "tower": false,
    "name": "[H] Bossier Medical Center",
    "runways": [
      {
        "type": 102,
        "width": 15.2,
        "surfaceType": 2,
        "numberStart": "H1",
        "numberEnd": null,
        "latStart": 32.53348444,
        "lonStart": -93.70851112,
        "latEnd": null,
        "lonEnd": null,
        "length": 15.2
      }
    ],
    "id": 28536
  },
  {
    "type": 17,
    "icao": "02LA",
    "lat": 32.53126222,
    "lon": -93.66017695,
    "communications": [],
    "elevation": 166,
    "tower": false,
    "name": "[H] LA State Police Troop G",
    "runways": [
      {
        "type": 102,
        "width": 6.1,
        "surfaceType": 2,
        "numberStart": "H1",
        "numberEnd": null,
        "latStart": 32.53126222,
        "lonStart": -93.66017695,
        "latEnd": null,
        "lonEnd": null,
        "length": 6.1
      }
    ],
    "id": 30785
  },
  {
    "type": 17,
    "icao": "LS07",
    "lat": 32.48181944,
    "lon": -93.76240139,
    "communications": [],
    "elevation": 202,
    "tower": false,
    "name": "[H] Lsu Medical Center",
    "runways": [
      {
        "type": 102,
        "width": 15.2,
        "surfaceType": 2,
        "numberStart": "H1",
        "numberEnd": null,
        "latStart": 32.48181944,
        "lonStart": -93.76240139,
        "latEnd": null,
        "lonEnd": null,
        "length": 15.2
      }
    ],
    "id": 30960
  },
  {
    "type": 17,
    "icao": "LA14",
    "lat": 32.42404305,
    "lon": -93.72073389,
    "communications": [],
    "elevation": 161,
    "tower": false,
    "name": "[H] Schumpert Clinic South",
    "runways": [
      {
        "type": 102,
        "width": 11,
        "surfaceType": 3,
        "numberStart": "H1",
        "numberEnd": null,
        "latStart": 32.42404305,
        "lonStart": -93.72073389,
        "latEnd": null,
        "lonEnd": null,
        "length": 11
      }
    ],
    "id": 32608
  },
  {
    "type": 17,
    "icao": "77LA",
    "lat": 32.49487472,
    "lon": -93.74990084,
    "communications": [],
    "elevation": 60,
    "tower": false,
    "name": "[H] Schumpert Medical Center Regional",
    "runways": [
      {
        "type": 102,
        "width": 15.2,
        "surfaceType": 2,
        "numberStart": "H1",
        "numberEnd": null,
        "latStart": 32.49487472,
        "lonStart": -93.74990084,
        "latEnd": null,
        "lonEnd": null,
        "length": 18.3
      }
    ],
    "id": 32609
  },
  {
    "type": 17,
    "icao": "LS78",
    "lat": 32.48626388,
    "lon": -93.77795723,
    "communications": [],
    "elevation": 251,
    "tower": false,
    "name": "[H] Willis-Knighton Med Ctr Temp Groundlev",
    "runways": [
      {
        "type": 102,
        "width": 21.3,
        "surfaceType": 2,
        "numberStart": "H1",
        "numberEnd": null,
        "latStart": 32.48626388,
        "lonStart": -93.77795723,
        "latEnd": null,
        "lonEnd": null,
        "length": 21.3
      }
    ],
    "id": 33861
  }
]