[
  {
    "type": 1,
    "icao": "LGHI",
    "lat": 38.343175,
    "lon": 26.140575,
    "communications": [
      {
        "type": 54,
        "frequency": 12270,
        "name": "CHIOS TWR"
      }
    ],
    "elevation": 18,
    "tower": true,
    "name": "Chios",
    "runways": [
      {
        "type": 100,
        "width": 29.87,
        "surfaceType": null,
        "numberStart": "01",
        "numberEnd": "19",
        "latStart": 38.336464,
        "lonStart": 26.139142,
        "latEnd": 38.349886,
        "lonEnd": 26.142008,
        "length": 0,
        "surfacetype": 1
      }
    ],
    "id": 4935
  },
  {
    "type": 1,
    "icao": "LTFA",
    "lat": 38.5166295,
    "lon": 26.9760515,
    "communications": [
      {
        "type": 53,
        "frequency": 12195,
        "name": "GND"
      },
      {
        "type": 54,
        "frequency": 12210,
        "name": "TWR"
      },
      {
        "type": 55,
        "frequency": 12010,
        "name": "MENDERES APP"
      },
      {
        "type": 55,
        "frequency": 13290,
        "name": "MENDERES APP"
      }
    ],
    "elevation": 13,
    "tower": true,
    "name": "KAKLIC",
    "runways": [
      {
        "type": 100,
        "width": 45.11,
        "surfaceType": null,
        "numberStart": "17",
        "numberEnd": "35",
        "latStart": 38.530167,
        "lonStart": 26.973844,
        "latEnd": 38.503092,
        "lonEnd": 26.978259,
        "length": 0,
        "surfacetype": 1
      }
    ],
    "id": 13186
  }
]