[
  {
    "type": 1,
    "icao": "SA6A",
    "lat": -32.745000000000005,
    "lon": -48.27364789,
    "communications": [],
    "elevation": 898,
    "tower": false,
    "name": "GENERAL DEHEZA",
    "runways": [
      {
        "type": 100,
        "width": 29.87,
        "surfaceType": null,
        "numberStart": "18",
        "numberEnd": "36",
        "latStart": -32.73881533,
        "lonStart": -63.79611111,
        "latEnd": -32.75118467,
        "lonEnd": -63.79611111,
        "length": 0,
        "surfacetype": 4
      }
    ],
    "id": 9924
  },
  {
    "type": 1,
    "icao": "SAD6",
    "lat": -32.183333335,
    "lon": -48.135506930000005,
    "communications": [],
    "elevation": 1246,
    "tower": false,
    "name": "RIO TERCERO",
    "runways": [
      {
        "type": 100,
        "width": 29.87,
        "surfaceType": null,
        "numberStart": "18",
        "numberEnd": "36",
        "latStart": -32.17898614,
        "lonStart": -64.08333333,
        "latEnd": -32.18768053,
        "lonEnd": -64.08333333,
        "length": 0,
        "surfacetype": 4
      }
    ],
    "id": 20951
  },
  {
    "type": 1,
    "icao": "SAOS",
    "lat": -32.384468510000005,
    "lon": -48.781661075,
    "communications": [
      {
        "type": 54,
        "frequency": 11885,
        "name": "CONLARA TWR"
      },
      {
        "type": 55,
        "frequency": 11990,
        "name": "CONLARA APP"
      }
    ],
    "elevation": 2019,
    "tower": true,
    "name": "Sta. Rosa De Conlara",
    "runways": [
      {
        "type": 100,
        "width": 45.11,
        "surfaceType": null,
        "numberStart": "02",
        "numberEnd": "20",
        "latStart": -32.39544123,
        "lonStart": -65.18982636,
        "latEnd": -32.37349579,
        "lonEnd": -65.18169823,
        "length": 0,
        "surfacetype": 2
      }
    ],
    "id": 24074
  },
  {
    "type": 1,
    "icao": "SA2H",
    "lat": -32.18277778,
    "lon": -48.329094534999996,
    "communications": [],
    "elevation": 2184,
    "tower": false,
    "name": "VILLA RUMIPAL PRIMER TENIENTE MARIO NI",
    "runways": [
      {
        "type": 100,
        "width": 22.86,
        "surfaceType": null,
        "numberStart": "14",
        "numberEnd": "32",
        "latStart": -32.17847606,
        "lonStart": -64.47110957,
        "latEnd": -32.1870795,
        "lonEnd": -64.46389043,
        "length": 0,
        "surfacetype": 3
      }
    ],
    "id": 26110
  }
]