[
  {
    "type": 1,
    "icao": "UT45",
    "lat": 38.5123265,
    "lon": 68.6724625,
    "communications": [],
    "elevation": 2379,
    "tower": false,
    "name": "GISSAR",
    "runways": [
      {
        "type": 100,
        "width": 49.38,
        "surfaceType": null,
        "numberStart": "08",
        "numberEnd": "26",
        "latStart": 38.510925,
        "lonStart": 68.658147,
        "latEnd": 38.513728,
        "lonEnd": 68.686778,
        "length": 0,
        "surfacetype": 2
      }
    ],
    "id": 30555
  },
  {
    "type": 1,
    "icao": "UTDD",
    "lat": 38.543417805000004,
    "lon": 68.82492961,
    "communications": [
      {
        "type": 50,
        "frequency": 12620,
        "name": "ATIS"
      },
      {
        "type": 53,
        "frequency": 12170,
        "name": "GND"
      },
      {
        "type": 54,
        "frequency": 11920,
        "name": "TWR"
      },
      {
        "type": 55,
        "frequency": 12710,
        "name": "APP"
      }
    ],
    "elevation": 2575,
    "tower": true,
    "name": "DUSHANBE",
    "runways": [
      {
        "type": 100,
        "width": 44.81,
        "surfaceType": null,
        "numberStart": "09",
        "numberEnd": "27",
        "latStart": 38.543503,
        "lonStart": 68.806844,
        "latEnd": 38.54333261,
        "lonEnd": 68.84301522,
        "length": 0,
        "surfacetype": 1
      }
    ],
    "id": 30593
  }
]