[
  {
    "type": 1,
    "icao": "LGAX",
    "lat": 40.651075000000006,
    "lon": 31.563200000000002,
    "communications": [
      {
        "type": 54,
        "frequency": 12350,
        "name": "TWR"
      }
    ],
    "elevation": 26,
    "tower": true,
    "name": "ALEXANDRIA",
    "runways": [
      {
        "type": 100,
        "width": 29.87,
        "surfaceType": null,
        "numberStart": "13",
        "numberEnd": "31",
        "latStart": 40.656069,
        "lonStart": 22.480319,
        "latEnd": 40.646081,
        "lonEnd": 22.497311,
        "length": 0,
        "surfacetype": 1
      }
    ],
    "id": 200
  },
  {
    "type": 1,
    "icao": "LGKZ",
    "lat": 40.285151,
    "lon": 31.0561515,
    "communications": [
      {
        "type": 54,
        "frequency": 11820,
        "name": "KOZANI AFIS"
      }
    ],
    "elevation": 2059,
    "tower": true,
    "name": "FILIPPOS",
    "runways": [
      {
        "type": 100,
        "width": 29.87,
        "surfaceType": null,
        "numberStart": "14",
        "numberEnd": "32",
        "latStart": 40.291718,
        "lonStart": 21.833719,
        "latEnd": 40.278584,
        "lonEnd": 21.846567,
        "length": 0,
        "surfacetype": 1
      }
    ],
    "id": 7550
  },
  {
    "type": 1,
    "icao": "LGTS",
    "lat": 40.519521499999996,
    "lon": 31.73813325,
    "communications": [
      {
        "type": 50,
        "frequency": 12755,
        "name": "ATIS"
      },
      {
        "type": 52,
        "frequency": 11805,
        "name": "CLNC DEL"
      },
      {
        "type": 53,
        "frequency": 12170,
        "name": "GND"
      },
      {
        "type": 54,
        "frequency": 12210,
        "name": "TWR"
      },
      {
        "type": 55,
        "frequency": 12210,
        "name": "APP"
      }
    ],
    "elevation": 21,
    "tower": true,
    "name": "Thessaloniki Makedonia",
    "runways": [
      {
        "type": 100,
        "width": 60.05,
        "surfaceType": null,
        "numberStart": "16",
        "numberEnd": "34",
        "latStart": 40.530278,
        "lonStart": 22.967611,
        "latEnd": 40.509169,
        "lonEnd": 22.974353,
        "length": 0,
        "surfacetype": 1
      },
      {
        "type": 100,
        "width": 49.99,
        "surfaceType": null,
        "numberStart": "10",
        "numberEnd": "28",
        "latStart": 40.521961,
        "lonStart": 22.959075,
        "latEnd": 40.516678,
        "lonEnd": 22.987028,
        "length": 0,
        "surfacetype": 1
      }
    ],
    "id": 25261
  }
]