[
  {
    "type": 1,
    "icao": "FASZ",
    "lat": -24.961320999999998,
    "lon": 31.5888265,
    "communications": [
      {
        "type": 51,
        "frequency": 12480,
        "name": "CTAF"
      },
      {
        "type": 54,
        "frequency": 11900,
        "name": "LASS"
      },
      {
        "type": 53,
        "frequency": 12525,
        "name": "Ground"
      }
    ],
    "elevation": 1020,
    "tower": false,
    "name": "Skukuza",
    "runways": [
      {
        "type": 100,
        "width": 30,
        "surfaceType": null,
        "numberStart": "17",
        "numberEnd": "35",
        "latStart": -24.955303,
        "lonStart": 31.585828,
        "latEnd": -24.967339,
        "lonEnd": 31.591825,
        "length": 0,
        "surfacetype": 1
      }
    ],
    "id": 2158
  },
  {
    "type": 1,
    "icao": "FAHS",
    "lat": -24.363588,
    "lon": 31.0487265,
    "communications": [
      {
        "type": 54,
        "frequency": 11960,
        "name": "TWR"
      },
      {
        "type": 55,
        "frequency": 12640,
        "name": "APP"
      },
      {
        "type": 55,
        "frequency": 12330,
        "name": "GCA"
      }
    ],
    "elevation": 1743,
    "tower": true,
    "name": "Hoedspruit AFB",
    "runways": [
      {
        "type": 100,
        "width": 45.72,
        "surfaceType": null,
        "numberStart": "18",
        "numberEnd": "36",
        "latStart": -24.33760944,
        "lonStart": 31.04696092,
        "latEnd": -24.36964456,
        "lonEnd": 31.05715708,
        "length": 0,
        "surfacetype": 1
      },
      {
        "type": 100,
        "width": 27.43,
        "surfaceType": null,
        "numberStart": "09",
        "numberEnd": "27",
        "latStart": -24.37519032,
        "lonStart": 31.03691666,
        "latEnd": -24.37190768,
        "lonEnd": 31.05387134,
        "length": 0,
        "surfacetype": 1
      }
    ],
    "id": 16809
  },
  {
    "type": 1,
    "icao": "FAMD",
    "lat": -24.818096,
    "lon": 31.544584,
    "communications": [
      {
        "type": 51,
        "frequency": 12480,
        "name": "RDO"
      }
    ],
    "elevation": 1124,
    "tower": false,
    "name": "Malamala",
    "runways": [
      {
        "type": 100,
        "width": 22.86,
        "surfaceType": null,
        "numberStart": "16",
        "numberEnd": "34",
        "latStart": -24.8131531,
        "lonStart": 31.54012504,
        "latEnd": -24.8230389,
        "lonEnd": 31.54904296,
        "length": 0,
        "surfacetype": 1
      }
    ],
    "id": 16822
  }
]