[
  {
    "type": 1,
    "icao": "UKCC",
    "lat": 48.071246435,
    "lon": 40.3231153725,
    "communications": [
      {
        "type": 53,
        "frequency": 11900,
        "name": "GND"
      },
      {
        "type": 54,
        "frequency": 11830,
        "name": "TWR"
      },
      {
        "type": 55,
        "frequency": 13400,
        "name": "APP"
      }
    ],
    "elevation": 791,
    "tower": true,
    "name": "DONETSK INTL",
    "runways": [
      {
        "type": 100,
        "width": 60.05,
        "surfaceType": null,
        "numberStart": "08",
        "numberEnd": "26",
        "latStart": 48.074797,
        "lonStart": 37.698764,
        "latEnd": 48.075303,
        "lonEnd": 37.752433,
        "length": 0,
        "surfacetype": 2
      },
      {
        "type": 102,
        "width": 80.77,
        "surfaceType": 15,
        "numberStart": "H1",
        "numberEnd": null,
        "latStart": 48.06899334,
        "lonStart": 37.75887809,
        "latEnd": null,
        "lonEnd": null,
        "length": 76.81
      },
      {
        "type": 102,
        "width": 36.88,
        "surfaceType": 15,
        "numberStart": "H2",
        "numberEnd": null,
        "latStart": 48.0658924,
        "lonStart": 37.7595164,
        "latEnd": null,
        "lonEnd": null,
        "length": 36.58
      }
    ],
    "id": 5845
  },
  {
    "type": 1,
    "icao": "UKDR",
    "lat": 48.043333,
    "lon": 40.6219445,
    "communications": [
      {
        "type": 54,
        "frequency": 12030,
        "name": "KRYVYI RIH TWR"
      }
    ],
    "elevation": 408,
    "tower": true,
    "name": "LOZUVATKA INTL",
    "runways": [
      {
        "type": 100,
        "width": 42.06,
        "surfaceType": null,
        "numberStart": "18",
        "numberEnd": "36",
        "latStart": 48.054444,
        "lonStart": 33.211667,
        "latEnd": 48.032222,
        "lonEnd": 33.208333,
        "length": 0,
        "surfacetype": 2
      }
    ],
    "id": 14644
  }
]