[
  {
    "type": 1,
    "icao": "BIAR",
    "lat": 65.656573355,
    "lon": -18.071971935,
    "communications": [
      {
        "type": 54,
        "frequency": 11820,
        "name": "TWR"
      },
      {
        "type": 55,
        "frequency": 11870,
        "name": "RADAR"
      }
    ],
    "elevation": 5,
    "tower": true,
    "name": "Akureyri",
    "runways": [
      {
        "type": 100,
        "width": 45.11,
        "surfaceType": null,
        "numberStart": "01",
        "numberEnd": "19",
        "latStart": 65.64584371,
        "lonStart": -18.06994387,
        "latEnd": 65.667303,
        "lonEnd": -18.074,
        "length": 0,
        "surfacetype": 1
      }
    ],
    "id": 539
  },
  {
    "type": 1,
    "icao": "BIHY",
    "lat": 65.989025005,
    "lon": -18.39388679,
    "communications": [
      {
        "type": 50,
        "frequency": 11810,
        "name": "AFIS"
      }
    ],
    "elevation": 15,
    "tower": false,
    "name": "Hrisey",
    "runways": [
      {
        "type": 100,
        "width": 19,
        "surfaceType": null,
        "numberStart": "18",
        "numberEnd": "36",
        "latStart": 65.98682064,
        "lonStart": -18.39278099,
        "latEnd": 65.99122937,
        "lonEnd": -18.39499259,
        "length": 0,
        "surfacetype": 3
      }
    ],
    "id": 573
  },
  {
    "type": 1,
    "icao": "BIMM",
    "lat": 65.48433825000001,
    "lon": -18.16771229,
    "communications": [
      {
        "type": 51,
        "frequency": 11990,
        "name": "CTAF"
      },
      {
        "type": 50,
        "frequency": 11820,
        "name": "AFIS"
      }
    ],
    "elevation": 89,
    "tower": false,
    "name": "Melgerdismelar",
    "runways": [
      {
        "type": 100,
        "width": 22,
        "surfaceType": null,
        "numberStart": "04",
        "numberEnd": "22",
        "latStart": 65.481695,
        "lonStart": -18.17123,
        "latEnd": 65.4869815,
        "lonEnd": -18.16419458,
        "length": 0,
        "surfacetype": 5
      }
    ],
    "id": 585
  }
]