[
  {
    "type": 1,
    "icao": "YSCB",
    "lat": -35.30424910875,
    "lon": 103.06294706874999,
    "communications": [
      {
        "type": 50,
        "frequency": 12745,
        "name": "YSCB ATIS"
      },
      {
        "type": 51,
        "frequency": 11870,
        "name": "CANBERRA MULT"
      },
      {
        "type": 52,
        "frequency": 12170,
        "name": "CANBERRA GROUND CLD"
      },
      {
        "type": 53,
        "frequency": 12170,
        "name": "CANBERRA GND"
      },
      {
        "type": 54,
        "frequency": 11870,
        "name": "CANBERRA TWR"
      },
      {
        "type": 54,
        "frequency": 12590,
        "name": "MELBOURNE CENTRE CNTR"
      },
      {
        "type": 55,
        "frequency": 12450,
        "name": "CANBERRA APP"
      },
      {
        "type": 55,
        "frequency": 12590,
        "name": "CANBERRA APP"
      }
    ],
    "elevation": 1887,
    "tower": true,
    "name": "Canberra",
    "runways": [
      {
        "type": 100,
        "width": 45.11,
        "surfaceType": null,
        "numberStart": "17",
        "numberEnd": "35",
        "latStart": -35.290631,
        "lonStart": 149.194444,
        "latEnd": -35.320209,
        "lonEnd": 149.194444,
        "length": 0,
        "surfacetype": 1
      },
      {
        "type": 100,
        "width": 45.11,
        "surfaceType": null,
        "numberStart": "12",
        "numberEnd": "30",
        "latStart": -35.30068456,
        "lonStart": 149.18515573,
        "latEnd": -35.31038622,
        "lonEnd": 149.19932341,
        "length": 0,
        "surfacetype": 1
      },
      {
        "type": 102,
        "width": 20.1,
        "surfaceType": 1,
        "numberStart": "H19",
        "numberEnd": null,
        "latStart": -35.3035012,
        "lonStart": 149.19599879,
        "latEnd": null,
        "lonEnd": null,
        "length": 20.1
      },
      {
        "type": 102,
        "width": 6.1,
        "surfaceType": 2,
        "numberStart": "H21",
        "numberEnd": null,
        "latStart": -35.30267888,
        "lonStart": 149.18592403,
        "latEnd": null,
        "lonEnd": null,
        "length": 6.1
      },
      {
        "type": 102,
        "width": 6.1,
        "surfaceType": 2,
        "numberStart": "H22",
        "numberEnd": null,
        "latStart": -35.30286358,
        "lonStart": 149.1861941,
        "latEnd": null,
        "lonEnd": null,
        "length": 6.1
      },
      {
        "type": 102,
        "width": 6.1,
        "surfaceType": 2,
        "numberStart": "H23",
        "numberEnd": null,
        "latStart": -35.30303843,
        "lonStart": 149.18645512,
        "latEnd": null,
        "lonEnd": null,
        "length": 6.1
      }
    ],
    "id": 4447
  }
]