[
  {
    "type": 1,
    "icao": "LICZ",
    "lat": 37.402583272499996,
    "lon": 14.9225092575,
    "communications": [
      {
        "type": 53,
        "frequency": 12195,
        "name": "GND"
      },
      {
        "type": 54,
        "frequency": 12210,
        "name": "TWR"
      },
      {
        "type": 54,
        "frequency": 11805,
        "name": "TWR"
      },
      {
        "type": 55,
        "frequency": 11925,
        "name": "CATANIA APP"
      },
      {
        "type": 55,
        "frequency": 12080,
        "name": "CATANIA DIRECTOR"
      }
    ],
    "elevation": 79,
    "tower": true,
    "name": "CATANIA Sigonella",
    "runways": [
      {
        "type": 100,
        "width": 45.11,
        "surfaceType": null,
        "numberStart": "10R",
        "numberEnd": "28L",
        "latStart": 37.40321823,
        "lonStart": 14.90865243,
        "latEnd": 37.4000074,
        "lonEnd": 14.93605854,
        "length": 0,
        "surfacetype": 1
      },
      {
        "type": 100,
        "width": 29.87,
        "surfaceType": null,
        "numberStart": "10L",
        "numberEnd": "28R",
        "latStart": 37.40515442,
        "lonStart": 14.90900974,
        "latEnd": 37.40195304,
        "lonEnd": 14.93631632,
        "length": 0,
        "surfacetype": 1
      }
    ],
    "id": 3734
  }
]