[
  {
    "type": 1,
    "icao": "KJTC",
    "lat": 34.1290937925,
    "lon": -109.31093138,
    "communications": [
      {
        "type": 50,
        "frequency": 11965,
        "name": "AWOS-3PT"
      },
      {
        "type": 51,
        "frequency": 12280,
        "name": "CTAF/UNICOM"
      }
    ],
    "elevation": 7051,
    "tower": false,
    "name": "Springerville Municipal",
    "runways": [
      {
        "type": 100,
        "width": 22.86,
        "surfaceType": null,
        "numberStart": "03",
        "numberEnd": "21",
        "latStart": 34.121981,
        "lonStart": -109.320758,
        "latEnd": 34.138672,
        "lonEnd": -109.301508,
        "length": 0,
        "surfacetype": 1
      },
      {
        "type": 100,
        "width": 18.29,
        "surfaceType": null,
        "numberStart": "11",
        "numberEnd": "29",
        "latStart": 34.13175259,
        "lonStart": -109.31573613,
        "latEnd": 34.12396958,
        "lonEnd": -109.30572339,
        "length": 0,
        "surfacetype": 1
      }
    ],
    "id": 2856
  },
  {
    "type": 1,
    "icao": "KSJN",
    "lat": 34.51817425,
    "lon": -109.37894374999999,
    "communications": [
      {
        "type": 50,
        "frequency": 13422,
        "name": "ASOS"
      },
      {
        "type": 51,
        "frequency": 12280,
        "name": "CTAF/UNICOM"
      },
      {
        "type": 55,
        "frequency": 12432,
        "name": "Albuquerque Ctr"
      }
    ],
    "elevation": 5735,
    "tower": false,
    "name": "ST JOHNS INDUSTRIAL AIR PARK",
    "runways": [
      {
        "type": 100,
        "width": 22.86,
        "surfaceType": null,
        "numberStart": "14",
        "numberEnd": "32",
        "latStart": 34.526175,
        "lonStart": -109.382722,
        "latEnd": 34.513733,
        "lonEnd": -109.373453,
        "length": 0,
        "surfacetype": 1
      },
      {
        "type": 100,
        "width": 18.29,
        "surfaceType": null,
        "numberStart": "03",
        "numberEnd": "21",
        "latStart": 34.512664,
        "lonStart": -109.383192,
        "latEnd": 34.520125,
        "lonEnd": -109.376408,
        "length": 0,
        "surfacetype": 1
      }
    ],
    "id": 3267
  },
  {
    "type": 1,
    "icao": "07E",
    "lat": 34.88669611,
    "lon": -109.42732667,
    "communications": [],
    "elevation": 6440,
    "tower": false,
    "name": "Navajo Nr 5",
    "runways": [
      {
        "type": 100,
        "width": 18.29,
        "surfaceType": null,
        "numberStart": "04",
        "numberEnd": "22",
        "latStart": 34.88331862,
        "lonStart": -109.43259679,
        "latEnd": 34.8900736,
        "lonEnd": -109.42205655,
        "length": 0,
        "surfacetype": 4
      }
    ],
    "id": 9555
  },
  {
    "type": 1,
    "icao": "21AZ",
    "lat": 34.352361,
    "lon": -109.9701405,
    "communications": [],
    "elevation": 6065,
    "tower": false,
    "name": "WHITE MOUNTAIN LAKE",
    "runways": [
      {
        "type": 100,
        "width": 15.24,
        "surfaceType": null,
        "numberStart": "12",
        "numberEnd": "30",
        "latStart": 34.356111,
        "lonStart": -109.975,
        "latEnd": 34.348611,
        "lonEnd": -109.965281,
        "length": 0,
        "surfacetype": 1
      }
    ],
    "id": 11337
  }
]