[
  {
    "type": 1,
    "icao": "VTSN",
    "lat": 8.471125,
    "lon": 99.955607,
    "communications": [
      {
        "type": 54,
        "frequency": 12270,
        "name": "TWR"
      }
    ],
    "elevation": 43,
    "tower": true,
    "name": "Cha Ian",
    "runways": [
      {
        "type": 100,
        "width": 45.11,
        "surfaceType": null,
        "numberStart": "18",
        "numberEnd": "36",
        "latStart": 8.481492,
        "lonStart": 99.954356,
        "latEnd": 8.460758,
        "lonEnd": 99.956858,
        "length": 0,
        "surfacetype": 1
      }
    ],
    "id": 4740
  },
  {
    "type": 1,
    "icao": "VTSF",
    "lat": 8.539617,
    "lon": 99.944725,
    "communications": [
      {
        "type": 54,
        "frequency": 12255,
        "name": "TWR"
      },
      {
        "type": 55,
        "frequency": 11975,
        "name": "APP"
      },
      {
        "type": 55,
        "frequency": 12960,
        "name": "APP"
      }
    ],
    "elevation": 13,
    "tower": true,
    "name": "Nakhon Si Thammarat",
    "runways": [
      {
        "type": 100,
        "width": 45.11,
        "surfaceType": null,
        "numberStart": "01",
        "numberEnd": "19",
        "latStart": 8.530142,
        "lonStart": 99.943725,
        "latEnd": 8.549092,
        "lonEnd": 99.945725,
        "length": 0,
        "surfacetype": 1
      }
    ],
    "id": 18070
  },
  {
    "type": 1,
    "icao": "VTT5",
    "lat": 8.167896445,
    "lon": 99.71295332,
    "communications": [
      {
        "type": 54,
        "frequency": 12700,
        "name": "Big Shell"
      }
    ],
    "elevation": 250,
    "tower": true,
    "name": "Thung Song",
    "runways": [
      {
        "type": 100,
        "width": 17.07,
        "surfaceType": null,
        "numberStart": "15",
        "numberEnd": "33",
        "latStart": 8.16994186,
        "lonStart": 99.71182799,
        "latEnd": 8.16585103,
        "lonEnd": 99.71407865,
        "length": 0,
        "surfacetype": 1
      }
    ],
    "id": 25336
  }
]