[
  {
    "type": 1,
    "icao": "EBBE",
    "lat": 50.755413366000006,
    "lon": 23.16379706,
    "communications": [
      {
        "type": 53,
        "frequency": 12210,
        "name": "GND"
      },
      {
        "type": 53,
        "frequency": 13037,
        "name": "GND"
      },
      {
        "type": 54,
        "frequency": 12210,
        "name": "TWR"
      },
      {
        "type": 54,
        "frequency": 13072,
        "name": "TWR"
      },
      {
        "type": 55,
        "frequency": 12250,
        "name": "APP"
      },
      {
        "type": 55,
        "frequency": 12282,
        "name": "APP"
      },
      {
        "type": 55,
        "frequency": 12330,
        "name": "GCA"
      }
    ],
    "elevation": 340,
    "tower": true,
    "name": "Beauvechain",
    "runways": [
      {
        "type": 100,
        "width": 45.11,
        "surfaceType": null,
        "numberStart": "04L",
        "numberEnd": "22R",
        "latStart": 50.74894664,
        "lonStart": 4.75582607,
        "latEnd": 50.76849203,
        "lonEnd": 4.78068638,
        "length": 0,
        "surfacetype": 1
      },
      {
        "type": 100,
        "width": 22.86,
        "surfaceType": null,
        "numberStart": "04R",
        "numberEnd": "22L",
        "latStart": 50.74707287,
        "lonStart": 4.7601365,
        "latEnd": 50.76329036,
        "lonEnd": 4.78078794,
        "length": 0,
        "surfacetype": 1
      },
      {
        "type": 102,
        "width": 21,
        "surfaceType": 1,
        "numberStart": "H1",
        "numberEnd": null,
        "latStart": 50.74926493,
        "lonStart": 4.77124034,
        "latEnd": null,
        "lonEnd": null,
        "length": 31.1
      }
    ],
    "id": 2412
  },
  {
    "type": 1,
    "icao": "EG06",
    "lat": 50.97692481,
    "lon": 23.438512205,
    "communications": [],
    "elevation": 674,
    "tower": false,
    "name": "Belle Vue",
    "runways": [
      {
        "type": 100,
        "width": 14.02,
        "surfaceType": null,
        "numberStart": "08",
        "numberEnd": "26",
        "latStart": 50.97619772,
        "lonStart": -4.10062749,
        "latEnd": 50.9776519,
        "lonEnd": -4.09245841,
        "length": 0,
        "surfacetype": 1
      }
    ],
    "id": 2502
  },
  {
    "type": 1,
    "icao": "EG33",
    "lat": 50.69797323,
    "lon": 23.768208795,
    "communications": [],
    "elevation": 495,
    "tower": false,
    "name": "Branscombe",
    "runways": [
      {
        "type": 100,
        "width": 11.89,
        "surfaceType": null,
        "numberStart": "09",
        "numberEnd": "27",
        "latStart": 50.6983421,
        "lonStart": -3.16118677,
        "latEnd": 50.69760436,
        "lonEnd": -3.15035931,
        "length": 0,
        "surfacetype": 3
      }
    ],
    "id": 3121
  },
  {
    "type": 1,
    "icao": "XDAV",
    "lat": 50.637606175,
    "lon": 23.002440215,
    "communications": [],
    "elevation": 969,
    "tower": false,
    "name": "Davidstow Moor",
    "runways": [
      {
        "type": 100,
        "width": 42.06,
        "surfaceType": null,
        "numberStart": "12",
        "numberEnd": "30",
        "latStart": 50.64050393,
        "lonStart": -4.62982799,
        "latEnd": 50.63470842,
        "lonEnd": -4.60693656,
        "length": 0,
        "surfacetype": 2
      }
    ],
    "id": 6042
  },
  {
    "type": 1,
    "icao": "EGTU",
    "lat": 50.86126073,
    "lon": 23.81242653,
    "communications": [
      {
        "type": 54,
        "frequency": 12347,
        "name": "Dunkeswell Radio"
      }
    ],
    "elevation": 838,
    "tower": true,
    "name": "Dunkeswell",
    "runways": [
      {
        "type": 100,
        "width": 46.02,
        "surfaceType": null,
        "numberStart": "04",
        "numberEnd": "22",
        "latStart": 50.85669995,
        "lonStart": -3.23929785,
        "latEnd": 50.86514597,
        "lonEnd": -3.22765608,
        "length": 0,
        "surfacetype": 1
      },
      {
        "type": 100,
        "width": 22.86,
        "surfaceType": null,
        "numberStart": "17",
        "numberEnd": "35",
        "latStart": 50.864436,
        "lonStart": -3.234903,
        "latEnd": 50.858761,
        "lonEnd": -3.233242,
        "length": 0,
        "surfacetype": 1
      }
    ],
    "id": 6560
  },
  {
    "type": 1,
    "icao": "EGHU",
    "lat": 50.928490315000005,
    "lon": 23.46809124,
    "communications": [
      {
        "type": 54,
        "frequency": 12300,
        "name": "Eaglescott Radio"
      }
    ],
    "elevation": 655,
    "tower": true,
    "name": "Eaglescott",
    "runways": [
      {
        "type": 100,
        "width": 20.12,
        "surfaceType": null,
        "numberStart": "07",
        "numberEnd": "25",
        "latStart": 50.92751871,
        "lonStart": -3.99327944,
        "latEnd": 50.92946192,
        "lonEnd": -3.98530309,
        "length": 0,
        "surfacetype": 3
      }
    ],
    "id": 6891
  },
  {
    "type": 1,
    "icao": "EGTE",
    "lat": 50.73426,
    "lon": 23.65422278,
    "communications": [
      {
        "type": 50,
        "frequency": 11932,
        "name": "Exeter Information"
      },
      {
        "type": 54,
        "frequency": 11980,
        "name": "Exeter Tower"
      },
      {
        "type": 55,
        "frequency": 12897,
        "name": "APP"
      }
    ],
    "elevation": 102,
    "tower": true,
    "name": "Exeter",
    "runways": [
      {
        "type": 100,
        "width": 46.02,
        "surfaceType": null,
        "numberStart": "08",
        "numberEnd": "26",
        "latStart": 50.73206575,
        "lonStart": -3.42800869,
        "latEnd": 50.73645425,
        "lonEnd": -3.39999069,
        "length": 0,
        "surfacetype": 1
      }
    ],
    "id": 7372
  },
  {
    "type": 1,
    "icao": "EG36",
    "lat": 50.737128751250005,
    "lon": 23.777829490000002,
    "communications": [],
    "elevation": 771,
    "tower": false,
    "name": "Farway Common",
    "runways": [
      {
        "type": 100,
        "width": 13.11,
        "surfaceType": null,
        "numberStart": "17",
        "numberEnd": "35",
        "latStart": 50.73718355,
        "lonStart": -3.1778456,
        "latEnd": 50.73249241,
        "lonEnd": -3.17702289,
        "length": 0,
        "surfacetype": 3
      },
      {
        "type": 100,
        "width": 11.89,
        "surfaceType": null,
        "numberStart": "3",
        "numberEnd": "21",
        "latStart": 50.73585988,
        "lonStart": -3.1836174,
        "latEnd": 50.7389598,
        "lonEnd": -3.17946952,
        "length": 0,
        "surfacetype": 3
      },
      {
        "type": 100,
        "width": 10.97,
        "surfaceType": null,
        "numberStart": "1",
        "numberEnd": "19",
        "latStart": 50.73674444,
        "lonStart": -3.18048719,
        "latEnd": 50.74098512,
        "lonEnd": -3.17964975,
        "length": 0,
        "surfacetype": 3
      },
      {
        "type": 100,
        "width": 11.89,
        "surfaceType": null,
        "numberStart": "10",
        "numberEnd": "28",
        "latStart": 50.73752536,
        "lonStart": -3.18513067,
        "latEnd": 50.73727945,
        "lonEnd": -3.1780991,
        "length": 0,
        "surfacetype": 3
      }
    ],
    "id": 7830
  },
  {
    "type": 1,
    "icao": "EDQT",
    "lat": 50.01825124999999,
    "lon": 23.687427213333336,
    "communications": [
      {
        "type": 54,
        "frequency": 11980,
        "name": "Hassfurt Info"
      }
    ],
    "elevation": 718,
    "tower": true,
    "name": "Hassfurt - Schweinfurt",
    "runways": [
      {
        "type": 100,
        "width": 20,
        "surfaceType": null,
        "numberStart": "11",
        "numberEnd": "29",
        "latStart": 50.02046709,
        "lonStart": 10.5211357,
        "latEnd": 50.01579728,
        "lonEnd": 10.53775723,
        "length": 0,
        "surfacetype": 1
      },
      {
        "type": 102,
        "width": 11.28,
        "surfaceType": 15,
        "numberStart": "H1",
        "numberEnd": null,
        "latStart": 50.01848938,
        "lonStart": 10.52534866,
        "latEnd": null,
        "lonEnd": null,
        "length": 10.96
      }
    ],
    "id": 11523
  },
  {
    "type": 1,
    "icao": "EGHD",
    "lat": 50.422811120000006,
    "lon": 23.15361842,
    "communications": [
      {
        "type": 54,
        "frequency": 11815,
        "name": "Plymouth Tower"
      },
      {
        "type": 55,
        "frequency": 13355,
        "name": "Plymouth Approach"
      }
    ],
    "elevation": 475,
    "tower": true,
    "name": "Plymouth",
    "runways": [
      {
        "type": 100,
        "width": 29.87,
        "surfaceType": null,
        "numberStart": "13",
        "numberEnd": "31",
        "latStart": 50.42561409,
        "lonStart": -4.11277131,
        "latEnd": 50.42000815,
        "lonEnd": -4.09900867,
        "length": 0,
        "surfacetype": 1
      }
    ],
    "id": 20282
  },
  {
    "type": 1,
    "icao": "LFAV",
    "lat": 50.327806795714295,
    "lon": 23.543243611428572,
    "communications": [
      {
        "type": 50,
        "frequency": 12260,
        "name": "VALENCIENNES FSS"
      },
      {
        "type": 51,
        "frequency": 12260,
        "name": "VALENCIENNES MULT"
      },
      {
        "type": 55,
        "frequency": 12647,
        "name": "LILLE APP"
      }
    ],
    "elevation": 165,
    "tower": true,
    "name": "Valenciennes Denain",
    "runways": [
      {
        "type": 100,
        "width": 45,
        "surfaceType": null,
        "numberStart": "11",
        "numberEnd": "29",
        "latStart": 50.32853634,
        "lonStart": 3.45005001,
        "latEnd": 50.3230806,
        "lonEnd": 3.47247223,
        "length": 0,
        "surfacetype": 1
      },
      {
        "type": 100,
        "width": 95.29,
        "surfaceType": null,
        "numberStart": "07",
        "numberEnd": "25",
        "latStart": 50.32786358,
        "lonStart": 3.45538318,
        "latEnd": 50.33055047,
        "lonEnd": 3.46306359,
        "length": 0,
        "surfacetype": 3
      },
      {
        "type": 100,
        "width": 80,
        "surfaceType": null,
        "numberStart": "11L",
        "numberEnd": "29R",
        "latStart": 50.32789713,
        "lonStart": 3.45762386,
        "latEnd": 50.32591036,
        "lonEnd": 3.46579065,
        "length": 0,
        "surfacetype": 3
      },
      {
        "type": 102,
        "width": 14.9,
        "surfaceType": 1,
        "numberStart": "H1",
        "numberEnd": null,
        "latStart": 50.33080909,
        "lonStart": 3.4601068,
        "latEnd": null,
        "lonEnd": null,
        "length": 14.9
      }
    ],
    "id": 26166
  }
]