[
  {
    "type": 1,
    "icao": "OMAL",
    "lat": 24.26169,
    "lon": 55.609131,
    "communications": [
      {
        "type": 53,
        "frequency": 12915,
        "name": "GND"
      },
      {
        "type": 54,
        "frequency": 11985,
        "name": "TWR"
      },
      {
        "type": 55,
        "frequency": 11985,
        "name": "APP"
      }
    ],
    "elevation": 869,
    "tower": true,
    "name": "AL AIN INTL",
    "runways": [
      {
        "type": 100,
        "width": 45.11,
        "surfaceType": null,
        "numberStart": "01",
        "numberEnd": "19",
        "latStart": 24.243786,
        "lonStart": 55.606581,
        "latEnd": 24.279594,
        "lonEnd": 55.611681,
        "length": 0,
        "surfacetype": 1
      }
    ],
    "id": 138
  },
  {
    "type": 1,
    "icao": "OMDW",
    "lat": 24.89658885,
    "lon": 55.161141,
    "communications": [],
    "elevation": 170,
    "tower": true,
    "name": "Al Maktoum International",
    "runways": [
      {
        "type": 100,
        "width": 60,
        "surfaceType": null,
        "numberStart": "12",
        "numberEnd": "30",
        "latStart": 24.9071229,
        "lonStart": 55.142098,
        "latEnd": 24.8860548,
        "lonEnd": 55.180184,
        "length": 0,
        "surfacetype": 2
      }
    ],
    "id": 791
  }
]