[
  {
    "type": 1,
    "icao": "KDRT",
    "lat": 29.371443652499998,
    "lon": -68.3510235,
    "communications": [
      {
        "type": 50,
        "frequency": 11852,
        "name": "ASOS"
      },
      {
        "type": 51,
        "frequency": 12280,
        "name": "CTAF/UNICOM"
      },
      {
        "type": 52,
        "frequency": 12050,
        "name": "CLNC DEL"
      },
      {
        "type": 55,
        "frequency": 11960,
        "name": "APP"
      },
      {
        "type": 56,
        "frequency": 11960,
        "name": "DEP"
      }
    ],
    "elevation": 999,
    "tower": false,
    "name": "Del Rio Intl",
    "runways": [
      {
        "type": 100,
        "width": 30.48,
        "surfaceType": null,
        "numberStart": "13",
        "numberEnd": "31",
        "latStart": 29.380864,
        "lonStart": -100.933483,
        "latEnd": 29.36755,
        "lonEnd": -100.920831,
        "length": 0,
        "surfacetype": 1
      },
      {
        "type": 102,
        "width": 13.72,
        "surfaceType": 2,
        "numberStart": "H1",
        "numberEnd": null,
        "latStart": 29.36878339,
        "lonStart": -100.918936,
        "latEnd": null,
        "lonEnd": null,
        "length": 13.72
      },
      {
        "type": 102,
        "width": 13.72,
        "surfaceType": 2,
        "numberStart": "H2",
        "numberEnd": null,
        "latStart": 29.36857722,
        "lonStart": -100.919225,
        "latEnd": null,
        "lonEnd": null,
        "length": 13.72
      }
    ],
    "id": 6155
  }
]