[
  {
    "type": 1,
    "icao": "LFEY",
    "lat": 46.71718755,
    "lon": -2.3923140075,
    "communications": [
      {
        "type": 54,
        "frequency": 11890,
        "name": "ILE D YEU INFO"
      }
    ],
    "elevation": 79,
    "tower": true,
    "name": "Ile d'Yeu",
    "runways": [
      {
        "type": 100,
        "width": 25,
        "surfaceType": null,
        "numberStart": "14",
        "numberEnd": "32",
        "latStart": 46.72133355,
        "lonStart": -2.3968135,
        "latEnd": 46.71268406,
        "lonEnd": -2.38688654,
        "length": 0,
        "surfacetype": 1
      },
      {
        "type": 100,
        "width": 50,
        "surfaceType": null,
        "numberStart": "04",
        "numberEnd": "22",
        "latStart": 46.715233,
        "lonStart": -2.39492486,
        "latEnd": 46.71949959,
        "lonEnd": -2.39063113,
        "length": 0,
        "surfacetype": 3
      }
    ],
    "id": 3588
  },
  {
    "type": 1,
    "icao": "LFFO",
    "lat": 46.890409930000004,
    "lon": -2.0883772575,
    "communications": [
      {
        "type": 51,
        "frequency": 12350,
        "name": "BEAUVOIR FROMENTINE MULT"
      },
      {
        "type": 55,
        "frequency": 12012,
        "name": "NANTES INFO"
      }
    ],
    "elevation": 9,
    "tower": false,
    "name": "Beauvoir-Fromentine",
    "runways": [
      {
        "type": 100,
        "width": 20.12,
        "surfaceType": null,
        "numberStart": "10",
        "numberEnd": "28",
        "latStart": 46.89112337,
        "lonStart": -2.09284854,
        "latEnd": 46.89029239,
        "lonEnd": -2.08465607,
        "length": 0,
        "surfacetype": 3
      },
      {
        "type": 102,
        "width": 25,
        "surfaceType": 15,
        "numberStart": "H1",
        "numberEnd": null,
        "latStart": 46.89015154,
        "lonStart": -2.08818341,
        "latEnd": null,
        "lonEnd": null,
        "length": 25.2
      },
      {
        "type": 102,
        "width": 22.6,
        "surfaceType": 15,
        "numberStart": "H2",
        "numberEnd": null,
        "latStart": 46.89007242,
        "lonStart": -2.08782101,
        "latEnd": null,
        "lonEnd": null,
        "length": 23.8
      }
    ],
    "id": 3594
  }
]