[
  {
    "type": 1,
    "icao": "CYXS",
    "lat": 53.88666083857142,
    "lon": -122.67386489142858,
    "communications": [
      {
        "type": 53,
        "frequency": 12190,
        "name": "GND"
      },
      {
        "type": 54,
        "frequency": 11830,
        "name": "TWR"
      },
      {
        "type": 50,
        "frequency": 12873,
        "name": "AWOS"
      }
    ],
    "elevation": 2267,
    "tower": true,
    "name": "Prince George Airport",
    "runways": [
      {
        "type": 100,
        "width": 45.72,
        "surfaceType": null,
        "numberStart": "15",
        "numberEnd": "33",
        "latStart": 53.89951596,
        "lonStart": -122.67085016,
        "latEnd": 53.8684722,
        "lonEnd": -122.66212273,
        "length": 0,
        "surfacetype": 1
      },
      {
        "type": 100,
        "width": 45.72,
        "surfaceType": null,
        "numberStart": "06",
        "numberEnd": "24",
        "latStart": 53.885762,
        "lonStart": -122.69305,
        "latEnd": 53.88829744,
        "lonEnd": -122.66717275,
        "length": 0,
        "surfacetype": 1
      },
      {
        "type": 100,
        "width": 22.86,
        "surfaceType": null,
        "numberStart": "01",
        "numberEnd": "19",
        "latStart": 53.88576349,
        "lonStart": -122.67807876,
        "latEnd": 53.89611063,
        "lonEnd": -122.6676538,
        "length": 0,
        "surfacetype": 1
      },
      {
        "type": 102,
        "width": 22.6,
        "surfaceType": 2,
        "numberStart": "H20",
        "numberEnd": null,
        "latStart": 53.88270415,
        "lonStart": -122.67812604,
        "latEnd": null,
        "lonEnd": null,
        "length": 24.4
      }
    ],
    "id": 20547
  },
  {
    "type": 1,
    "icao": "CYQZ",
    "lat": 53.026076,
    "lon": -122.5103655,
    "communications": [
      {
        "type": 50,
        "frequency": 12440,
        "name": "AWOS"
      },
      {
        "type": 54,
        "frequency": 12220,
        "name": "WILLIAMS LAKE RDO"
      }
    ],
    "elevation": 1789,
    "tower": false,
    "name": "QUESNEL",
    "runways": [
      {
        "type": 100,
        "width": 60.96,
        "surfaceType": null,
        "numberStart": "13",
        "numberEnd": "31",
        "latStart": 53.032569,
        "lonStart": -122.5167,
        "latEnd": 53.019583,
        "lonEnd": -122.504031,
        "length": 0,
        "surfacetype": 1
      }
    ],
    "id": 20668
  }
]