[
  {
    "type": 1,
    "icao": "KEVB",
    "lat": 29.055530666666666,
    "lon": -80.94877183333334,
    "communications": [
      {
        "type": 50,
        "frequency": 12462,
        "name": "ATIS"
      },
      {
        "type": 51,
        "frequency": 12280,
        "name": "UNICOM"
      },
      {
        "type": 53,
        "frequency": 12132,
        "name": "GND"
      },
      {
        "type": 54,
        "frequency": 11967,
        "name": "TWR"
      },
      {
        "type": 55,
        "frequency": 12535,
        "name": "DAYTONA APP/DEP"
      }
    ],
    "elevation": 10,
    "tower": true,
    "name": "NEW SMYRNA BEACH MUNI",
    "runways": [
      {
        "type": 100,
        "width": 22.86,
        "surfaceType": null,
        "numberStart": "06",
        "numberEnd": "24",
        "latStart": 29.054878,
        "lonStart": -80.957997,
        "latEnd": 29.061417,
        "lonEnd": -80.944231,
        "length": 0,
        "surfacetype": 1
      },
      {
        "type": 100,
        "width": 30.48,
        "surfaceType": null,
        "numberStart": "11",
        "numberEnd": "29",
        "latStart": 29.055906,
        "lonStart": -80.953739,
        "latEnd": 29.052508,
        "lonEnd": -80.940786,
        "length": 0,
        "surfacetype": 1
      },
      {
        "type": 100,
        "width": 30.48,
        "surfaceType": null,
        "numberStart": "02",
        "numberEnd": "20",
        "latStart": 29.048967,
        "lonStart": -80.949728,
        "latEnd": 29.059508,
        "lonEnd": -80.94615,
        "length": 0,
        "surfacetype": 1
      }
    ],
    "id": 17926
  }
]