[
  {
    "type": 1,
    "icao": "KEVB",
    "lat": 29.055553176666667,
    "lon": -80.948756665,
    "communications": [
      {
        "type": 50,
        "frequency": 12462,
        "name": "ATIS"
      },
      {
        "type": 51,
        "frequency": 11967,
        "name": "CTAF"
      },
      {
        "type": 53,
        "frequency": 12132,
        "name": "GND"
      },
      {
        "type": 54,
        "frequency": 11967,
        "name": "TWR"
      },
      {
        "type": 55,
        "frequency": 12535,
        "name": "DAYTONA APP/DEP"
      }
    ],
    "elevation": 10,
    "tower": true,
    "name": "NEW SMYRNA BEACH MUNI",
    "runways": [
      {
        "type": 100,
        "width": 22.86,
        "surfaceType": null,
        "numberStart": "07",
        "numberEnd": "25",
        "latStart": 29.054902,
        "lonStart": -80.958006,
        "latEnd": 29.061445,
        "lonEnd": -80.944239,
        "length": 0,
        "surfacetype": 1
      },
      {
        "type": 100,
        "width": 22.86,
        "surfaceType": null,
        "numberStart": "11",
        "numberEnd": "29",
        "latStart": 29.05593173,
        "lonStart": -80.95372882,
        "latEnd": 29.05251115,
        "lonEnd": -80.94069458,
        "length": 0,
        "surfacetype": 1
      },
      {
        "type": 100,
        "width": 30.48,
        "surfaceType": null,
        "numberStart": "02",
        "numberEnd": "20",
        "latStart": 29.04899916,
        "lonStart": -80.94972225,
        "latEnd": 29.05953002,
        "lonEnd": -80.94614934,
        "length": 0,
        "surfacetype": 2
      }
    ],
    "id": 2638
  }
]