[
  {
    "type": 1,
    "icao": "MDAB",
    "lat": 19.1985865,
    "lon": -25.118762500000003,
    "communications": [
      {
        "type": 54,
        "frequency": 11845,
        "name": "TWR"
      }
    ],
    "elevation": 57,
    "tower": true,
    "name": "ARROYO BARRIL INTL",
    "runways": [
      {
        "type": 100,
        "width": 24.99,
        "surfaceType": null,
        "numberStart": "11",
        "numberEnd": "29",
        "latStart": 19.199456,
        "lonStart": -69.435242,
        "latEnd": 19.197717,
        "lonEnd": -69.424303,
        "length": 0,
        "surfacetype": 1
      }
    ],
    "id": 404
  },
  {
    "type": 1,
    "icao": "MDPO",
    "lat": 19.319540945,
    "lon": -25.088223320000004,
    "communications": [],
    "elevation": 57,
    "tower": true,
    "name": "El Portillo National",
    "runways": [
      {
        "type": 100,
        "width": 17.07,
        "surfaceType": null,
        "numberStart": "9",
        "numberEnd": "27",
        "latStart": 19.31954068,
        "lonStart": -69.49598785,
        "latEnd": 19.31954121,
        "lonEnd": -69.48564015,
        "length": 0,
        "surfacetype": 1
      }
    ],
    "id": 7053
  },
  {
    "type": 1,
    "icao": "MDMC",
    "lat": 19.883325,
    "lon": -25.874931705,
    "communications": [],
    "elevation": 68,
    "tower": true,
    "name": "Monte Cristi",
    "runways": [
      {
        "type": 100,
        "width": 45.72,
        "surfaceType": null,
        "numberStart": "05",
        "numberEnd": "23",
        "latStart": 19.87998197,
        "lonStart": -71.63653144,
        "latEnd": 19.88666803,
        "lonEnd": -71.63012966,
        "length": 0,
        "surfacetype": 2
      }
    ],
    "id": 17413
  },
  {
    "type": 1,
    "icao": "MDPP",
    "lat": 19.7579,
    "lon": -25.411067999999997,
    "communications": [
      {
        "type": 53,
        "frequency": 12190,
        "name": "GND"
      },
      {
        "type": 54,
        "frequency": 11800,
        "name": "PUERTO PLATA TWR"
      },
      {
        "type": 55,
        "frequency": 11900,
        "name": "PUERTO PLATA APP"
      }
    ],
    "elevation": 15,
    "tower": true,
    "name": "Puerto Plata Gregorio Luperon Intl",
    "runways": [
      {
        "type": 100,
        "width": 46.02,
        "surfaceType": null,
        "numberStart": "08",
        "numberEnd": "26",
        "latStart": 19.753842,
        "lonStart": -70.584094,
        "latEnd": 19.761958,
        "lonEnd": -70.555975,
        "length": 0,
        "surfacetype": 1
      }
    ],
    "id": 20600
  },
  {
    "type": 1,
    "icao": "MDCY",
    "lat": 19.264916499999998,
    "lon": -25.2355,
    "communications": [
      {
        "type": 53,
        "frequency": 12170,
        "name": "Catey Ground"
      },
      {
        "type": 54,
        "frequency": 11835,
        "name": "Catey Tower"
      }
    ],
    "elevation": 12,
    "tower": true,
    "name": "Samana El Catey International",
    "runways": [
      {
        "type": 100,
        "width": 45.11,
        "surfaceType": null,
        "numberStart": "07",
        "numberEnd": "25",
        "latStart": 19.257833,
        "lonStart": -69.743,
        "latEnd": 19.272,
        "lonEnd": -69.721167,
        "length": 0,
        "surfacetype": 1
      }
    ],
    "id": 22777
  },
  {
    "type": 1,
    "icao": "MDST",
    "lat": 19.406091500000002,
    "lon": -25.606733499999997,
    "communications": [
      {
        "type": 53,
        "frequency": 12190,
        "name": "SANTIAGO GND"
      },
      {
        "type": 54,
        "frequency": 11830,
        "name": "SANTIAGO TWR"
      }
    ],
    "elevation": 563,
    "tower": true,
    "name": "Santiago Cibao Intl",
    "runways": [
      {
        "type": 100,
        "width": 45.11,
        "surfaceType": null,
        "numberStart": "11",
        "numberEnd": "29",
        "latStart": 19.408764,
        "lonStart": -70.616886,
        "latEnd": 19.403419,
        "lonEnd": -70.592492,
        "length": 0,
        "surfacetype": 1
      }
    ],
    "id": 22944
  },
  {
    "type": 16,
    "icao": "SP20",
    "lat": 19.174044,
    "lon": -25.136143949999997,
    "communications": [],
    "elevation": 0,
    "tower": false,
    "name": "[S] Arroyo Barril Harbor",
    "runways": [
      {
        "type": 101,
        "width": 3047.7,
        "surfaceType": null,
        "numberStart": "18",
        "numberEnd": "36",
        "latStart": 19.1877589,
        "lonStart": -69.432617,
        "latEnd": 19.1603291,
        "lonEnd": -69.432617,
        "length": 0
      }
    ],
    "id": 33977
  }
]