[
  {
    "type": 1,
    "icao": "LFES",
    "lat": 48.0512655,
    "lon": -3.665294765,
    "communications": [
      {
        "type": 51,
        "frequency": 12980,
        "name": "GUISCRIFF MULT"
      },
      {
        "type": 55,
        "frequency": 13582,
        "name": "IROISE APP"
      }
    ],
    "elevation": 575,
    "tower": true,
    "name": "Guiscriff Scaer",
    "runways": [
      {
        "type": 100,
        "width": 30,
        "surfaceType": null,
        "numberStart": "03",
        "numberEnd": "21",
        "latStart": 48.04628336,
        "lonStart": -3.66866456,
        "latEnd": 48.05874864,
        "lonEnd": -3.6609145,
        "length": 0,
        "surfacetype": 1
      },
      {
        "type": 100,
        "width": 20,
        "surfaceType": null,
        "numberStart": "03R",
        "numberEnd": "21L",
        "latStart": 48.0516,
        "lonStart": -3.66481,
        "latEnd": 48.04843,
        "lonEnd": -3.66679,
        "length": 0,
        "surfacetype": 3
      }
    ],
    "id": 10884
  },
  {
    "type": 1,
    "icao": "LFRO",
    "lat": 48.754309,
    "lon": -3.4717469999999997,
    "communications": [
      {
        "type": 51,
        "frequency": 11840,
        "name": "LANNION MULT"
      },
      {
        "type": 54,
        "frequency": 11840,
        "name": "LANNION TWR"
      },
      {
        "type": 55,
        "frequency": 12550,
        "name": "BREST_CONTROL APP"
      }
    ],
    "elevation": 291,
    "tower": true,
    "name": "Lannion",
    "runways": [
      {
        "type": 100,
        "width": 45.11,
        "surfaceType": null,
        "numberStart": "11",
        "numberEnd": "29",
        "latStart": 48.756609,
        "lonStart": -3.482735,
        "latEnd": 48.752009,
        "lonEnd": -3.460759,
        "length": 0,
        "surfacetype": 1
      }
    ],
    "id": 14948
  },
  {
    "type": 1,
    "icao": "LFRU",
    "lat": 48.60284933666666,
    "lon": -3.8140184883333337,
    "communications": [
      {
        "type": 50,
        "frequency": 11850,
        "name": "MORLAIX FSS"
      },
      {
        "type": 51,
        "frequency": 11850,
        "name": "MORLAIX MULT"
      },
      {
        "type": 55,
        "frequency": 13582,
        "name": "IROISE APP"
      },
      {
        "type": 55,
        "frequency": 12240,
        "name": "LANDI APP"
      }
    ],
    "elevation": 277,
    "tower": true,
    "name": "Morlaix Ploujean",
    "runways": [
      {
        "type": 100,
        "width": 36.88,
        "surfaceType": null,
        "numberStart": "04",
        "numberEnd": "22",
        "latStart": 48.597676,
        "lonStart": -3.822914,
        "latEnd": 48.6088,
        "lonEnd": -3.808798,
        "length": 0,
        "surfacetype": 1
      },
      {
        "type": 100,
        "width": 68.51,
        "surfaceType": null,
        "numberStart": "16",
        "numberEnd": "34",
        "latStart": 48.60677983,
        "lonStart": -3.81632694,
        "latEnd": 48.59966294,
        "lonEnd": -3.81059559,
        "length": 0,
        "surfacetype": 3
      },
      {
        "type": 100,
        "width": 77.96,
        "surfaceType": null,
        "numberStart": "09",
        "numberEnd": "27",
        "latStart": 48.60204469,
        "lonStart": -3.81600807,
        "latEnd": 48.60213256,
        "lonEnd": -3.80946833,
        "length": 0,
        "surfacetype": 3
      }
    ],
    "id": 17518
  }
]