[
  {
    "type": 1,
    "icao": "FAGY",
    "lat": -29.121983,
    "lon": 30.586616,
    "communications": [
      {
        "type": 51,
        "frequency": 12350,
        "name": "CTAF"
      },
      {
        "type": 55,
        "frequency": 11910,
        "name": "DURBAN APP"
      },
      {
        "type": 55,
        "frequency": 11990,
        "name": "DURBAN APP"
      }
    ],
    "elevation": 3531,
    "tower": false,
    "name": "Greytown",
    "runways": [
      {
        "type": 100,
        "width": 10.97,
        "surfaceType": null,
        "numberStart": "06",
        "numberEnd": "24",
        "latStart": -29.12741518,
        "lonStart": 30.58107768,
        "latEnd": -29.11655082,
        "lonEnd": 30.59215432,
        "length": 0,
        "surfacetype": 1
      }
    ],
    "id": 10799
  },
  {
    "type": 1,
    "icao": "FAPM",
    "lat": -29.648617,
    "lon": 30.399138999999998,
    "communications": [
      {
        "type": 54,
        "frequency": 12200,
        "name": "TWR"
      }
    ],
    "elevation": 2423,
    "tower": true,
    "name": "Pietermaritzburg",
    "runways": [
      {
        "type": 100,
        "width": 29.87,
        "surfaceType": null,
        "numberStart": "16",
        "numberEnd": "34",
        "latStart": -29.64316786,
        "lonStart": 30.39424031,
        "latEnd": -29.65406614,
        "lonEnd": 30.40403769,
        "length": 0,
        "surfacetype": 1
      }
    ],
    "id": 20113
  }
]