[
  {
    "type": 1,
    "icao": "NZFH",
    "lat": -43.46105247,
    "lon": 170.01671239,
    "communications": [],
    "elevation": 554,
    "tower": true,
    "name": "Fox Glacier",
    "runways": [
      {
        "type": 100,
        "width": 8,
        "surfaceType": null,
        "numberStart": "13",
        "numberEnd": "31",
        "latStart": -43.46001982,
        "lonStart": 170.0137837,
        "latEnd": -43.46208512,
        "lonEnd": 170.01964108,
        "length": 0,
        "surfacetype": 1
      }
    ],
    "id": 4227
  },
  {
    "type": 1,
    "icao": "NZGT",
    "lat": -43.9108013,
    "lon": 170.12875942,
    "communications": [
      {
        "type": 51,
        "frequency": 11860,
        "name": "ALPS TRAFFIC"
      },
      {
        "type": 54,
        "frequency": 12350,
        "name": "CHRISTCHURCH FIS"
      }
    ],
    "elevation": 1824,
    "tower": false,
    "name": "Glentanner",
    "runways": [
      {
        "type": 100,
        "width": 25,
        "surfaceType": null,
        "numberStart": "15",
        "numberEnd": "33",
        "latStart": -43.90612646,
        "lonStart": 170.12778833,
        "latEnd": -43.91547614,
        "lonEnd": 170.12973051,
        "length": 0,
        "surfacetype": 1
      }
    ],
    "id": 4232
  },
  {
    "type": 1,
    "icao": "NZMC",
    "lat": -43.765972489999996,
    "lon": 170.13345904250002,
    "communications": [
      {
        "type": 51,
        "frequency": 11860,
        "name": "ALPS_TRAFFIC MULT"
      },
      {
        "type": 51,
        "frequency": 13100,
        "name": "MOUNT_COOK UNIC"
      },
      {
        "type": 55,
        "frequency": 12350,
        "name": "CHRISTCHURCH APP"
      }
    ],
    "elevation": 2142,
    "tower": false,
    "name": "Mount Cook",
    "runways": [
      {
        "type": 100,
        "width": 20.12,
        "surfaceType": null,
        "numberStart": "13",
        "numberEnd": "31",
        "latStart": -43.76035848,
        "lonStart": 170.13104033,
        "latEnd": -43.77262945,
        "lonEnd": 170.13879925,
        "length": 0,
        "surfacetype": 1
      },
      {
        "type": 102,
        "width": 21,
        "surfaceType": 2,
        "numberStart": "H1",
        "numberEnd": null,
        "latStart": -43.76551858,
        "lonStart": 170.13176818,
        "latEnd": null,
        "lonEnd": null,
        "length": 18.9
      },
      {
        "type": 102,
        "width": 22,
        "surfaceType": 2,
        "numberStart": "H2",
        "numberEnd": null,
        "latStart": -43.76538345,
        "lonStart": 170.13222841,
        "latEnd": null,
        "lonEnd": null,
        "length": 18
      }
    ],
    "id": 4245
  },
  {
    "type": 1,
    "icao": "XNZQP",
    "lat": -43.641902390000006,
    "lon": 170.90398457,
    "communications": [],
    "elevation": 1581,
    "tower": false,
    "name": "Mesopotamia Station",
    "runways": [
      {
        "type": 100,
        "width": 20,
        "surfaceType": null,
        "numberStart": "12",
        "numberEnd": "30",
        "latStart": -43.64043453,
        "lonStart": 170.90166551,
        "latEnd": -43.64437601,
        "lonEnd": 170.90936426,
        "length": 0,
        "surfacetype": 3
      },
      {
        "type": 102,
        "width": 20,
        "surfaceType": 1,
        "numberStart": "H1",
        "numberEnd": null,
        "latStart": -43.64089663,
        "lonStart": 170.90092394,
        "latEnd": null,
        "lonEnd": null,
        "length": 20
      }
    ],
    "id": 5526
  }
]