[
  {
    "type": 1,
    "icao": "EFAH",
    "lat": 64.89500000000001,
    "lon": 25.7558,
    "communications": [],
    "elevation": 95,
    "tower": false,
    "name": "Ahmosuo",
    "runways": [
      {
        "type": 100,
        "width": 22.86,
        "surfaceType": null,
        "numberStart": "12",
        "numberEnd": "30",
        "latStart": 64.8967994,
        "lonStart": 25.74845425,
        "latEnd": 64.8932006,
        "lonEnd": 25.76314575,
        "length": 0,
        "surfacetype": 1
      }
    ],
    "id": 16170
  },
  {
    "type": 1,
    "icao": "EFHP",
    "lat": 64.1128,
    "lon": 25.507800000000003,
    "communications": [],
    "elevation": 315,
    "tower": false,
    "name": "Haapavesi",
    "runways": [
      {
        "type": 100,
        "width": 14.94,
        "surfaceType": null,
        "numberStart": "12",
        "numberEnd": "30",
        "latStart": 64.11453219,
        "lonStart": 25.50092817,
        "latEnd": 64.11106781,
        "lonEnd": 25.51467183,
        "length": 0,
        "surfacetype": 1
      }
    ],
    "id": 16178
  },
  {
    "type": 1,
    "icao": "EFOU",
    "lat": 64.9300585,
    "lon": 25.3545595,
    "communications": [
      {
        "type": 50,
        "frequency": 13544,
        "name": "ATIS"
      },
      {
        "type": 50,
        "frequency": 13545,
        "name": "ATIS"
      },
      {
        "type": 54,
        "frequency": 11970,
        "name": "TWR"
      },
      {
        "type": 54,
        "frequency": 12440,
        "name": "TWR"
      }
    ],
    "elevation": 47,
    "tower": true,
    "name": "Oulu",
    "runways": [
      {
        "type": 100,
        "width": 60.05,
        "surfaceType": null,
        "numberStart": "12",
        "numberEnd": "30",
        "latStart": 64.935836,
        "lonStart": 25.331894,
        "latEnd": 64.924281,
        "lonEnd": 25.377225,
        "length": 0,
        "surfacetype": 1
      }
    ],
    "id": 16206
  }
]