[
  {
    "type": 1,
    "icao": "ZSPD",
    "lat": 31.14274755875,
    "lon": 121.80531946625,
    "communications": [
      {
        "type": 50,
        "frequency": 12785,
        "name": "ATIS"
      },
      {
        "type": 50,
        "frequency": 13145,
        "name": "ATIS"
      },
      {
        "type": 54,
        "frequency": 11840,
        "name": "TWR EAST"
      },
      {
        "type": 54,
        "frequency": 11880,
        "name": "TWR WEST"
      },
      {
        "type": 53,
        "frequency": 12180,
        "name": "GND EAST"
      },
      {
        "type": 53,
        "frequency": 12165,
        "name": "GND WEST"
      },
      {
        "type": 52,
        "frequency": 12195,
        "name": "CLR DEL"
      },
      {
        "type": 52,
        "frequency": 12170,
        "name": "CLR DEL Secondary"
      },
      {
        "type": 55,
        "frequency": 12540,
        "name": "Shanghai Approach Control"
      },
      {
        "type": 55,
        "frequency": 12030,
        "name": "Shanghai Approach Control"
      },
      {
        "type": 55,
        "frequency": 11920,
        "name": "Shanghai Approach Control"
      },
      {
        "type": 55,
        "frequency": 12630,
        "name": "Shanghai Approach Control"
      },
      {
        "type": 55,
        "frequency": 12585,
        "name": "Shanghai Approach Control"
      },
      {
        "type": 55,
        "frequency": 12380,
        "name": "Shanghai Approach Control"
      },
      {
        "type": 55,
        "frequency": 12065,
        "name": "Shanghai Approach Control"
      },
      {
        "type": 55,
        "frequency": 12805,
        "name": "Shanghai Approach Control"
      },
      {
        "type": 55,
        "frequency": 12775,
        "name": "Shanghai Approach Control"
      },
      {
        "type": 55,
        "frequency": 12665,
        "name": "Shanghai Approach Control"
      },
      {
        "type": 55,
        "frequency": 12405,
        "name": "Shanghai Approach Control"
      },
      {
        "type": 55,
        "frequency": 12110,
        "name": "Shanghai Approach Control"
      },
      {
        "type": 55,
        "frequency": 11975,
        "name": "Shanghai Approach Control"
      }
    ],
    "elevation": 13,
    "tower": true,
    "name": "Shanghai PUDONG",
    "runways": [
      {
        "type": 100,
        "width": 60.05,
        "surfaceType": null,
        "numberStart": "16R",
        "numberEnd": "34L",
        "latStart": 31.1588373,
        "lonStart": 121.81172065,
        "latEnd": 31.12632426,
        "lonEnd": 121.82401853,
        "length": 0,
        "surfacetype": 2
      },
      {
        "type": 100,
        "width": 60.05,
        "surfaceType": null,
        "numberStart": "17L",
        "numberEnd": "35R",
        "latStart": 31.16121194,
        "lonStart": 121.78592929,
        "latEnd": 31.1271045,
        "lonEnd": 121.79883332,
        "length": 0,
        "surfacetype": 2
      },
      {
        "type": 100,
        "width": 60.08,
        "surfaceType": null,
        "numberStart": "17R",
        "numberEnd": "35L",
        "latStart": 31.15494675,
        "lonStart": 121.78325608,
        "latEnd": 31.12586808,
        "lonEnd": 121.7942427,
        "length": 0,
        "surfacetype": 2
      },
      {
        "type": 100,
        "width": 60.11,
        "surfaceType": null,
        "numberStart": "16L",
        "numberEnd": "34R",
        "latStart": 31.16013932,
        "lonStart": 121.81611808,
        "latEnd": 31.12754832,
        "lonEnd": 121.82843708,
        "length": 0,
        "surfacetype": 2
      }
    ],
    "id": 5665
  },
  {
    "type": 1,
    "icao": "ZSSS",
    "lat": 31.203310322857142,
    "lon": 121.33627997714287,
    "communications": [
      {
        "type": 50,
        "frequency": 13225,
        "name": "Hongqiao ATIS"
      },
      {
        "type": 50,
        "frequency": 13145,
        "name": "Hongqiao D-ATIS"
      },
      {
        "type": 54,
        "frequency": 11810,
        "name": "Hongqiao Tower East"
      },
      {
        "type": 54,
        "frequency": 11865,
        "name": "Hongqiao Tower West"
      },
      {
        "type": 54,
        "frequency": 12160,
        "name": "Hongqiao Ground East"
      },
      {
        "type": 54,
        "frequency": 12185,
        "name": "Hongqiao Ground West"
      },
      {
        "type": 52,
        "frequency": 12175,
        "name": "Hongqiao Delivery"
      },
      {
        "type": 55,
        "frequency": 12030,
        "name": "Hongqiao Approach 01"
      },
      {
        "type": 55,
        "frequency": 12540,
        "name": "Hongqiao Approach 02"
      },
      {
        "type": 55,
        "frequency": 12585,
        "name": "Hongqiao Approach 03"
      },
      {
        "type": 55,
        "frequency": 12380,
        "name": "Hongqiao Approach 04"
      },
      {
        "type": 55,
        "frequency": 12665,
        "name": "Hongqiao Approach 05"
      },
      {
        "type": 55,
        "frequency": 12630,
        "name": "Hongqiao Approach 06"
      },
      {
        "type": 55,
        "frequency": 12110,
        "name": "Hongqiao Approach 07"
      },
      {
        "type": 55,
        "frequency": 12775,
        "name": "Hongqiao Approach 08"
      }
    ],
    "elevation": 8,
    "tower": true,
    "name": "Shanghai Hongqiao Intl",
    "runways": [
      {
        "type": 100,
        "width": 60,
        "surfaceType": null,
        "numberStart": "18R",
        "numberEnd": "36L",
        "latStart": 31.21311259,
        "lonStart": 121.33157425,
        "latEnd": 31.18325079,
        "lonEnd": 121.33334412,
        "length": 0,
        "surfacetype": 2
      },
      {
        "type": 100,
        "width": 60.01,
        "surfaceType": null,
        "numberStart": "18L",
        "numberEnd": "36R",
        "latStart": 31.21347588,
        "lonStart": 121.33539044,
        "latEnd": 31.1825681,
        "lonEnd": 121.33717805,
        "length": 0,
        "surfacetype": 1
      },
      {
        "type": 102,
        "width": 25,
        "surfaceType": 2,
        "numberStart": "H3",
        "numberEnd": null,
        "latStart": 31.20993724,
        "lonStart": 121.33884334,
        "latEnd": null,
        "lonEnd": null,
        "length": 25
      },
      {
        "type": 102,
        "width": 30,
        "surfaceType": 2,
        "numberStart": "H2",
        "numberEnd": null,
        "latStart": 31.21025635,
        "lonStart": 121.33882513,
        "latEnd": null,
        "lonEnd": null,
        "length": 30
      },
      {
        "type": 102,
        "width": 30,
        "surfaceType": 2,
        "numberStart": "H1",
        "numberEnd": null,
        "latStart": 31.21057131,
        "lonStart": 121.33880451,
        "latEnd": null,
        "lonEnd": null,
        "length": 30
      }
    ],
    "id": 5666
  }
]