[
  {
    "type": 1,
    "icao": "ZSSS",
    "lat": 31.197875,
    "lon": 121.336319,
    "communications": [
      {
        "type": 50,
        "frequency": 13225,
        "name": "ATIS"
      },
      {
        "type": 52,
        "frequency": 12175,
        "name": "DELIVERY"
      },
      {
        "type": 53,
        "frequency": 11810,
        "name": "GND"
      },
      {
        "type": 53,
        "frequency": 12160,
        "name": "GND"
      },
      {
        "type": 54,
        "frequency": 11810,
        "name": "TWR"
      },
      {
        "type": 54,
        "frequency": 12430,
        "name": "TWR"
      },
      {
        "type": 55,
        "frequency": 12030,
        "name": "SHANGHAI APP SCTR 1"
      },
      {
        "type": 55,
        "frequency": 11975,
        "name": "SHANGHAI APP SCTR 2"
      },
      {
        "type": 55,
        "frequency": 12080,
        "name": "SHANGHAI APP SCTR 2"
      },
      {
        "type": 55,
        "frequency": 12130,
        "name": "SHANGHAI APP SCTR 3"
      },
      {
        "type": 55,
        "frequency": 11920,
        "name": "SHANGHAI APP SCTR 3"
      },
      {
        "type": 55,
        "frequency": 12380,
        "name": "SHANGHAI APP SCTR 4"
      }
    ],
    "elevation": 10,
    "tower": true,
    "name": "HONGQIAO INTL",
    "runways": [
      {
        "type": 100,
        "width": 57.91,
        "surfaceType": null,
        "numberStart": "18",
        "numberEnd": "36",
        "latStart": 31.21325,
        "lonStart": 121.335444,
        "latEnd": 31.1825,
        "lonEnd": 121.337194,
        "length": 0,
        "surfacetype": 1
      }
    ],
    "id": 11183
  },
  {
    "type": 1,
    "icao": "ZSPD",
    "lat": 31.14274755875,
    "lon": 121.80531946625,
    "communications": [
      {
        "type": 50,
        "frequency": 12785,
        "name": "ATIS"
      },
      {
        "type": 50,
        "frequency": 13145,
        "name": "ATIS"
      },
      {
        "type": 54,
        "frequency": 11840,
        "name": "TWR EAST"
      },
      {
        "type": 54,
        "frequency": 11880,
        "name": "TWR WEST"
      },
      {
        "type": 54,
        "frequency": 11840,
        "name": "TWR EAST Secondary"
      },
      {
        "type": 53,
        "frequency": 12180,
        "name": "GND EAST"
      },
      {
        "type": 53,
        "frequency": 12165,
        "name": "GND WEST"
      },
      {
        "type": 53,
        "frequency": 12170,
        "name": "GND EAST Secondary"
      },
      {
        "type": 52,
        "frequency": 12195,
        "name": "CLR DEL"
      },
      {
        "type": 52,
        "frequency": 12170,
        "name": "CLR DEL Secondary"
      },
      {
        "type": 55,
        "frequency": 12540,
        "name": "Shanghai Approach Control"
      },
      {
        "type": 55,
        "frequency": 12030,
        "name": "Shanghai Approach Control"
      },
      {
        "type": 55,
        "frequency": 11920,
        "name": "Shanghai Approach Control"
      },
      {
        "type": 55,
        "frequency": 12630,
        "name": "Shanghai Approach Control"
      },
      {
        "type": 55,
        "frequency": 12585,
        "name": "Shanghai Approach Control"
      },
      {
        "type": 55,
        "frequency": 12380,
        "name": "Shanghai Approach Control"
      },
      {
        "type": 55,
        "frequency": 12065,
        "name": "Shanghai Approach Control"
      },
      {
        "type": 55,
        "frequency": 12805,
        "name": "Shanghai Approach Control"
      },
      {
        "type": 55,
        "frequency": 12775,
        "name": "Shanghai Approach Control"
      },
      {
        "type": 55,
        "frequency": 12665,
        "name": "Shanghai Approach Control"
      },
      {
        "type": 55,
        "frequency": 12405,
        "name": "Shanghai Approach Control"
      },
      {
        "type": 55,
        "frequency": 12110,
        "name": "Shanghai Approach Control"
      },
      {
        "type": 55,
        "frequency": 11975,
        "name": "Shanghai Approach Control"
      }
    ],
    "elevation": 13,
    "tower": true,
    "name": "Shanghai PUDONG",
    "runways": [
      {
        "type": 100,
        "width": 60.05,
        "surfaceType": null,
        "numberStart": "16",
        "numberEnd": "34",
        "latStart": 31.1588373,
        "lonStart": 121.81172065,
        "latEnd": 31.12632426,
        "lonEnd": 121.82401853,
        "length": 0,
        "surfacetype": 2
      },
      {
        "type": 100,
        "width": 60.05,
        "surfaceType": null,
        "numberStart": "17L",
        "numberEnd": "35R",
        "latStart": 31.16121194,
        "lonStart": 121.78592929,
        "latEnd": 31.1271045,
        "lonEnd": 121.79883332,
        "length": 0,
        "surfacetype": 2
      },
      {
        "type": 100,
        "width": 60.08,
        "surfaceType": null,
        "numberStart": "17R",
        "numberEnd": "35L",
        "latStart": 31.15494675,
        "lonStart": 121.78325608,
        "latEnd": 31.12586808,
        "lonEnd": 121.7942427,
        "length": 0,
        "surfacetype": 2
      },
      {
        "type": 100,
        "width": 60.11,
        "surfaceType": null,
        "numberStart": "16L",
        "numberEnd": "34R",
        "latStart": 31.16013932,
        "lonStart": 121.81611808,
        "latEnd": 31.12754832,
        "lonEnd": 121.82843708,
        "length": 0,
        "surfacetype": 2
      }
    ],
    "id": 23341
  }
]