[
  {
    "type": 1,
    "icao": "SBBE",
    "lat": -1.38077625,
    "lon": -48.476189,
    "communications": [
      {
        "type": 50,
        "frequency": 12760,
        "name": "BELEM ATIS"
      },
      {
        "type": 53,
        "frequency": 12190,
        "name": "GND"
      },
      {
        "type": 54,
        "frequency": 11870,
        "name": "BELEM TWR"
      },
      {
        "type": 55,
        "frequency": 11905,
        "name": "BELEM APP"
      },
      {
        "type": 55,
        "frequency": 11950,
        "name": "BELEM APP"
      }
    ],
    "elevation": 54,
    "tower": true,
    "name": "Val De Cans Intl",
    "runways": [
      {
        "type": 100,
        "width": 45.11,
        "surfaceType": null,
        "numberStart": "06",
        "numberEnd": "24",
        "latStart": -1.388083,
        "lonStart": -48.484969,
        "latEnd": -1.370322,
        "lonEnd": -48.467014,
        "length": 0,
        "surfacetype": 1
      },
      {
        "type": 100,
        "width": 45.11,
        "surfaceType": null,
        "numberStart": "02",
        "numberEnd": "20",
        "latStart": -1.390578,
        "lonStart": -48.477031,
        "latEnd": -1.374122,
        "lonEnd": -48.475742,
        "length": 0,
        "surfacetype": 1
      }
    ],
    "id": 4590
  },
  {
    "type": 1,
    "icao": "SBJC",
    "lat": -1.4141835,
    "lon": -48.46073749999999,
    "communications": [
      {
        "type": 54,
        "frequency": 11830,
        "name": "TWR"
      }
    ],
    "elevation": 52,
    "tower": true,
    "name": "Julio Cesar",
    "runways": [
      {
        "type": 100,
        "width": 29.87,
        "surfaceType": null,
        "numberStart": "16",
        "numberEnd": "34",
        "latStart": -1.409331,
        "lonStart": -48.465481,
        "latEnd": -1.419036,
        "lonEnd": -48.455994,
        "length": 0,
        "surfacetype": 1
      }
    ],
    "id": 25127
  },
  {
    "type": 17,
    "icao": "SIBL",
    "lat": -1.4375,
    "lon": -48.45833333,
    "communications": [],
    "elevation": 49,
    "tower": false,
    "name": "[H] Clinica Porto Dias",
    "runways": [
      {
        "type": 102,
        "width": 19.5,
        "surfaceType": 2,
        "numberStart": "H1",
        "numberEnd": null,
        "latStart": -1.4375,
        "lonStart": -48.45833333,
        "latEnd": null,
        "lonEnd": null,
        "length": 19.5
      }
    ],
    "id": 26095
  },
  {
    "type": 17,
    "icao": "SIMS",
    "lat": -1.46083333,
    "lon": -48.44833333,
    "communications": [],
    "elevation": 4,
    "tower": false,
    "name": "[H] Eletronorte Belem",
    "runways": [
      {
        "type": 102,
        "width": 24.1,
        "surfaceType": 2,
        "numberStart": "H1",
        "numberEnd": null,
        "latStart": -1.46083333,
        "lonStart": -48.44833333,
        "latEnd": null,
        "lonEnd": null,
        "length": 24.1
      }
    ],
    "id": 26383
  },
  {
    "type": 1,
    "icao": "SIPC",
    "lat": -1.314722225,
    "lon": -48.42944444,
    "communications": [],
    "elevation": 16,
    "tower": false,
    "name": "Portal do Ceu",
    "runways": [
      {
        "type": 100,
        "width": 20.12,
        "surfaceType": null,
        "numberStart": "10",
        "numberEnd": "28",
        "latStart": -1.31504823,
        "lonStart": -48.43130661,
        "latEnd": -1.31439622,
        "lonEnd": -48.42758227,
        "length": 0,
        "surfacetype": 3
      }
    ],
    "id": 26444
  },
  {
    "type": 1,
    "icao": "SJNA",
    "lat": -1.267222225,
    "lon": -48.43,
    "communications": [],
    "elevation": 17,
    "tower": false,
    "name": "Clube de Esp. Aereos e Nauticos do Par",
    "runways": [
      {
        "type": 100,
        "width": 20.12,
        "surfaceType": null,
        "numberStart": "09",
        "numberEnd": "27",
        "latStart": -1.26814279,
        "lonStart": -48.43253888,
        "latEnd": -1.26630166,
        "lonEnd": -48.42746112,
        "length": 0,
        "surfacetype": 1
      }
    ],
    "id": 27047
  },
  {
    "type": 1,
    "icao": "SJNR",
    "lat": -1.3072222199999999,
    "lon": -48.2575,
    "communications": [],
    "elevation": 88,
    "tower": false,
    "name": "Norte Jet",
    "runways": [
      {
        "type": 100,
        "width": 20.12,
        "surfaceType": null,
        "numberStart": "11",
        "numberEnd": "29",
        "latStart": -1.30722073,
        "lonStart": -48.26177611,
        "latEnd": -1.30722371,
        "lonEnd": -48.25322389,
        "length": 0,
        "surfacetype": 5
      }
    ],
    "id": 27064
  },
  {
    "type": 1,
    "icao": "SNKX",
    "lat": -1.9716666649999999,
    "lon": -48.62805556,
    "communications": [],
    "elevation": 114,
    "tower": false,
    "name": "Marborges",
    "runways": [
      {
        "type": 100,
        "width": 17.98,
        "surfaceType": null,
        "numberStart": "16",
        "numberEnd": "34",
        "latStart": -1.96890664,
        "lonStart": -48.63036903,
        "latEnd": -1.97442669,
        "lonEnd": -48.62574209,
        "length": 0,
        "surfacetype": 5
      }
    ],
    "id": 27835
  },
  {
    "type": 17,
    "icao": "SNNA",
    "lat": -1.5625,
    "lon": -48.73777778,
    "communications": [],
    "elevation": 17,
    "tower": false,
    "name": "[H] Albras",
    "runways": [
      {
        "type": 102,
        "width": 28,
        "surfaceType": 2,
        "numberStart": "H1",
        "numberEnd": null,
        "latStart": -1.5625,
        "lonStart": -48.73777778,
        "latEnd": null,
        "lonEnd": null,
        "length": 28
      }
    ],
    "id": 27887
  },
  {
    "type": 1,
    "icao": "SNYP",
    "lat": -1.3177777750000002,
    "lon": -48.29888889,
    "communications": [],
    "elevation": 68,
    "tower": false,
    "name": "Chacara Paraiso",
    "runways": [
      {
        "type": 100,
        "width": 17.98,
        "surfaceType": null,
        "numberStart": "12",
        "numberEnd": "30",
        "latStart": -1.31702519,
        "lonStart": -48.30314397,
        "latEnd": -1.31853036,
        "lonEnd": -48.29463381,
        "length": 0,
        "surfacetype": 1
      }
    ],
    "id": 28175
  },
  {
    "type": 1,
    "icao": "SSWL",
    "lat": -1.2847222249999999,
    "lon": -48.213055565000005,
    "communications": [],
    "elevation": 115,
    "tower": false,
    "name": "Haras Fazendas Reunidas Sobral",
    "runways": [
      {
        "type": 100,
        "width": 20.12,
        "surfaceType": null,
        "numberStart": "10",
        "numberEnd": "28",
        "latStart": -1.28550229,
        "lonStart": -48.21748857,
        "latEnd": -1.28394216,
        "lonEnd": -48.20862256,
        "length": 0,
        "surfacetype": 5
      }
    ],
    "id": 28853
  }
]