[
  {
    "type": 17,
    "icao": "07PN",
    "lat": 40.24758972,
    "lon": -76.80608278,
    "communications": [],
    "elevation": 458,
    "tower": false,
    "name": "[H] AT&T",
    "runways": [
      {
        "type": 102,
        "width": 19.8,
        "surfaceType": 3,
        "numberStart": "H1",
        "numberEnd": null,
        "latStart": 40.24758972,
        "lonStart": -76.80608278,
        "latEnd": null,
        "lonEnd": null,
        "length": 19.8
      }
    ],
    "id": 27985
  },
  {
    "type": 17,
    "icao": "6PS9",
    "lat": 40.67870083,
    "lon": -76.23494612,
    "communications": [],
    "elevation": 708,
    "tower": false,
    "name": "[H] Allied Signal",
    "runways": [
      {
        "type": 102,
        "width": 29,
        "surfaceType": 1,
        "numberStart": "H1",
        "numberEnd": null,
        "latStart": 40.67870083,
        "lonStart": -76.23494612,
        "latEnd": null,
        "lonEnd": null,
        "length": 29
      }
    ],
    "id": 28093
  },
  {
    "type": 17,
    "icao": "PS51",
    "lat": 40.28064472,
    "lon": -76.81636056,
    "communications": [],
    "elevation": 500,
    "tower": false,
    "name": "[H] Anzio",
    "runways": [
      {
        "type": 102,
        "width": 30.5,
        "surfaceType": 1,
        "numberStart": "H1",
        "numberEnd": null,
        "latStart": 40.28064472,
        "lonStart": -76.81636056,
        "latEnd": null,
        "lonEnd": null,
        "length": 30.5
      }
    ],
    "id": 28152
  },
  {
    "type": 17,
    "icao": "PA32",
    "lat": 40.78342083,
    "lon": -76.33300389,
    "communications": [],
    "elevation": 1060,
    "tower": false,
    "name": "[H] Ashland Regional Medical Center",
    "runways": [
      {
        "type": 102,
        "width": 22.9,
        "surfaceType": 1,
        "numberStart": "H1",
        "numberEnd": null,
        "latStart": 40.78342083,
        "lonStart": -76.33300389,
        "latEnd": null,
        "lonEnd": null,
        "length": 22.9
      }
    ],
    "id": 28197
  },
  {
    "type": 17,
    "icao": "7PS0",
    "lat": 40.23064583,
    "lon": -76.83663889,
    "communications": [],
    "elevation": 299,
    "tower": false,
    "name": "[H] B S Corporation Steelton Plant",
    "runways": [
      {
        "type": 102,
        "width": 13.7,
        "surfaceType": 1,
        "numberStart": "H1",
        "numberEnd": null,
        "latStart": 40.23064583,
        "lonStart": -76.83663889,
        "latEnd": null,
        "lonEnd": null,
        "length": 13.7
      }
    ],
    "id": 28256
  },
  {
    "type": 17,
    "icao": "PS31",
    "lat": 40.46036888,
    "lon": -76.34717751,
    "communications": [],
    "elevation": 4500,
    "tower": false,
    "name": "[H] Brubaker",
    "runways": [
      {
        "type": 102,
        "width": 18.3,
        "surfaceType": 3,
        "numberStart": "H1",
        "numberEnd": null,
        "latStart": 40.46036888,
        "lonStart": -76.34717751,
        "latEnd": null,
        "lonEnd": null,
        "length": 61
      }
    ],
    "id": 28608
  },
  {
    "type": 17,
    "icao": "21PN",
    "lat": 40.05676388,
    "lon": -76.28023528,
    "communications": [],
    "elevation": 318,
    "tower": false,
    "name": "[H] Burle-Lancaster",
    "runways": [
      {
        "type": 102,
        "width": 30.5,
        "surfaceType": 1,
        "numberStart": "H1",
        "numberEnd": null,
        "latStart": 40.05676388,
        "lonStart": -76.28023528,
        "latEnd": null,
        "lonEnd": null,
        "length": 30.5
      }
    ],
    "id": 28627
  },
  {
    "type": 17,
    "icao": "PS96",
    "lat": 40.35425888,
    "lon": -76.25022889,
    "communications": [],
    "elevation": 500,
    "tower": false,
    "name": "[H] CRS",
    "runways": [
      {
        "type": 102,
        "width": 30.5,
        "surfaceType": 1,
        "numberStart": "H1",
        "numberEnd": null,
        "latStart": 40.35425888,
        "lonStart": -76.25022889,
        "latEnd": null,
        "lonEnd": null,
        "length": 30.5
      }
    ],
    "id": 28699
  },
  {
    "type": 17,
    "icao": "3PS2",
    "lat": 40.2584225,
    "lon": -76.87969556,
    "communications": [],
    "elevation": 383,
    "tower": false,
    "name": "[H] Chestnut Street Garage",
    "runways": [
      {
        "type": 102,
        "width": 19.8,
        "surfaceType": 2,
        "numberStart": "H1",
        "numberEnd": null,
        "latStart": 40.2584225,
        "lonStart": -76.87969556,
        "latEnd": null,
        "lonEnd": null,
        "length": 19.8
      }
    ],
    "id": 28911
  },
  {
    "type": 17,
    "icao": "PA12",
    "lat": 40.04231944,
    "lon": -76.38829473,
    "communications": [],
    "elevation": 383,
    "tower": false,
    "name": "[H] Commonwealth Security Systems",
    "runways": [
      {
        "type": 102,
        "width": 9.1,
        "surfaceType": 2,
        "numberStart": "H1",
        "numberEnd": null,
        "latStart": 40.04231944,
        "lonStart": -76.38829473,
        "latEnd": null,
        "lonEnd": null,
        "length": 9.1
      }
    ],
    "id": 29074
  },
  {
    "type": 17,
    "icao": "4PA0",
    "lat": 40.32453277,
    "lon": -76.83663862,
    "communications": [],
    "elevation": 398,
    "tower": false,
    "name": "[H] DBS",
    "runways": [
      {
        "type": 102,
        "width": 15.2,
        "surfaceType": 1,
        "numberStart": "H1",
        "numberEnd": null,
        "latStart": 40.32453277,
        "lonStart": -76.83663862,
        "latEnd": null,
        "lonEnd": null,
        "length": 15.2
      }
    ],
    "id": 29223
  },
  {
    "type": 17,
    "icao": "5PS7",
    "lat": 40.97925138,
    "lon": -76.88579834,
    "communications": [],
    "elevation": 495,
    "tower": false,
    "name": "[H] Evangelical Community Hospital East",
    "runways": [
      {
        "type": 102,
        "width": 19.8,
        "surfaceType": 3,
        "numberStart": "H1",
        "numberEnd": null,
        "latStart": 40.97925138,
        "lonStart": -76.88579834,
        "latEnd": null,
        "lonEnd": null,
        "length": 19.8
      }
    ],
    "id": 29591
  },
  {
    "type": 17,
    "icao": "79PN",
    "lat": 40.97286444,
    "lon": -76.60412084,
    "communications": [],
    "elevation": 661,
    "tower": false,
    "name": "[H] Geisinger Rooftop",
    "runways": [
      {
        "type": 102,
        "width": 16.8,
        "surfaceType": 2,
        "numberStart": "H1",
        "numberEnd": null,
        "latStart": 40.97286444,
        "lonStart": -76.60412084,
        "latEnd": null,
        "lonEnd": null,
        "length": 16.8
      }
    ],
    "id": 29899
  },
  {
    "type": 17,
    "icao": "8PS5",
    "lat": 40.26193257,
    "lon": -76.684714,
    "communications": [],
    "elevation": 420,
    "tower": false,
    "name": "[H] HMC Hanger",
    "runways": [
      {
        "type": 102,
        "width": 12.2,
        "surfaceType": 2,
        "numberStart": "H1",
        "numberEnd": null,
        "latStart": 40.26193257,
        "lonStart": -76.684714,
        "latEnd": null,
        "lonEnd": null,
        "length": 12.2
      }
    ],
    "id": 30079
  },
  {
    "type": 17,
    "icao": "28PN",
    "lat": 40.25981138,
    "lon": -76.90969612,
    "communications": [],
    "elevation": 365,
    "tower": false,
    "name": "[H] Harsco",
    "runways": [
      {
        "type": 102,
        "width": 13.7,
        "surfaceType": 2,
        "numberStart": "H1",
        "numberEnd": null,
        "latStart": 40.25981138,
        "lonStart": -76.90969612,
        "latEnd": null,
        "lonEnd": null,
        "length": 13.7
      }
    ],
    "id": 30142
  },
  {
    "type": 17,
    "icao": "8PN5",
    "lat": 40.83341916,
    "lon": -76.54967862,
    "communications": [],
    "elevation": 1000,
    "tower": false,
    "name": "[H] Helfrick",
    "runways": [
      {
        "type": 102,
        "width": 15.2,
        "surfaceType": 2,
        "numberStart": "H1",
        "numberEnd": null,
        "latStart": 40.83341916,
        "lonStart": -76.54967862,
        "latEnd": null,
        "lonEnd": null,
        "length": 15.2
      }
    ],
    "id": 30172
  },
  {
    "type": 17,
    "icao": "64PN",
    "lat": 40.26481277,
    "lon": -76.67441389,
    "communications": [],
    "elevation": 437,
    "tower": false,
    "name": "[H] Hershey Medical Center",
    "runways": [
      {
        "type": 102,
        "width": 18.3,
        "surfaceType": 1,
        "numberStart": "H1",
        "numberEnd": null,
        "latStart": 40.26481277,
        "lonStart": -76.67441389,
        "latEnd": null,
        "lonEnd": null,
        "length": 18.3
      }
    ],
    "id": 30229
  },
  {
    "type": 17,
    "icao": "5PS1",
    "lat": 40.04759722,
    "lon": -76.30356973,
    "communications": [],
    "elevation": 405,
    "tower": false,
    "name": "[H] Lancaster General Hospital",
    "runways": [
      {
        "type": 102,
        "width": 14.3,
        "surfaceType": 2,
        "numberStart": "H1",
        "numberEnd": null,
        "latStart": 40.04759722,
        "lonStart": -76.30356973,
        "latEnd": null,
        "lonEnd": null,
        "length": 13.7
      }
    ],
    "id": 30834
  },
  {
    "type": 17,
    "icao": "PS95",
    "lat": 40.685795,
    "lon": -76.210665,
    "communications": [],
    "elevation": 810,
    "tower": false,
    "name": "[H] Mazzuca Heliport",
    "runways": [
      {
        "type": 102,
        "width": 6.7,
        "surfaceType": 1,
        "numberStart": "H1",
        "numberEnd": null,
        "latStart": 40.685795,
        "lonStart": -76.210665,
        "latEnd": null,
        "lonEnd": null,
        "length": 6.7
      }
    ],
    "id": 31134
  },
  {
    "type": 17,
    "icao": "1PS3",
    "lat": 40.36120277,
    "lon": -76.32467751,
    "communications": [],
    "elevation": 495,
    "tower": false,
    "name": "[H] P J Valves",
    "runways": [
      {
        "type": 102,
        "width": 10.7,
        "surfaceType": 1,
        "numberStart": "H1",
        "numberEnd": null,
        "latStart": 40.36120277,
        "lonStart": -76.32467751,
        "latEnd": null,
        "lonEnd": null,
        "length": 10.7
      }
    ],
    "id": 31805
  },
  {
    "type": 17,
    "icao": "3PS3",
    "lat": 40.38925833,
    "lon": -76.31078751,
    "communications": [],
    "elevation": 588,
    "tower": false,
    "name": "[H] Richard L Miller",
    "runways": [
      {
        "type": 102,
        "width": 10.7,
        "surfaceType": 1,
        "numberStart": "H1",
        "numberEnd": null,
        "latStart": 40.38925833,
        "lonStart": -76.31078751,
        "latEnd": null,
        "lonEnd": null,
        "length": 10.7
      }
    ],
    "id": 32336
  },
  {
    "type": 17,
    "icao": "PS85",
    "lat": 40.98619777,
    "lon": -76.42911139,
    "communications": [],
    "elevation": 858,
    "tower": false,
    "name": "[H] River Hill",
    "runways": [
      {
        "type": 102,
        "width": 18.3,
        "surfaceType": 1,
        "numberStart": "H1",
        "numberEnd": null,
        "latStart": 40.98619777,
        "lonStart": -76.42911139,
        "latEnd": null,
        "lonEnd": null,
        "length": 18.3
      }
    ],
    "id": 32359
  },
  {
    "type": 17,
    "icao": "2PS5",
    "lat": 40.78675194,
    "lon": -76.58495917,
    "communications": [],
    "elevation": 958,
    "tower": false,
    "name": "[H] Rosini Residence",
    "runways": [
      {
        "type": 102,
        "width": 19.8,
        "surfaceType": 3,
        "numberStart": "H1",
        "numberEnd": null,
        "latStart": 40.78675194,
        "lonStart": -76.58495917,
        "latEnd": null,
        "lonEnd": null,
        "length": 19.8
      }
    ],
    "id": 32420
  },
  {
    "type": 17,
    "icao": "21PA",
    "lat": 40.66509027,
    "lon": -76.18605417,
    "communications": [],
    "elevation": 1100,
    "tower": false,
    "name": "[H] Ryon",
    "runways": [
      {
        "type": 102,
        "width": 30.5,
        "surfaceType": 3,
        "numberStart": "H1",
        "numberEnd": null,
        "latStart": 40.66509027,
        "lonStart": -76.18605417,
        "latEnd": null,
        "lonEnd": null,
        "length": 30.5
      }
    ],
    "id": 32458
  },
  {
    "type": 17,
    "icao": "91PN",
    "lat": 40.690344,
    "lon": -76.191855,
    "communications": [],
    "elevation": 830,
    "tower": false,
    "name": "[H] Schuylkill Medical Center Heliport",
    "runways": [
      {
        "type": 102,
        "width": 9.8,
        "surfaceType": 1,
        "numberStart": "H1",
        "numberEnd": null,
        "latStart": 40.690344,
        "lonStart": -76.191855,
        "latEnd": null,
        "lonEnd": null,
        "length": 9.8
      }
    ],
    "id": 32610
  },
  {
    "type": 17,
    "icao": "PA37",
    "lat": 40.82091944,
    "lon": -76.16215,
    "communications": [],
    "elevation": 1500,
    "tower": false,
    "name": "[H] Sci-Mahanoy",
    "runways": [
      {
        "type": 102,
        "width": 19.8,
        "surfaceType": 1,
        "numberStart": "H1",
        "numberEnd": null,
        "latStart": 40.82091944,
        "lonStart": -76.16215,
        "latEnd": null,
        "lonEnd": null,
        "length": 19.8
      }
    ],
    "id": 32612
  },
  {
    "type": 17,
    "icao": "3PS5",
    "lat": 40.80536333,
    "lon": -76.56995806,
    "communications": [],
    "elevation": 720,
    "tower": false,
    "name": "[H] Shamokin Hospital",
    "runways": [
      {
        "type": 102,
        "width": 19.8,
        "surfaceType": 2,
        "numberStart": "H1",
        "numberEnd": null,
        "latStart": 40.80536333,
        "lonStart": -76.56995806,
        "latEnd": null,
        "lonEnd": null,
        "length": 19.8
      }
    ],
    "id": 32657
  },
  {
    "type": 17,
    "icao": "05PN",
    "lat": 40.30008861,
    "lon": -76.85802834,
    "communications": [],
    "elevation": 483,
    "tower": false,
    "name": "[H] State Police Area III",
    "runways": [
      {
        "type": 102,
        "width": 36.6,
        "surfaceType": 1,
        "numberStart": "H1",
        "numberEnd": null,
        "latStart": 40.30008861,
        "lonStart": -76.85802834,
        "latEnd": null,
        "lonEnd": null,
        "length": 36.6
      }
    ],
    "id": 33047
  },
  {
    "type": 17,
    "icao": "2PS8",
    "lat": 40.86175166,
    "lon": -76.77746528,
    "communications": [],
    "elevation": 500,
    "tower": false,
    "name": "[H] Sunbury Community Hospital",
    "runways": [
      {
        "type": 102,
        "width": 9.1,
        "surfaceType": 2,
        "numberStart": "H1",
        "numberEnd": null,
        "latStart": 40.86175166,
        "lonStart": -76.77746528,
        "latEnd": null,
        "lonEnd": null,
        "length": 14.6
      }
    ],
    "id": 33134
  },
  {
    "type": 17,
    "icao": "PA13",
    "lat": 40.029265,
    "lon": -76.22440056,
    "communications": [],
    "elevation": 318,
    "tower": false,
    "name": "[H] Superior Tours",
    "runways": [
      {
        "type": 102,
        "width": 21.3,
        "surfaceType": 1,
        "numberStart": "H1",
        "numberEnd": null,
        "latStart": 40.029265,
        "lonStart": -76.22440056,
        "latEnd": null,
        "lonEnd": null,
        "length": 21.3
      }
    ],
    "id": 33143
  },
  {
    "type": 17,
    "icao": "08PN",
    "lat": 40.04593083,
    "lon": -76.28079112,
    "communications": [],
    "elevation": 310,
    "tower": false,
    "name": "[H] Thomson",
    "runways": [
      {
        "type": 102,
        "width": 15.2,
        "surfaceType": 1,
        "numberStart": "H1",
        "numberEnd": null,
        "latStart": 40.04593083,
        "lonStart": -76.28079112,
        "latEnd": null,
        "lonEnd": null,
        "length": 15.2
      }
    ],
    "id": 33318
  },
  {
    "type": 17,
    "icao": "PS14",
    "lat": 40.14398222,
    "lon": -76.72330167,
    "communications": [],
    "elevation": 310,
    "tower": false,
    "name": "[H] Three Mile Island",
    "runways": [
      {
        "type": 102,
        "width": 19.8,
        "surfaceType": 4,
        "numberStart": "H1",
        "numberEnd": null,
        "latStart": 40.14398222,
        "lonStart": -76.72330167,
        "latEnd": null,
        "lonEnd": null,
        "length": 53.3
      }
    ],
    "id": 33321
  },
  {
    "type": 17,
    "icao": "PA95",
    "lat": 40.2167575,
    "lon": -76.78302612,
    "communications": [],
    "elevation": 348,
    "tower": false,
    "name": "[H] Turnpike Nr 1",
    "runways": [
      {
        "type": 102,
        "width": 12.2,
        "surfaceType": 3,
        "numberStart": "H1",
        "numberEnd": null,
        "latStart": 40.2167575,
        "lonStart": -76.78302612,
        "latEnd": null,
        "lonEnd": null,
        "length": 12.2
      }
    ],
    "id": 33423
  },
  {
    "type": 17,
    "icao": "PS92",
    "lat": 40.31536972,
    "lon": -76.40301612,
    "communications": [],
    "elevation": 508,
    "tower": false,
    "name": "[H] Va Medical Center",
    "runways": [
      {
        "type": 102,
        "width": 18.3,
        "surfaceType": 3,
        "numberStart": "H1",
        "numberEnd": null,
        "latStart": 40.31536972,
        "lonStart": -76.40301612,
        "latEnd": null,
        "lonEnd": null,
        "length": 18.3
      }
    ],
    "id": 33563
  },
  {
    "type": 17,
    "icao": "2PS4",
    "lat": 40.03704194,
    "lon": -76.33773751,
    "communications": [],
    "elevation": 358,
    "tower": false,
    "name": "[H] WGAL TV",
    "runways": [
      {
        "type": 102,
        "width": 19.8,
        "surfaceType": 3,
        "numberStart": "H1",
        "numberEnd": null,
        "latStart": 40.03704194,
        "lonStart": -76.33773751,
        "latEnd": null,
        "lonEnd": null,
        "length": 19.8
      }
    ],
    "id": 33678
  },
  {
    "type": 17,
    "icao": "4PA2",
    "lat": 40.15231694,
    "lon": -76.30579028,
    "communications": [],
    "elevation": 430,
    "tower": false,
    "name": "[H] Warner-Lambert",
    "runways": [
      {
        "type": 102,
        "width": 18.3,
        "surfaceType": 2,
        "numberStart": "H1",
        "numberEnd": null,
        "latStart": 40.15231694,
        "lonStart": -76.30579028,
        "latEnd": null,
        "lonEnd": null,
        "length": 18.3
      }
    ],
    "id": 33726
  },
  {
    "type": 17,
    "icao": "72PA",
    "lat": 40.03343,
    "lon": -76.66635528,
    "communications": [],
    "elevation": 480,
    "tower": false,
    "name": "[H] York Electro-Panel Psnl Use",
    "runways": [
      {
        "type": 102,
        "width": 27.4,
        "surfaceType": 1,
        "numberStart": "H1",
        "numberEnd": null,
        "latStart": 40.03343,
        "lonStart": -76.66635528,
        "latEnd": null,
        "lonEnd": null,
        "length": 27.4
      }
    ],
    "id": 33929
  }
]