[
  {
    "type": 1,
    "icao": "EKYT",
    "lat": 57.094185762500004,
    "lon": 33.464994315,
    "communications": [
      {
        "type": 50,
        "frequency": 12047,
        "name": "ATIS"
      },
      {
        "type": 54,
        "frequency": 11830,
        "name": "TWR"
      },
      {
        "type": 55,
        "frequency": 12397,
        "name": "APP"
      },
      {
        "type": 55,
        "frequency": 12070,
        "name": "ARR"
      }
    ],
    "elevation": 9,
    "tower": true,
    "name": "Aalborg",
    "runways": [
      {
        "type": 100,
        "width": 45.11,
        "surfaceType": null,
        "numberStart": "08L",
        "numberEnd": "26R",
        "latStart": 57.09371474,
        "lonStart": 9.83338123,
        "latEnd": 57.09652392,
        "lonEnd": 9.87687477,
        "length": 0,
        "surfacetype": 1
      },
      {
        "type": 100,
        "width": 22.86,
        "surfaceType": null,
        "numberStart": "08R",
        "numberEnd": "26L",
        "latStart": 57.09190815,
        "lonStart": 9.83547587,
        "latEnd": 57.09459624,
        "lonEnd": 9.87724413,
        "length": 0,
        "surfacetype": 1
      }
    ],
    "id": 500
  },
  {
    "type": 1,
    "icao": "EK26",
    "lat": 57.459279935,
    "lon": 33.770987649999995,
    "communications": [],
    "elevation": 70,
    "tower": false,
    "name": "Boegsted Hjorring",
    "runways": [
      {
        "type": 100,
        "width": 29.87,
        "surfaceType": null,
        "numberStart": "09",
        "numberEnd": "27",
        "latStart": 57.45932465,
        "lonStart": 10.08274008,
        "latEnd": 57.45923522,
        "lonEnd": 10.09634885,
        "length": 0,
        "surfacetype": 3
      }
    ],
    "id": 2913
  },
  {
    "type": 1,
    "icao": "EK13",
    "lat": 57.28971378,
    "lon": 33.573747605,
    "communications": [],
    "elevation": 58,
    "tower": false,
    "name": "Broenderslev",
    "runways": [
      {
        "type": 100,
        "width": 14.02,
        "surfaceType": null,
        "numberStart": "01",
        "numberEnd": "19",
        "latStart": 57.2874634,
        "lonStart": 9.85553105,
        "latEnd": 57.29196416,
        "lonEnd": 9.85810145,
        "length": 0,
        "surfacetype": 3
      }
    ],
    "id": 3225
  },
  {
    "type": 1,
    "icao": "EKSA",
    "lat": 57.346069685,
    "lon": 33.87453788,
    "communications": [
      {
        "type": 54,
        "frequency": 12250,
        "name": "Saeby Radio"
      }
    ],
    "elevation": 115,
    "tower": true,
    "name": "Saeby Ottestrup",
    "runways": [
      {
        "type": 100,
        "width": 20.12,
        "surfaceType": null,
        "numberStart": "12",
        "numberEnd": "30",
        "latStart": 57.34711091,
        "lonStart": 10.4040473,
        "latEnd": 57.34502846,
        "lonEnd": 10.41192184,
        "length": 0,
        "surfacetype": 3
      }
    ],
    "id": 22667
  },
  {
    "type": 1,
    "icao": "EKSN",
    "lat": 57.503524999999996,
    "lon": 33.861633335,
    "communications": [
      {
        "type": 54,
        "frequency": 11875,
        "name": "AFIS"
      },
      {
        "type": 55,
        "frequency": 12397,
        "name": "AALBORG APP"
      }
    ],
    "elevation": 92,
    "tower": true,
    "name": "Sindal",
    "runways": [
      {
        "type": 100,
        "width": 29.87,
        "surfaceType": null,
        "numberStart": "09",
        "numberEnd": "27",
        "latStart": 57.503175,
        "lonStart": 10.21939167,
        "latEnd": 57.503875,
        "lonEnd": 10.23935019,
        "length": 0,
        "surfacetype": 1
      }
    ],
    "id": 23538
  },
  {
    "type": 1,
    "icao": "EK02",
    "lat": 57.157409834999996,
    "lon": 33.675284975,
    "communications": [],
    "elevation": 110,
    "tower": false,
    "name": "Stagsted (E451)",
    "runways": [
      {
        "type": 100,
        "width": 14.94,
        "surfaceType": null,
        "numberStart": "17",
        "numberEnd": "35",
        "latStart": 57.16012552,
        "lonStart": 10.1958758,
        "latEnd": 57.15469415,
        "lonEnd": 10.19728002,
        "length": 0,
        "surfacetype": 3
      }
    ],
    "id": 24087
  },
  {
    "type": 17,
    "icao": "UU20",
    "lat": 57.135006,
    "lon": 33.084984,
    "communications": [
      {
        "type": 54,
        "frequency": 12400,
        "name": "Mudrets"
      }
    ],
    "elevation": 679,
    "tower": true,
    "name": "[H] Zvezda",
    "runways": [
      {
        "type": 102,
        "width": 10.1,
        "surfaceType": 3,
        "numberStart": "H1",
        "numberEnd": null,
        "latStart": 57.135006,
        "lonStart": 33.084984,
        "latEnd": null,
        "lonEnd": null,
        "length": 10.1
      }
    ],
    "id": 33950
  }
]