[
  {
    "type": 1,
    "icao": "LG54",
    "lat": 35.063679,
    "lon": 24.767418499999998,
    "communications": [
      {
        "type": 54,
        "frequency": 12210,
        "name": "TWR"
      }
    ],
    "elevation": 7,
    "tower": true,
    "name": "TYMPAKI",
    "runways": [
      {
        "type": 100,
        "width": 48.77,
        "surfaceType": null,
        "numberStart": "09",
        "numberEnd": "27",
        "latStart": 35.063286,
        "lonStart": 24.752556,
        "latEnd": 35.064072,
        "lonEnd": 24.782281,
        "length": 0,
        "surfacetype": 1
      }
    ],
    "id": 20481
  },
  {
    "type": 1,
    "icao": "LGSA",
    "lat": 35.5314015,
    "lon": 24.15113728,
    "communications": [
      {
        "type": 53,
        "frequency": 12170,
        "name": "GND"
      },
      {
        "type": 54,
        "frequency": 12210,
        "name": "TWR"
      },
      {
        "type": 55,
        "frequency": 12210,
        "name": "APP"
      }
    ],
    "elevation": 490,
    "tower": true,
    "name": "Khania Souda",
    "runways": [
      {
        "type": 100,
        "width": 45.11,
        "surfaceType": null,
        "numberStart": "11",
        "numberEnd": "29",
        "latStart": 35.537078,
        "lonStart": 24.133994,
        "latEnd": 35.525725,
        "lonEnd": 24.16828056,
        "length": 0,
        "surfacetype": 1
      }
    ],
    "id": 20510
  }
]