[
  {
    "type": 1,
    "icao": "LFAO",
    "lat": 48.546046295,
    "lon": -0.38755186999999996,
    "communications": [
      {
        "type": 55,
        "frequency": 13400,
        "name": "RENNES INFO"
      },
      {
        "type": 54,
        "frequency": 12350,
        "name": "BAGNOLES INFO"
      }
    ],
    "elevation": 713,
    "tower": true,
    "name": "Bagnoles de l Orne Couterne",
    "runways": [
      {
        "type": 100,
        "width": 50,
        "surfaceType": null,
        "numberStart": "12L",
        "numberEnd": "30R",
        "latStart": 48.54850592,
        "lonStart": -0.39344164,
        "latEnd": 48.54403118,
        "lonEnd": -0.38185108,
        "length": 0,
        "surfacetype": 3
      },
      {
        "type": 100,
        "width": 20,
        "surfaceType": null,
        "numberStart": "12",
        "numberEnd": "30",
        "latStart": 48.54822916,
        "lonStart": -0.39367896,
        "latEnd": 48.54341892,
        "lonEnd": -0.3812358,
        "length": 0,
        "surfacetype": 1
      }
    ],
    "id": 3542
  },
  {
    "type": 1,
    "icao": "LFAS",
    "lat": 48.927050405,
    "lon": -0.14464828000000002,
    "communications": [
      {
        "type": 51,
        "frequency": 12317,
        "name": "FALAISE INFO"
      }
    ],
    "elevation": 513,
    "tower": false,
    "name": "Falaise Mont d Eraines",
    "runways": [
      {
        "type": 100,
        "width": 100,
        "surfaceType": null,
        "numberStart": "06",
        "numberEnd": "24",
        "latStart": 48.92525308,
        "lonStart": -0.14976544,
        "latEnd": 48.92884773,
        "lonEnd": -0.13953112,
        "length": 0,
        "surfacetype": 3
      }
    ],
    "id": 3543
  },
  {
    "type": 1,
    "icao": "LFOG",
    "lat": 48.749728405,
    "lon": -0.594651745,
    "communications": [
      {
        "type": 55,
        "frequency": 12695,
        "name": "RENNES INFO"
      },
      {
        "type": 54,
        "frequency": 12350,
        "name": "FLERS INFO"
      }
    ],
    "elevation": 663,
    "tower": true,
    "name": "Flers Saint Paul",
    "runways": [
      {
        "type": 100,
        "width": 25,
        "surfaceType": null,
        "numberStart": "05",
        "numberEnd": "23",
        "latStart": 48.74759422,
        "lonStart": -0.5991058,
        "latEnd": 48.75186259,
        "lonEnd": -0.59019769,
        "length": 0,
        "surfacetype": 1
      }
    ],
    "id": 3644
  },
  {
    "type": 1,
    "icao": "LFOV",
    "lat": 48.0325195,
    "lon": -0.7442120000000001,
    "communications": [
      {
        "type": 54,
        "frequency": 11930,
        "name": "LAVAL INFO"
      }
    ],
    "elevation": 330,
    "tower": false,
    "name": "Laval Entrammes",
    "runways": [
      {
        "type": 100,
        "width": 29.87,
        "surfaceType": null,
        "numberStart": "14",
        "numberEnd": "32",
        "latStart": 48.038363,
        "lonStart": -0.750924,
        "latEnd": 48.026676,
        "lonEnd": -0.7375,
        "length": 0,
        "surfacetype": 1
      }
    ],
    "id": 3651
  },
  {
    "type": 1,
    "icao": "LFAN",
    "lat": 48.891667,
    "lon": -0.501945,
    "communications": [],
    "elevation": 833,
    "tower": false,
    "name": "Conde sur Noireau",
    "runways": [
      {
        "type": 100,
        "width": 60.05,
        "surfaceType": null,
        "numberStart": "09",
        "numberEnd": "27",
        "latStart": 48.89139255,
        "lonStart": -0.50671615,
        "latEnd": 48.89194145,
        "lonEnd": -0.49717385,
        "length": 0,
        "surfacetype": 3
      }
    ],
    "id": 20205
  }
]