[
  {
    "type": 1,
    "icao": "SLCC",
    "lat": -16.1830559,
    "lon": -42.636637225,
    "communications": [],
    "elevation": 12591,
    "tower": true,
    "name": "Copacabana",
    "runways": [
      {
        "type": 100,
        "width": 22.86,
        "surfaceType": null,
        "numberStart": "06",
        "numberEnd": "24",
        "latStart": -16.18676293,
        "lonStart": -69.09392558,
        "latEnd": -16.17934887,
        "lonEnd": -69.08107742,
        "length": 0,
        "surfacetype": 2
      }
    ],
    "id": 5309
  },
  {
    "type": 1,
    "icao": "SLLP",
    "lat": -16.513257285,
    "lon": -42.362458585,
    "communications": [
      {
        "type": 54,
        "frequency": 11830,
        "name": "TWR"
      },
      {
        "type": 53,
        "frequency": 12190,
        "name": "GND"
      },
      {
        "type": 55,
        "frequency": 11950,
        "name": "APP"
      },
      {
        "type": 50,
        "frequency": 12710,
        "name": "FIS"
      }
    ],
    "elevation": 13325,
    "tower": true,
    "name": "El Alto",
    "runways": [
      {
        "type": 100,
        "width": 46.02,
        "surfaceType": null,
        "numberStart": "10",
        "numberEnd": "28",
        "latStart": -16.51262916,
        "lonStart": -68.21103176,
        "latEnd": -16.51388541,
        "lonEnd": -68.17350983,
        "length": 0,
        "surfacetype": 1
      }
    ],
    "id": 7026
  },
  {
    "type": 1,
    "icao": "SLLJ",
    "lat": -16.5330563,
    "lon": -42.418987169999994,
    "communications": [],
    "elevation": 12815,
    "tower": true,
    "name": "Laja",
    "runways": [
      {
        "type": 100,
        "width": 21.34,
        "surfaceType": null,
        "numberStart": "08",
        "numberEnd": "26",
        "latStart": -16.53468872,
        "lonStart": -68.30655046,
        "latEnd": -16.53142388,
        "lonEnd": -68.29289114,
        "length": 0,
        "surfacetype": 2
      }
    ],
    "id": 14804
  }
]