[
  {
    "type": 1,
    "icao": "TDCF",
    "lat": 15.336718,
    "lon": -61.392211,
    "communications": [
      {
        "type": 54,
        "frequency": 11870,
        "name": "TWR"
      }
    ],
    "elevation": 13,
    "tower": true,
    "name": "Dominica/Canefield",
    "runways": [
      {
        "type": 100,
        "width": 22.86,
        "surfaceType": null,
        "numberStart": "01",
        "numberEnd": "19",
        "latStart": 15.332408,
        "lonStart": -61.391928,
        "latEnd": 15.341028,
        "lonEnd": -61.392494,
        "length": 0,
        "surfacetype": 1
      }
    ],
    "id": 4994
  },
  {
    "type": 1,
    "icao": "TDPD",
    "lat": 15.546562479999999,
    "lon": -61.301388715,
    "communications": [
      {
        "type": 54,
        "frequency": 11890,
        "name": "TWR"
      }
    ],
    "elevation": 73,
    "tower": true,
    "name": "Dominica/Melville Hall",
    "runways": [
      {
        "type": 100,
        "width": 45.11,
        "surfaceType": null,
        "numberStart": "09",
        "numberEnd": "27",
        "latStart": 15.5438426,
        "lonStart": -61.30905771,
        "latEnd": 15.54928236,
        "lonEnd": -61.29371972,
        "length": 0,
        "surfacetype": 1
      }
    ],
    "id": 4995
  },
  {
    "type": 1,
    "icao": "TFFM",
    "lat": 15.868996169999999,
    "lon": -61.269918135,
    "communications": [
      {
        "type": 54,
        "frequency": 11930,
        "name": "AFIS"
      },
      {
        "type": 55,
        "frequency": 12130,
        "name": "RAIZET APP"
      }
    ],
    "elevation": 16,
    "tower": true,
    "name": "Guadeloupe/Marie Galante",
    "runways": [
      {
        "type": 100,
        "width": 29.87,
        "surfaceType": null,
        "numberStart": "09",
        "numberEnd": "27",
        "latStart": 15.86786423,
        "lonStart": -61.27558587,
        "latEnd": 15.87012811,
        "lonEnd": -61.2642504,
        "length": 0,
        "surfacetype": 1
      }
    ],
    "id": 5001
  },
  {
    "type": 1,
    "icao": "TFFS",
    "lat": 15.865435000000002,
    "lon": -61.580803985,
    "communications": [
      {
        "type": 51,
        "frequency": 12350,
        "name": "UNICOM"
      }
    ],
    "elevation": 9,
    "tower": false,
    "name": "Terre-de-Haut/Les Saintes",
    "runways": [
      {
        "type": 100,
        "width": 14.94,
        "surfaceType": null,
        "numberStart": "09",
        "numberEnd": "27",
        "latStart": 15.86493465,
        "lonStart": -61.58329387,
        "latEnd": 15.86593535,
        "lonEnd": -61.5783141,
        "length": 0,
        "surfacetype": 1
      }
    ],
    "id": 29878
  }
]