[
  {
    "type": 1,
    "icao": "YBDI",
    "lat": -40.322631,
    "lon": 147.882267,
    "communications": [],
    "elevation": 41,
    "tower": false,
    "name": "Badger Island",
    "runways": [
      {
        "type": 100,
        "width": 14.94,
        "surfaceType": null,
        "numberStart": "09",
        "numberEnd": "27",
        "latStart": -40.322125,
        "lonStart": 147.879397,
        "latEnd": -40.323137,
        "lonEnd": 147.885137,
        "length": 0,
        "surfacetype": 4
      }
    ],
    "id": 32717
  },
  {
    "type": 1,
    "icao": "YFLI",
    "lat": -40.090466979999995,
    "lon": 147.99357814249998,
    "communications": [
      {
        "type": 51,
        "frequency": 11960,
        "name": "ACTIVATE LIGHTS ONLY MULT"
      },
      {
        "type": 51,
        "frequency": 12420,
        "name": "FLINDERS IS MULT"
      },
      {
        "type": 54,
        "frequency": 12650,
        "name": "MELBOURNE CNTR"
      }
    ],
    "elevation": 33,
    "tower": true,
    "name": "Flinders Island (TAS)",
    "runways": [
      {
        "type": 100,
        "width": 29.87,
        "surfaceType": null,
        "numberStart": "05",
        "numberEnd": "23",
        "latStart": -40.09443448,
        "lonStart": 147.9931254,
        "latEnd": -40.08978644,
        "lonEnd": 148.00417725,
        "length": 0,
        "surfacetype": 1
      },
      {
        "type": 100,
        "width": 29.87,
        "surfaceType": null,
        "numberStart": "14",
        "numberEnd": "32",
        "latStart": -40.082334,
        "lonStart": 147.98230992,
        "latEnd": -40.095313,
        "lonEnd": 147.9947,
        "length": 0,
        "surfacetype": 1
      }
    ],
    "id": 33272
  },
  {
    "type": 1,
    "icao": "YRUS",
    "lat": -40.89358300000001,
    "lon": 147.990022,
    "communications": [],
    "elevation": 108,
    "tower": false,
    "name": "Rushy Lagoon",
    "runways": [
      {
        "type": 100,
        "width": 14.94,
        "surfaceType": null,
        "numberStart": "07",
        "numberEnd": "25",
        "latStart": -40.894091,
        "lonStart": 147.985244,
        "latEnd": -40.893075,
        "lonEnd": 147.9948,
        "length": 0,
        "surfacetype": 3
      }
    ],
    "id": 34354
  },
  {
    "type": 17,
    "icao": "YWTH",
    "lat": -40.805446,
    "lon": 147.630722,
    "communications": [],
    "elevation": 126,
    "tower": false,
    "name": "[H] WATERHOUSE ISLAND",
    "runways": [
      {
        "type": 102,
        "width": 18,
        "surfaceType": 15,
        "numberStart": "H6",
        "numberEnd": null,
        "latStart": -40.805446,
        "lonStart": 147.630722,
        "latEnd": null,
        "lonEnd": null,
        "length": 18
      }
    ],
    "id": 34796
  }
]