[
  {
    "type": 1,
    "icao": "NTAA",
    "lat": -17.554726383333335,
    "lon": -149.60929152666665,
    "communications": [
      {
        "type": 53,
        "frequency": 12190,
        "name": "Tahiti Ground"
      },
      {
        "type": 54,
        "frequency": 11810,
        "name": "Tahiti Tower"
      },
      {
        "type": 55,
        "frequency": 12130,
        "name": "Tahiti Approach"
      }
    ],
    "elevation": 5,
    "tower": true,
    "name": "Faaa",
    "runways": [
      {
        "type": 100,
        "width": 45.11,
        "surfaceType": null,
        "numberStart": "04",
        "numberEnd": "22",
        "latStart": -17.56287817,
        "lonStart": -149.6204254,
        "latEnd": -17.54465267,
        "lonEnd": -149.59408475,
        "length": 0,
        "surfacetype": 1
      },
      {
        "type": 102,
        "width": 24.99,
        "surfaceType": 1,
        "numberStart": "H1",
        "numberEnd": null,
        "latStart": -17.55664831,
        "lonStart": -149.61336443,
        "latEnd": null,
        "lonEnd": null,
        "length": 24.99
      }
    ],
    "id": 7739
  },
  {
    "type": 1,
    "icao": "NTTM",
    "lat": -17.4899705,
    "lon": -149.761875,
    "communications": [
      {
        "type": 50,
        "frequency": 12880,
        "name": "TAHITI"
      },
      {
        "type": 54,
        "frequency": 11810,
        "name": "TAHITI TWR"
      },
      {
        "type": 55,
        "frequency": 12130,
        "name": "TAHITI APP"
      }
    ],
    "elevation": 9,
    "tower": true,
    "name": "Moorea",
    "runways": [
      {
        "type": 100,
        "width": 20.12,
        "surfaceType": null,
        "numberStart": "12",
        "numberEnd": "30",
        "latStart": -17.486219,
        "lonStart": -149.765767,
        "latEnd": -17.493722,
        "lonEnd": -149.757983,
        "length": 0,
        "surfacetype": 1
      }
    ],
    "id": 17469
  },
  {
    "type": 1,
    "icao": "NTTE",
    "lat": -17.01594374,
    "lon": -149.58912469,
    "communications": [
      {
        "type": 54,
        "frequency": 12130,
        "name": "TAHITI APPROACH"
      }
    ],
    "elevation": 9,
    "tower": true,
    "name": "Tetiaroa",
    "runways": [
      {
        "type": 100,
        "width": 17.98,
        "surfaceType": null,
        "numberStart": "06",
        "numberEnd": "24",
        "latStart": -17.01682947,
        "lonStart": -149.59238367,
        "latEnd": -17.01505801,
        "lonEnd": -149.58586571,
        "length": 0,
        "surfacetype": 1
      }
    ],
    "id": 25194
  }
]