[
  {
    "type": 1,
    "icao": "EBKH",
    "lat": 51.18106231,
    "lon": 28.198120965,
    "communications": [
      {
        "type": 51,
        "frequency": 11920,
        "name": "Balen Radio"
      },
      {
        "type": 52,
        "frequency": 12350,
        "name": "Balen Radio (gliders)"
      },
      {
        "type": 53,
        "frequency": 12250,
        "name": "Kleine Brogel Approach"
      },
      {
        "type": 54,
        "frequency": 12210,
        "name": "Kleine Brogel Tower"
      },
      {
        "type": 54,
        "frequency": 12380,
        "name": "Zoersel Radio"
      },
      {
        "type": 55,
        "frequency": 12932,
        "name": "Brussels Radio"
      }
    ],
    "elevation": 130,
    "tower": true,
    "name": "Balen Keiheuvel",
    "runways": [
      {
        "type": 100,
        "width": 35.97,
        "surfaceType": null,
        "numberStart": "07",
        "numberEnd": "25",
        "latStart": 51.17920361,
        "lonStart": 5.21332092,
        "latEnd": 51.18292101,
        "lonEnd": 5.22634836,
        "length": 0,
        "surfacetype": 3
      }
    ],
    "id": 2129
  },
  {
    "type": 1,
    "icao": "EHBD",
    "lat": 51.25594381,
    "lon": 28.429443730000003,
    "communications": [
      {
        "type": 54,
        "frequency": 12215,
        "name": "INFO"
      },
      {
        "type": 54,
        "frequency": 12215,
        "name": "RDO"
      }
    ],
    "elevation": 113,
    "tower": false,
    "name": "Budel",
    "runways": [
      {
        "type": 100,
        "width": 23,
        "surfaceType": null,
        "numberStart": "03",
        "numberEnd": "21",
        "latStart": 51.25147398,
        "lonStart": 5.59763049,
        "latEnd": 51.26081028,
        "lonEnd": 5.60627817,
        "length": 0,
        "surfacetype": 1
      },
      {
        "type": 100,
        "width": 30,
        "surfaceType": null,
        "numberStart": "03R",
        "numberEnd": "21L",
        "latStart": 51.25340738,
        "lonStart": 5.60125055,
        "latEnd": 51.2580836,
        "lonEnd": 5.60556442,
        "length": 0,
        "surfacetype": 3
      }
    ],
    "id": 3334
  },
  {
    "type": 1,
    "icao": "EHDP",
    "lat": 51.516670000000005,
    "lon": 28.68248603,
    "communications": [],
    "elevation": 96,
    "tower": true,
    "name": "De Peel",
    "runways": [
      {
        "type": 100,
        "width": 45.11,
        "surfaceType": null,
        "numberStart": "06",
        "numberEnd": "24",
        "latStart": 51.51128422,
        "lonStart": 5.84291628,
        "latEnd": 51.52205578,
        "lonEnd": 5.87414372,
        "length": 0,
        "surfacetype": 2
      }
    ],
    "id": 6093
  },
  {
    "type": 1,
    "icao": "EHEH",
    "lat": 51.4501335,
    "lon": 28.4116565,
    "communications": [
      {
        "type": 50,
        "frequency": 12602,
        "name": "ATIS"
      },
      {
        "type": 53,
        "frequency": 12192,
        "name": "GND"
      },
      {
        "type": 54,
        "frequency": 12210,
        "name": "TWR"
      },
      {
        "type": 54,
        "frequency": 13100,
        "name": "TWR"
      },
      {
        "type": 55,
        "frequency": 12452,
        "name": "DIRECTOR"
      },
      {
        "type": 55,
        "frequency": 12210,
        "name": "DIRECTOR"
      },
      {
        "type": 55,
        "frequency": 12317,
        "name": "APP"
      },
      {
        "type": 55,
        "frequency": 12210,
        "name": "APP"
      }
    ],
    "elevation": 74,
    "tower": true,
    "name": "Eindhoven",
    "runways": [
      {
        "type": 100,
        "width": 45.11,
        "surfaceType": null,
        "numberStart": "03",
        "numberEnd": "21",
        "latStart": 51.439089,
        "lonStart": 5.362135,
        "latEnd": 51.461178,
        "lonEnd": 5.386891,
        "length": 0,
        "surfacetype": 1
      }
    ],
    "id": 7012
  },
  {
    "type": 1,
    "icao": "EBZW",
    "lat": 51.01484949499999,
    "lon": 28.2702152425,
    "communications": [],
    "elevation": 289,
    "tower": false,
    "name": "Genk Zwartberg",
    "runways": [
      {
        "type": 100,
        "width": 23,
        "surfaceType": null,
        "numberStart": "03",
        "numberEnd": "21",
        "latStart": 51.0119818,
        "lonStart": 5.52254116,
        "latEnd": 51.01815903,
        "lonEnd": 5.52916409,
        "length": 0,
        "surfacetype": 1
      },
      {
        "type": 100,
        "width": 26.51,
        "surfaceType": null,
        "numberStart": "04R",
        "numberEnd": "22L",
        "latStart": 51.01119823,
        "lonStart": 5.52210186,
        "latEnd": 51.01805892,
        "lonEnd": 5.5294575,
        "length": 0,
        "surfacetype": 3
      }
    ],
    "id": 10395
  },
  {
    "type": 1,
    "icao": "EHGR",
    "lat": 51.56574475,
    "lon": 28.245808250000003,
    "communications": [
      {
        "type": 54,
        "frequency": 12532,
        "name": "TWR"
      },
      {
        "type": 55,
        "frequency": 12357,
        "name": "RAPCON WEST"
      }
    ],
    "elevation": 49,
    "tower": true,
    "name": "Gilze Rijen",
    "runways": [
      {
        "type": 100,
        "width": 45.11,
        "surfaceType": null,
        "numberStart": "10",
        "numberEnd": "28",
        "latStart": 51.569537,
        "lonStart": 4.911985,
        "latEnd": 51.565173,
        "lonEnd": 4.95145,
        "length": 0,
        "surfacetype": 1
      },
      {
        "type": 100,
        "width": 29.87,
        "surfaceType": null,
        "numberStart": "02",
        "numberEnd": "20",
        "latStart": 51.555436,
        "lonStart": 4.933242,
        "latEnd": 51.572833,
        "lonEnd": 4.942094,
        "length": 0,
        "surfacetype": 1
      }
    ],
    "id": 10489
  },
  {
    "type": 1,
    "icao": "EDLG",
    "lat": 51.690839,
    "lon": 28.894473525000002,
    "communications": [
      {
        "type": 54,
        "frequency": 11845,
        "name": "Goch Info"
      }
    ],
    "elevation": 49,
    "tower": true,
    "name": "Goch-Asperden",
    "runways": [
      {
        "type": 100,
        "width": 30,
        "surfaceType": null,
        "numberStart": "10",
        "numberEnd": "28",
        "latStart": 51.691244,
        "lonStart": 6.09851305,
        "latEnd": 51.690434,
        "lonEnd": 6.10998285,
        "length": 0,
        "surfacetype": 3
      }
    ],
    "id": 10555
  },
  {
    "type": 1,
    "icao": "EDAQ",
    "lat": 51.55398871571429,
    "lon": 28.980346414285716,
    "communications": [
      {
        "type": 54,
        "frequency": 13515,
        "name": "OPPIN INFO"
      }
    ],
    "elevation": 347,
    "tower": true,
    "name": "Halle-Oppin",
    "runways": [
      {
        "type": 100,
        "width": 30,
        "surfaceType": null,
        "numberStart": "11",
        "numberEnd": "29",
        "latStart": 51.55439686,
        "lonStart": 12.04665592,
        "latEnd": 51.55025085,
        "lonEnd": 12.06132923,
        "length": 0,
        "surfacetype": 1
      },
      {
        "type": 100,
        "width": 150,
        "surfaceType": null,
        "numberStart": "11L",
        "numberEnd": "29R",
        "latStart": 51.55619862,
        "lonStart": 12.04813167,
        "latEnd": 51.55263887,
        "lonEnd": 12.06153814,
        "length": 0,
        "surfacetype": 3
      },
      {
        "type": 100,
        "width": 8,
        "surfaceType": null,
        "numberStart": "10",
        "numberEnd": "28",
        "latStart": 51.55753501,
        "lonStart": 12.04936609,
        "latEnd": 51.55739077,
        "lonEnd": 12.05007173,
        "length": 0,
        "surfacetype": 1
      },
      {
        "type": 102,
        "width": 20,
        "surfaceType": 15,
        "numberStart": "H1",
        "numberEnd": null,
        "latStart": 51.54951003,
        "lonStart": 12.05799073,
        "latEnd": null,
        "lonEnd": null,
        "length": 20
      }
    ],
    "id": 11339
  },
  {
    "type": 1,
    "icao": "EBBL",
    "lat": 51.167786910000004,
    "lon": 28.315780789999998,
    "communications": [
      {
        "type": 53,
        "frequency": 12210,
        "name": "TAXI"
      },
      {
        "type": 54,
        "frequency": 12210,
        "name": "TWR"
      },
      {
        "type": 55,
        "frequency": 12250,
        "name": "APP"
      }
    ],
    "elevation": 200,
    "tower": true,
    "name": "KLEINE BROGEL",
    "runways": [
      {
        "type": 100,
        "width": 45.11,
        "surfaceType": null,
        "numberStart": "05L",
        "numberEnd": "23R",
        "latStart": 51.15961482,
        "lonStart": 5.45307285,
        "latEnd": 51.17747612,
        "lonEnd": 5.48693477,
        "length": 0,
        "surfacetype": 1
      },
      {
        "type": 100,
        "width": 22.86,
        "surfaceType": null,
        "numberStart": "05R",
        "numberEnd": "23L",
        "latStart": 51.16011435,
        "lonStart": 5.45863184,
        "latEnd": 51.17394235,
        "lonEnd": 5.48498684,
        "length": 0,
        "surfacetype": 1
      }
    ],
    "id": 13426
  },
  {
    "type": 1,
    "icao": "EDLK",
    "lat": 51.38456716,
    "lon": 28.984704999999998,
    "communications": [
      {
        "type": 54,
        "frequency": 12285,
        "name": "Krefeld Info"
      }
    ],
    "elevation": 141,
    "tower": true,
    "name": "Krefeld- Egelsberg",
    "runways": [
      {
        "type": 100,
        "width": 30,
        "surfaceType": null,
        "numberStart": "06",
        "numberEnd": "24",
        "latStart": 51.38311832,
        "lonStart": 6.583394,
        "latEnd": 51.386016,
        "lonEnd": 6.591953,
        "length": 0,
        "surfacetype": 3
      }
    ],
    "id": 14126
  },
  {
    "type": 1,
    "icao": "EHMD",
    "lat": 51.769371,
    "lon": 28.820525064999998,
    "communications": [],
    "elevation": 115,
    "tower": false,
    "name": "Malden Gliders",
    "runways": [
      {
        "type": 100,
        "width": 33.53,
        "surfaceType": null,
        "numberStart": "01",
        "numberEnd": "19",
        "latStart": 51.77534955,
        "lonStart": 5.87765768,
        "latEnd": 51.76339245,
        "lonEnd": 5.87494212,
        "length": 0,
        "surfacetype": 3
      }
    ],
    "id": 16526
  },
  {
    "type": 1,
    "icao": "EDLN",
    "lat": 51.230345735,
    "lon": 28.862389185,
    "communications": [
      {
        "type": 53,
        "frequency": 12192,
        "name": "Moenchengladbach ground"
      },
      {
        "type": 54,
        "frequency": 11812,
        "name": "Moenchengladbach tower"
      },
      {
        "type": 55,
        "frequency": 13377,
        "name": "Langen radar"
      }
    ],
    "elevation": 125,
    "tower": true,
    "name": "Moenchengladbach",
    "runways": [
      {
        "type": 100,
        "width": 29.87,
        "surfaceType": null,
        "numberStart": "13",
        "numberEnd": "31",
        "latStart": 51.23371124,
        "lonStart": 6.49779814,
        "latEnd": 51.22698023,
        "lonEnd": 6.51120714,
        "length": 0,
        "surfacetype": 1
      }
    ],
    "id": 17347
  },
  {
    "type": 1,
    "icao": "EHNR",
    "lat": 51.683375325,
    "lon": 28.61200902,
    "communications": [
      {
        "type": 54,
        "frequency": 12997,
        "name": "Nistelrode"
      }
    ],
    "elevation": 25,
    "tower": true,
    "name": "Nistelrode",
    "runways": [
      {
        "type": 100,
        "width": 118.87,
        "surfaceType": null,
        "numberStart": "11",
        "numberEnd": "29",
        "latStart": 51.68462533,
        "lonStart": 5.54189272,
        "latEnd": 51.68212532,
        "lonEnd": 5.55411544,
        "length": 0,
        "surfacetype": 3
      }
    ],
    "id": 18352
  },
  {
    "type": 1,
    "icao": "EBOT",
    "lat": 51.31779100000001,
    "lon": 28.165971837500003,
    "communications": [],
    "elevation": 75,
    "tower": true,
    "name": "Oud Turnhout",
    "runways": [
      {
        "type": 100,
        "width": 18.29,
        "surfaceType": null,
        "numberStart": "05",
        "numberEnd": "23",
        "latStart": 51.31490285,
        "lonStart": 5.01330309,
        "latEnd": 51.31842915,
        "lonEnd": 5.02002691,
        "length": 0,
        "surfacetype": 2
      },
      {
        "type": 100,
        "width": 30.48,
        "surfaceType": null,
        "numberStart": "10",
        "numberEnd": "28",
        "latStart": 51.31927324,
        "lonStart": 5.01359635,
        "latEnd": 51.31855876,
        "lonEnd": 5.02007965,
        "length": 0,
        "surfacetype": 3
      }
    ],
    "id": 19097
  },
  {
    "type": 1,
    "icao": "EBLE",
    "lat": 51.117226,
    "lon": 28.20728371,
    "communications": [],
    "elevation": 207,
    "tower": false,
    "name": "Sanicole",
    "runways": [
      {
        "type": 100,
        "width": 17.98,
        "surfaceType": null,
        "numberStart": "08",
        "numberEnd": "26",
        "latStart": 51.11675683,
        "lonStart": 5.29687225,
        "latEnd": 51.11769517,
        "lonEnd": 5.30534975,
        "length": 0,
        "surfacetype": 1
      }
    ],
    "id": 22875
  },
  {
    "type": 1,
    "icao": "EBSF",
    "lat": 51,
    "lon": 28.02862106,
    "communications": [],
    "elevation": 100,
    "tower": true,
    "name": "Schaffen",
    "runways": [
      {
        "type": 100,
        "width": 60.96,
        "surfaceType": null,
        "numberStart": "06",
        "numberEnd": "24",
        "latStart": 50.99842553,
        "lonStart": 5.05566765,
        "latEnd": 51.00157447,
        "lonEnd": 5.06433435,
        "length": 0,
        "surfacetype": 3
      }
    ],
    "id": 23077
  },
  {
    "type": 1,
    "icao": "EHSE",
    "lat": 51.55494544,
    "lon": 28.05206572,
    "communications": [
      {
        "type": 54,
        "frequency": 12065,
        "name": "Seppe Radio"
      }
    ],
    "elevation": 30,
    "tower": true,
    "name": "Seppe",
    "runways": [
      {
        "type": 100,
        "width": 22.86,
        "surfaceType": null,
        "numberStart": "07",
        "numberEnd": "25",
        "latStart": 51.55339688,
        "lonStart": 4.54763744,
        "latEnd": 51.556494,
        "lonEnd": 4.55882392,
        "length": 0,
        "surfacetype": 1
      }
    ],
    "id": 23273
  },
  {
    "type": 1,
    "icao": "EBWE",
    "lat": 51.394783,
    "lon": 28.170022,
    "communications": [
      {
        "type": 54,
        "frequency": 12022,
        "name": "RDO"
      }
    ],
    "elevation": 104,
    "tower": false,
    "name": "WEELDE",
    "runways": [
      {
        "type": 100,
        "width": 44.81,
        "surfaceType": null,
        "numberStart": "07",
        "numberEnd": "25",
        "latStart": 51.389844,
        "lonStart": 4.940322,
        "latEnd": 51.399722,
        "lonEnd": 4.980067,
        "length": 0,
        "surfacetype": 2
      }
    ],
    "id": 26558
  },
  {
    "type": 1,
    "icao": "EDLV",
    "lat": 51.602472,
    "lon": 28.863278,
    "communications": [
      {
        "type": 50,
        "frequency": 12445,
        "name": "Niederrhein ATIS"
      },
      {
        "type": 54,
        "frequency": 12940,
        "name": "Niederrhein Tower"
      }
    ],
    "elevation": 104,
    "tower": true,
    "name": "Weeze - Niederrhein",
    "runways": [
      {
        "type": 100,
        "width": 45,
        "surfaceType": null,
        "numberStart": "09",
        "numberEnd": "27",
        "latStart": 51.602858,
        "lonStart": 6.12447,
        "latEnd": 51.602086,
        "lonEnd": 6.159666,
        "length": 0,
        "surfacetype": 1
      }
    ],
    "id": 27035
  },
  {
    "type": 1,
    "icao": "EBZR",
    "lat": 51.26463946,
    "lon": 28.00555921,
    "communications": [
      {
        "type": 54,
        "frequency": 12380,
        "name": "Zoersel Radio"
      }
    ],
    "elevation": 171,
    "tower": true,
    "name": "Zoersel",
    "runways": [
      {
        "type": 100,
        "width": 45.11,
        "surfaceType": null,
        "numberStart": "05",
        "numberEnd": "23",
        "latStart": 51.25602039,
        "lonStart": 4.73785989,
        "latEnd": 51.27325853,
        "lonEnd": 4.77075237,
        "length": 0,
        "surfacetype": 2
      }
    ],
    "id": 27918
  }
]