[
  {
    "type": 1,
    "icao": "AYPY",
    "lat": -9.4405757975,
    "lon": 147.2182891675,
    "communications": [
      {
        "type": 50,
        "frequency": 12800,
        "name": "ATIS"
      },
      {
        "type": 53,
        "frequency": 12170,
        "name": "JACKSONS GND"
      },
      {
        "type": 54,
        "frequency": 11810,
        "name": "JACKSONS TWR"
      },
      {
        "type": 55,
        "frequency": 12580,
        "name": "JACKSONS APP"
      }
    ],
    "elevation": 145,
    "tower": true,
    "name": "Port Moresby Jacksons Intl",
    "runways": [
      {
        "type": 100,
        "width": 45.11,
        "surfaceType": null,
        "numberStart": "14L",
        "numberEnd": "32R",
        "latStart": -9.43084495,
        "lonStart": 147.21391093,
        "latEnd": -9.45204844,
        "lonEnd": 147.2270056,
        "length": 0,
        "surfacetype": 1
      },
      {
        "type": 100,
        "width": 30.74,
        "surfaceType": null,
        "numberStart": "14R",
        "numberEnd": "32L",
        "latStart": -9.43467384,
        "lonStart": 147.21301019,
        "latEnd": -9.44473596,
        "lonEnd": 147.21922995,
        "length": 0,
        "surfacetype": 1
      }
    ],
    "id": 14802
  }
]