[
  {
    "type": 1,
    "icao": "ULLI",
    "lat": 59.8002915,
    "lon": 45.0137863675,
    "communications": [
      {
        "type": 50,
        "frequency": 12730,
        "name": "ATIS"
      },
      {
        "type": 53,
        "frequency": 12170,
        "name": "TAXIING"
      },
      {
        "type": 54,
        "frequency": 11810,
        "name": "TWR"
      },
      {
        "type": 54,
        "frequency": 11870,
        "name": "TWR"
      },
      {
        "type": 55,
        "frequency": 12030,
        "name": "KRUG"
      },
      {
        "type": 55,
        "frequency": 12520,
        "name": "PETERBURG APP"
      },
      {
        "type": 55,
        "frequency": 12800,
        "name": "PETERBURG APP"
      },
      {
        "type": 55,
        "frequency": 12900,
        "name": "PETERBURG APP"
      },
      {
        "type": 55,
        "frequency": 12980,
        "name": "PETERBURG APP"
      }
    ],
    "elevation": 78,
    "tower": true,
    "name": "Saint Petersburg Pulkovo",
    "runways": [
      {
        "type": 100,
        "width": 60.05,
        "surfaceType": null,
        "numberStart": "10R",
        "numberEnd": "28L",
        "latStart": 59.79994494,
        "lonStart": 30.2182884,
        "latEnd": 59.79036106,
        "lonEnd": 30.2828896,
        "length": 0,
        "surfacetype": 2
      },
      {
        "type": 100,
        "width": 60.05,
        "surfaceType": null,
        "numberStart": "10L",
        "numberEnd": "28R",
        "latStart": 59.80973272,
        "lonStart": 30.24536873,
        "latEnd": 59.80112728,
        "lonEnd": 30.30346727,
        "length": 0,
        "surfacetype": 2
      }
    ],
    "id": 22710
  }
]