[
  {
    "type": 17,
    "icao": "5LA7",
    "lat": 30.05159138,
    "lon": -91.87900695,
    "communications": [],
    "elevation": 24,
    "tower": false,
    "name": "[H] Air Logistics",
    "runways": [
      {
        "type": 102,
        "width": 6.1,
        "surfaceType": 2,
        "numberStart": "H1",
        "numberEnd": null,
        "latStart": 30.05159138,
        "lonStart": -91.87900695,
        "latEnd": null,
        "lonEnd": null,
        "length": 10.7
      },
      {
        "type": 102,
        "width": 6.1,
        "surfaceType": 2,
        "numberStart": "H2",
        "numberEnd": null,
        "latStart": 30.05159138,
        "lonStart": -91.87900695,
        "latEnd": null,
        "lonEnd": null,
        "length": 10.7
      },
      {
        "type": 102,
        "width": 6.1,
        "surfaceType": 2,
        "numberStart": "H3",
        "numberEnd": null,
        "latStart": 30.05159138,
        "lonStart": -91.87900695,
        "latEnd": null,
        "lonEnd": null,
        "length": 10.7
      },
      {
        "type": 102,
        "width": 6.1,
        "surfaceType": 2,
        "numberStart": "H4",
        "numberEnd": null,
        "latStart": 30.05159138,
        "lonStart": -91.87900695,
        "latEnd": null,
        "lonEnd": null,
        "length": 10.7
      },
      {
        "type": 102,
        "width": 6.1,
        "surfaceType": 2,
        "numberStart": "H5",
        "numberEnd": null,
        "latStart": 30.05159138,
        "lonStart": -91.87900695,
        "latEnd": null,
        "lonEnd": null,
        "length": 10.7
      },
      {
        "type": 102,
        "width": 6.1,
        "surfaceType": 2,
        "numberStart": "H6",
        "numberEnd": null,
        "latStart": 30.05159138,
        "lonStart": -91.87900695,
        "latEnd": null,
        "lonEnd": null,
        "length": 10.7
      }
    ],
    "id": 28038
  },
  {
    "type": 17,
    "icao": "LA43",
    "lat": 30.04520277,
    "lon": -91.88150723,
    "communications": [],
    "elevation": 21,
    "tower": false,
    "name": "[H] Air Logistics 2",
    "runways": [
      {
        "type": 102,
        "width": 30.5,
        "surfaceType": 3,
        "numberStart": "H1",
        "numberEnd": null,
        "latStart": 30.04520277,
        "lonStart": -91.88150723,
        "latEnd": null,
        "lonEnd": null,
        "length": 30.5
      }
    ],
    "id": 28048
  },
  {
    "type": 17,
    "icao": "27LA",
    "lat": 30.44880166,
    "lon": -91.15316195,
    "communications": [],
    "elevation": 91,
    "tower": false,
    "name": "[H] Baton Rouge General Hospital",
    "runways": [
      {
        "type": 102,
        "width": 12.2,
        "surfaceType": 2,
        "numberStart": "H1",
        "numberEnd": null,
        "latStart": 30.44880166,
        "lonStart": -91.15316195,
        "latEnd": null,
        "lonEnd": null,
        "length": 12.2
      }
    ],
    "id": 28365
  },
  {
    "type": 17,
    "icao": "03LA",
    "lat": 30.19964083,
    "lon": -91.12788167,
    "communications": [],
    "elevation": 23,
    "tower": false,
    "name": "[H] Damien",
    "runways": [
      {
        "type": 102,
        "width": 18.3,
        "surfaceType": 3,
        "numberStart": "H1",
        "numberEnd": null,
        "latStart": 30.19964083,
        "lonStart": -91.12788167,
        "latEnd": null,
        "lonEnd": null,
        "length": 18.3
      }
    ],
    "id": 29252
  },
  {
    "type": 17,
    "icao": "LA72",
    "lat": 30.007425,
    "lon": -91.79400556,
    "communications": [],
    "elevation": 14,
    "tower": false,
    "name": "[H] Dauterive Hospital",
    "runways": [
      {
        "type": 102,
        "width": 12.2,
        "surfaceType": 2,
        "numberStart": "H1",
        "numberEnd": null,
        "latStart": 30.007425,
        "lonStart": -91.79400556,
        "latEnd": null,
        "lonEnd": null,
        "length": 12.2
      }
    ],
    "id": 29268
  },
  {
    "type": 17,
    "icao": "LS60",
    "lat": 30.25130638,
    "lon": -91.08649223,
    "communications": [],
    "elevation": 17,
    "tower": false,
    "name": "[H] East Field",
    "runways": [
      {
        "type": 102,
        "width": 18.3,
        "surfaceType": 3,
        "numberStart": "H1",
        "numberEnd": null,
        "latStart": 30.25130638,
        "lonStart": -91.08649223,
        "latEnd": null,
        "lonEnd": null,
        "length": 18.3
      }
    ],
    "id": 29454
  },
  {
    "type": 17,
    "icao": "26LA",
    "lat": 30.14666666,
    "lon": -91.94416667,
    "communications": [],
    "elevation": 40,
    "tower": false,
    "name": "[H] Heli-Air Inc",
    "runways": [
      {
        "type": 102,
        "width": 30.5,
        "surfaceType": 3,
        "numberStart": "H1",
        "numberEnd": null,
        "latStart": 30.14666666,
        "lonStart": -91.94416667,
        "latEnd": null,
        "lonEnd": null,
        "length": 30.5
      }
    ],
    "id": 30173
  },
  {
    "type": 17,
    "icao": "LA69",
    "lat": 30.47157888,
    "lon": -91.07954889,
    "communications": [],
    "elevation": 48,
    "tower": false,
    "name": "[H] Jenkins",
    "runways": [
      {
        "type": 102,
        "width": 91.4,
        "surfaceType": 2,
        "numberStart": "H1",
        "numberEnd": null,
        "latStart": 30.47157888,
        "lonStart": -91.07954889,
        "latEnd": null,
        "lonEnd": null,
        "length": 457.2
      }
    ],
    "id": 30604
  },
  {
    "type": 17,
    "icao": "D27",
    "lat": 30.45916666,
    "lon": -91.17638889,
    "communications": [],
    "elevation": 63,
    "tower": false,
    "name": "[H] La Dotd Headquarters",
    "runways": [
      {
        "type": 102,
        "width": 15.2,
        "surfaceType": 2,
        "numberStart": "H1",
        "numberEnd": null,
        "latStart": 30.45916666,
        "lonStart": -91.17638889,
        "latEnd": null,
        "lonEnd": null,
        "length": 15.2
      }
    ],
    "id": 30796
  },
  {
    "type": 17,
    "icao": "LA28",
    "lat": 30.44824611,
    "lon": -91.10602167,
    "communications": [],
    "elevation": 55,
    "tower": false,
    "name": "[H] Louisiana State Police Academy",
    "runways": [
      {
        "type": 102,
        "width": 10.7,
        "surfaceType": 2,
        "numberStart": "H1",
        "numberEnd": null,
        "latStart": 30.44824611,
        "lonStart": -91.10602167,
        "latEnd": null,
        "lonEnd": null,
        "length": 10.7
      }
    ],
    "id": 30951
  },
  {
    "type": 17,
    "icao": "8LA2",
    "lat": 30.44907944,
    "lon": -91.13705028,
    "communications": [],
    "elevation": 51,
    "tower": false,
    "name": "[H] Louisiana State Police Headquarters",
    "runways": [
      {
        "type": 102,
        "width": 12.2,
        "surfaceType": 2,
        "numberStart": "H1",
        "numberEnd": null,
        "latStart": 30.44907944,
        "lonStart": -91.13705028,
        "latEnd": null,
        "lonEnd": null,
        "length": 12.2
      }
    ],
    "id": 30952
  },
  {
    "type": 17,
    "icao": "LA99",
    "lat": 30.442135,
    "lon": -91.00010223,
    "communications": [],
    "elevation": 40,
    "tower": false,
    "name": "[H] Medical Center of Baton Rouge",
    "runways": [
      {
        "type": 102,
        "width": 15.2,
        "surfaceType": 2,
        "numberStart": "H1",
        "numberEnd": null,
        "latStart": 30.442135,
        "lonStart": -91.00010223,
        "latEnd": null,
        "lonEnd": null,
        "length": 15.2
      }
    ],
    "id": 31195
  },
  {
    "type": 17,
    "icao": "29LA",
    "lat": 30.40435833,
    "lon": -91.10454917,
    "communications": [],
    "elevation": 44,
    "tower": false,
    "name": "[H] Our Lady of The Lake R.M.C.",
    "runways": [
      {
        "type": 102,
        "width": 14.6,
        "surfaceType": 2,
        "numberStart": "H1",
        "numberEnd": null,
        "latStart": 30.40435833,
        "lonStart": -91.10454917,
        "latEnd": null,
        "lonEnd": null,
        "length": 14.6
      }
    ],
    "id": 31788
  },
  {
    "type": 17,
    "icao": "LS06",
    "lat": 30.68324138,
    "lon": -91.46122417,
    "communications": [],
    "elevation": 37,
    "tower": false,
    "name": "[H] Pointe Coupee General Hospital",
    "runways": [
      {
        "type": 102,
        "width": 12.2,
        "surfaceType": 2,
        "numberStart": "H1",
        "numberEnd": null,
        "latStart": 30.68324138,
        "lonStart": -91.46122417,
        "latEnd": null,
        "lonEnd": null,
        "length": 12.2
      }
    ],
    "id": 32075
  },
  {
    "type": 17,
    "icao": "94LA",
    "lat": 30.08908805,
    "lon": -91.00232167,
    "communications": [],
    "elevation": 15,
    "tower": false,
    "name": "[H] Prevost Memorial Hospital",
    "runways": [
      {
        "type": 102,
        "width": 9.1,
        "surfaceType": 2,
        "numberStart": "H1",
        "numberEnd": null,
        "latStart": 30.08908805,
        "lonStart": -91.00232167,
        "latEnd": null,
        "lonEnd": null,
        "length": 9.1
      }
    ],
    "id": 32154
  },
  {
    "type": 17,
    "icao": "LA45",
    "lat": 30.26213944,
    "lon": -91.24510778,
    "communications": [],
    "elevation": 19,
    "tower": false,
    "name": "[H] River West Medical Center",
    "runways": [
      {
        "type": 102,
        "width": 15.2,
        "surfaceType": 2,
        "numberStart": "H1",
        "numberEnd": null,
        "latStart": 30.26213944,
        "lonStart": -91.24510778,
        "latEnd": null,
        "lonEnd": null,
        "length": 15.2
      }
    ],
    "id": 32362
  },
  {
    "type": 17,
    "icao": "LA96",
    "lat": 30.76090527,
    "lon": -91.33863945,
    "communications": [],
    "elevation": 115,
    "tower": false,
    "name": "[H] Riverbend",
    "runways": [
      {
        "type": 102,
        "width": 6.1,
        "surfaceType": 2,
        "numberStart": "H1",
        "numberEnd": null,
        "latStart": 30.76090527,
        "lonStart": -91.33863945,
        "latEnd": null,
        "lonEnd": null,
        "length": 12.2
      }
    ],
    "id": 32363
  },
  {
    "type": 17,
    "icao": "LA06",
    "lat": 30.40186388,
    "lon": -91.93511723,
    "communications": [],
    "elevation": 23,
    "tower": false,
    "name": "[H] St Luke General Hospital",
    "runways": [
      {
        "type": 102,
        "width": 12.2,
        "surfaceType": 2,
        "numberStart": "H1",
        "numberEnd": null,
        "latStart": 30.40186388,
        "lonStart": -91.93511723,
        "latEnd": null,
        "lonEnd": null,
        "length": 12.2
      }
    ],
    "id": 32942
  },
  {
    "type": 17,
    "icao": "67LA",
    "lat": 30.46296805,
    "lon": -91.11399417,
    "communications": [],
    "elevation": 48,
    "tower": false,
    "name": "[H] Transcontinental Gas Pipeline Corp",
    "runways": [
      {
        "type": 102,
        "width": 6.1,
        "surfaceType": 2,
        "numberStart": "H1",
        "numberEnd": null,
        "latStart": 30.46296805,
        "lonStart": -91.11399417,
        "latEnd": null,
        "lonEnd": null,
        "length": 6.1
      }
    ],
    "id": 33374
  },
  {
    "type": 17,
    "icao": "96LA",
    "lat": 30.40158055,
    "lon": -91.05454778,
    "communications": [],
    "elevation": 68,
    "tower": false,
    "name": "[H] Troop A",
    "runways": [
      {
        "type": 102,
        "width": 3.7,
        "surfaceType": 2,
        "numberStart": "H1",
        "numberEnd": null,
        "latStart": 30.40158055,
        "lonStart": -91.05454778,
        "latEnd": null,
        "lonEnd": null,
        "length": 3.7
      }
    ],
    "id": 33399
  },
  {
    "type": 17,
    "icao": "LS55",
    "lat": 30.23880666,
    "lon": -91.05371334,
    "communications": [],
    "elevation": 13,
    "tower": false,
    "name": "[H] Union Texas Petroleum",
    "runways": [
      {
        "type": 102,
        "width": 45.7,
        "surfaceType": 3,
        "numberStart": "H1",
        "numberEnd": null,
        "latStart": 30.23880666,
        "lonStart": -91.05371334,
        "latEnd": null,
        "lonEnd": null,
        "length": 45.7
      }
    ],
    "id": 33487
  },
  {
    "type": 17,
    "icao": "49LA",
    "lat": 30.44657777,
    "lon": -91.09301945,
    "communications": [],
    "elevation": 45,
    "tower": false,
    "name": "[H] Womans Hospital",
    "runways": [
      {
        "type": 102,
        "width": 12.2,
        "surfaceType": 1,
        "numberStart": "H1",
        "numberEnd": null,
        "latStart": 30.44657777,
        "lonStart": -91.09301945,
        "latEnd": null,
        "lonEnd": null,
        "length": 12.2
      }
    ],
    "id": 33894
  }
]