[
  {
    "type": 1,
    "icao": "SKIP",
    "lat": 0.861925,
    "lon": -77.6717625,
    "communications": [
      {
        "type": 54,
        "frequency": 11830,
        "name": "TWR"
      },
      {
        "type": 55,
        "frequency": 12010,
        "name": "ANDES APP"
      }
    ],
    "elevation": 9765,
    "tower": true,
    "name": "SAN LUIS",
    "runways": [
      {
        "type": 100,
        "width": 28.04,
        "surfaceType": null,
        "numberStart": "06",
        "numberEnd": "24",
        "latStart": 0.858081,
        "lonStart": -77.678711,
        "latEnd": 0.865769,
        "lonEnd": -77.664814,
        "length": 0,
        "surfacetype": 1
      }
    ],
    "id": 21986
  },
  {
    "type": 1,
    "icao": "SETU",
    "lat": 0.809507,
    "lon": -77.708057,
    "communications": [
      {
        "type": 54,
        "frequency": 12200,
        "name": "TULCAN TWR"
      },
      {
        "type": 55,
        "frequency": 12010,
        "name": "ANDES APP"
      }
    ],
    "elevation": 9649,
    "tower": true,
    "name": "TENIENTE CORONEL LUIS A MANTILLA",
    "runways": [
      {
        "type": 100,
        "width": 29.87,
        "surfaceType": null,
        "numberStart": "05",
        "numberEnd": "23",
        "latStart": 0.803083,
        "lonStart": -77.717133,
        "latEnd": 0.815931,
        "lonEnd": -77.698981,
        "length": 0,
        "surfacetype": 1
      }
    ],
    "id": 24649
  }
]