[
  {
    "type": 1,
    "icao": "CL77",
    "lat": 37.070504,
    "lon": -42.531090215,
    "communications": [],
    "elevation": 2020,
    "tower": false,
    "name": "Bonny Doon Village",
    "runways": [
      {
        "type": 100,
        "width": 15.24,
        "surfaceType": null,
        "numberStart": "12",
        "numberEnd": "30",
        "latStart": 37.07214979,
        "lonStart": -122.13103864,
        "latEnd": 37.06885821,
        "lonEnd": -122.12389336,
        "length": 0,
        "surfacetype": 1
      }
    ],
    "id": 2979
  },
  {
    "type": 1,
    "icao": "KHAF",
    "lat": 37.51343858,
    "lon": -42.49931763000001,
    "communications": [
      {
        "type": 51,
        "frequency": 12280,
        "name": "CTAF/UNICOM"
      },
      {
        "type": 55,
        "frequency": 13510,
        "name": "NORCAL APP/DEP"
      }
    ],
    "elevation": 64,
    "tower": false,
    "name": "Half Moon Bay",
    "runways": [
      {
        "type": 100,
        "width": 46.02,
        "surfaceType": null,
        "numberStart": "12",
        "numberEnd": "30",
        "latStart": 37.51845864,
        "lonStart": -122.50705378,
        "latEnd": 37.50841852,
        "lonEnd": -122.49527487,
        "length": 0,
        "surfacetype": 1
      }
    ],
    "id": 11327
  },
  {
    "type": 1,
    "icao": "17CL",
    "lat": 37.088003,
    "lon": -42.59419074,
    "communications": [],
    "elevation": 125,
    "tower": false,
    "name": "Las Trancas",
    "runways": [
      {
        "type": 100,
        "width": 9.14,
        "surfaceType": null,
        "numberStart": "14",
        "numberEnd": "32",
        "latStart": 37.08936881,
        "lonStart": -122.27501867,
        "latEnd": 37.08663719,
        "lonEnd": -122.27214533,
        "length": 0,
        "surfacetype": 5
      }
    ],
    "id": 14991
  },
  {
    "type": 1,
    "icao": "59CA",
    "lat": 37.803259999999995,
    "lon": -42.11334962000001,
    "communications": [],
    "elevation": 1008,
    "tower": false,
    "name": "Little Hands",
    "runways": [
      {
        "type": 100,
        "width": 15.24,
        "surfaceType": null,
        "numberStart": "18",
        "numberEnd": "36",
        "latStart": 37.80500024,
        "lonStart": -122.028219,
        "latEnd": 37.80151976,
        "lonEnd": -122.02948212,
        "length": 0,
        "surfacetype": 4
      }
    ],
    "id": 15342
  },
  {
    "type": 1,
    "icao": "23Q",
    "lat": 37.661319,
    "lon": -42.017199295,
    "communications": [],
    "elevation": 730,
    "tower": false,
    "name": "Meadowlark Field",
    "runways": [
      {
        "type": 100,
        "width": 7.62,
        "surfaceType": null,
        "numberStart": "07",
        "numberEnd": "25",
        "latStart": 37.66044652,
        "lonStart": -121.69659007,
        "latEnd": 37.66219148,
        "lonEnd": -121.69053393,
        "length": 0,
        "surfacetype": 1
      }
    ],
    "id": 16998
  },
  {
    "type": 1,
    "icao": "KNUQ",
    "lat": 37.416138527499996,
    "lon": -42.3249682425,
    "communications": [
      {
        "type": 50,
        "frequency": 12417,
        "name": "ASOS"
      },
      {
        "type": 50,
        "frequency": 12210,
        "name": "MOFFETT AWOS"
      },
      {
        "type": 51,
        "frequency": 11955,
        "name": "MOFFETT CTAF"
      },
      {
        "type": 53,
        "frequency": 12185,
        "name": "MOFFETT GND"
      },
      {
        "type": 54,
        "frequency": 11955,
        "name": "MOFFETT TWR"
      },
      {
        "type": 55,
        "frequency": 13450,
        "name": "MOFFETT APP"
      },
      {
        "type": 56,
        "frequency": 12130,
        "name": "MOFFETT DEP"
      }
    ],
    "elevation": 33,
    "tower": true,
    "name": "Moffett Federal AFLD",
    "runways": [
      {
        "type": 100,
        "width": 60.96,
        "surfaceType": null,
        "numberStart": "14L",
        "numberEnd": "32R",
        "latStart": 37.42932581,
        "lonStart": -122.05482627,
        "latEnd": 37.405542,
        "lonEnd": -122.042603,
        "length": 0,
        "surfacetype": 2
      },
      {
        "type": 100,
        "width": 60.96,
        "surfaceType": null,
        "numberStart": "14R",
        "numberEnd": "32L",
        "latStart": 37.425231,
        "lonStart": -122.055044,
        "latEnd": 37.4044553,
        "lonEnd": -122.04435577,
        "length": 0,
        "surfacetype": 1
      }
    ],
    "id": 17350
  },
  {
    "type": 1,
    "icao": "KRHV",
    "lat": 37.332871,
    "lon": -42.246768,
    "communications": [
      {
        "type": 50,
        "frequency": 12520,
        "name": "ATIS"
      },
      {
        "type": 51,
        "frequency": 11980,
        "name": "CTAF"
      },
      {
        "type": 51,
        "frequency": 12295,
        "name": "UNICOM"
      },
      {
        "type": 53,
        "frequency": 12165,
        "name": "GND"
      },
      {
        "type": 54,
        "frequency": 12610,
        "name": "TWR"
      },
      {
        "type": 54,
        "frequency": 11980,
        "name": "TWR"
      },
      {
        "type": 55,
        "frequency": 12010,
        "name": "NORCAL APP"
      },
      {
        "type": 55,
        "frequency": 13395,
        "name": "NORCAL APP"
      },
      {
        "type": 55,
        "frequency": 13450,
        "name": "NORCAL APP"
      },
      {
        "type": 56,
        "frequency": 12130,
        "name": "NORCAL DEP"
      }
    ],
    "elevation": 133,
    "tower": true,
    "name": "Reid Hillview Of Santa Clara Co",
    "runways": [
      {
        "type": 100,
        "width": 22.86,
        "surfaceType": null,
        "numberStart": "13L",
        "numberEnd": "31R",
        "latStart": 37.336514,
        "lonStart": -121.822603,
        "latEnd": 37.329725,
        "lonEnd": -121.816167,
        "length": 0,
        "surfacetype": 1
      },
      {
        "type": 100,
        "width": 22.86,
        "surfaceType": null,
        "numberStart": "13R",
        "numberEnd": "31L",
        "latStart": 37.336014,
        "lonStart": -121.823425,
        "latEnd": 37.329231,
        "lonEnd": -121.816992,
        "length": 0,
        "surfacetype": 1
      }
    ],
    "id": 21333
  },
  {
    "type": 1,
    "icao": "KSQL",
    "lat": 37.511734860000004,
    "lon": -42.371668735,
    "communications": [
      {
        "type": 51,
        "frequency": 11900,
        "name": "San Carlos CTAF"
      },
      {
        "type": 53,
        "frequency": 12160,
        "name": "San Carlos Ground"
      },
      {
        "type": 54,
        "frequency": 11900,
        "name": "San Carlos Tower"
      },
      {
        "type": 55,
        "frequency": 13395,
        "name": "Norcal Approach"
      },
      {
        "type": 56,
        "frequency": 13565,
        "name": "Norcal Departure"
      }
    ],
    "elevation": 5,
    "tower": true,
    "name": "San Carlos",
    "runways": [
      {
        "type": 100,
        "width": 22.86,
        "surfaceType": null,
        "numberStart": "12",
        "numberEnd": "30",
        "latStart": 37.51441788,
        "lonStart": -122.25238931,
        "latEnd": 37.50905184,
        "lonEnd": -122.24638214,
        "length": 0,
        "surfacetype": 1
      }
    ],
    "id": 22789
  },
  {
    "type": 1,
    "icao": "KSJC",
    "lat": 37.36237466666666,
    "lon": -42.293187171666666,
    "communications": [
      {
        "type": 50,
        "frequency": 12695,
        "name": "ATIS"
      },
      {
        "type": 51,
        "frequency": 12400,
        "name": "CTAF"
      },
      {
        "type": 52,
        "frequency": 11800,
        "name": "CLNC DEL"
      },
      {
        "type": 53,
        "frequency": 12170,
        "name": "GND"
      },
      {
        "type": 54,
        "frequency": 12400,
        "name": "TWR"
      },
      {
        "type": 55,
        "frequency": 12010,
        "name": "NORCAL APP"
      },
      {
        "type": 55,
        "frequency": 12535,
        "name": "NORCAL APP"
      },
      {
        "type": 55,
        "frequency": 13450,
        "name": "NORCAL APP"
      },
      {
        "type": 56,
        "frequency": 12130,
        "name": "NORCAL DEP"
      }
    ],
    "elevation": 62,
    "tower": true,
    "name": "San Jose Norman Y Mineta Intl",
    "runways": [
      {
        "type": 100,
        "width": 46.02,
        "surfaceType": null,
        "numberStart": "12R",
        "numberEnd": "30L",
        "latStart": 37.37372824,
        "lonStart": -121.94198675,
        "latEnd": 37.35099176,
        "lonEnd": -121.91706725,
        "length": 0,
        "surfacetype": 2
      },
      {
        "type": 100,
        "width": 46.02,
        "surfaceType": null,
        "numberStart": "12L",
        "numberEnd": "30R",
        "latStart": 37.3749922,
        "lonStart": -121.94017482,
        "latEnd": 37.3522578,
        "lonEnd": -121.91525717,
        "length": 0,
        "surfacetype": 2
      },
      {
        "type": 100,
        "width": 29.87,
        "surfaceType": null,
        "numberStart": "11",
        "numberEnd": "29",
        "latStart": 37.36589188,
        "lonStart": -121.93659714,
        "latEnd": 37.35638612,
        "lonEnd": -121.92617886,
        "length": 0,
        "surfacetype": 1
      }
    ],
    "id": 22809
  },
  {
    "type": 1,
    "icao": "E16",
    "lat": 37.081585000000004,
    "lon": -42.260628999999994,
    "communications": [
      {
        "type": 51,
        "frequency": 12270,
        "name": "CTAF/UNICOM"
      },
      {
        "type": 55,
        "frequency": 12010,
        "name": "NORCAL APP/DEP"
      },
      {
        "type": 55,
        "frequency": 12452,
        "name": "NORCAL APP/DEP"
      }
    ],
    "elevation": 281,
    "tower": false,
    "name": "South Co Arpt Of Santa Clara Co",
    "runways": [
      {
        "type": 100,
        "width": 22.86,
        "surfaceType": null,
        "numberStart": "14",
        "numberEnd": "32",
        "latStart": 37.085481,
        "lonStart": -121.598947,
        "latEnd": 37.077689,
        "lonEnd": -121.594661,
        "length": 0,
        "surfacetype": 1
      }
    ],
    "id": 23878
  },
  {
    "type": 16,
    "icao": "SP01",
    "lat": 37.840973,
    "lon": -42.245166345,
    "communications": [],
    "elevation": 0,
    "tower": false,
    "name": "[S] S.F. Bay Landing Zone",
    "runways": [
      {
        "type": 101,
        "width": 1706.88,
        "surfaceType": null,
        "numberStart": "10C",
        "numberEnd": "28C",
        "latStart": 37.81936253,
        "lonStart": -122.35291616,
        "latEnd": 37.86258347,
        "lonEnd": -122.34326584,
        "length": 0
      }
    ],
    "id": 34408
  },
  {
    "type": 16,
    "icao": "0O0",
    "lat": 37.073047465,
    "lon": -42.03663393,
    "communications": [],
    "elevation": 518,
    "tower": false,
    "name": "[S] San Luis Reservoir Seaplane Base",
    "runways": [
      {
        "type": 101,
        "width": 2438.1,
        "surfaceType": null,
        "numberStart": "17",
        "numberEnd": "35",
        "latStart": 37.08401573,
        "lonStart": -121.13534706,
        "latEnd": 37.0620792,
        "lonEnd": -121.13463711,
        "length": 0
      }
    ],
    "id": 34425
  }
]