[
  {
    "type": 1,
    "icao": "LTBS",
    "lat": 36.7131885,
    "lon": 32.75714886,
    "communications": [
      {
        "type": 50,
        "frequency": 12735,
        "name": "ATIS"
      },
      {
        "type": 53,
        "frequency": 12190,
        "name": "GND"
      },
      {
        "type": 54,
        "frequency": 11850,
        "name": "TWR"
      },
      {
        "type": 54,
        "frequency": 12890,
        "name": "TWR"
      },
      {
        "type": 55,
        "frequency": 11922,
        "name": "APP"
      },
      {
        "type": 55,
        "frequency": 12950,
        "name": "APP"
      }
    ],
    "elevation": 20,
    "tower": true,
    "name": "DALAMAN",
    "runways": [
      {
        "type": 100,
        "width": 45.11,
        "surfaceType": null,
        "numberStart": "01",
        "numberEnd": "19",
        "latStart": 36.70016523,
        "lonStart": 28.78808595,
        "latEnd": 36.72621177,
        "lonEnd": 28.79694055,
        "length": 0,
        "surfacetype": 2
      }
    ],
    "id": 5649
  },
  {
    "type": 1,
    "icao": "LGRP",
    "lat": 36.4054195,
    "lon": 32.239684499999996,
    "communications": [
      {
        "type": 50,
        "frequency": 12635,
        "name": "ATIS"
      },
      {
        "type": 53,
        "frequency": 12170,
        "name": "GND"
      },
      {
        "type": 54,
        "frequency": 11820,
        "name": "TWR"
      },
      {
        "type": 54,
        "frequency": 12210,
        "name": "TWR"
      },
      {
        "type": 55,
        "frequency": 11825,
        "name": "RODOS APP"
      },
      {
        "type": 55,
        "frequency": 12060,
        "name": "RODOS APP"
      },
      {
        "type": 55,
        "frequency": 12210,
        "name": "RODOS APP"
      }
    ],
    "elevation": 17,
    "tower": true,
    "name": "DIAGORAS",
    "runways": [
      {
        "type": 100,
        "width": 45.11,
        "surfaceType": null,
        "numberStart": "07",
        "numberEnd": "25",
        "latStart": 36.400339,
        "lonStart": 28.068869,
        "latEnd": 36.4105,
        "lonEnd": 28.103517,
        "length": 0,
        "surfacetype": 1
      }
    ],
    "id": 5789
  },
  {
    "type": 1,
    "icao": "LGRD",
    "lat": 36.38367975,
    "lon": 32.243541,
    "communications": [
      {
        "type": 54,
        "frequency": 11810,
        "name": "TWR"
      },
      {
        "type": 55,
        "frequency": 12060,
        "name": "RODOS APP"
      }
    ],
    "elevation": 204,
    "tower": true,
    "name": "MARITSA",
    "runways": [
      {
        "type": 100,
        "width": 45.11,
        "surfaceType": null,
        "numberStart": "08",
        "numberEnd": "26",
        "latStart": 36.381111,
        "lonStart": 28.095556,
        "latEnd": 36.384997,
        "lonEnd": 28.122222,
        "length": 0,
        "surfacetype": 1
      },
      {
        "type": 100,
        "width": 60.05,
        "surfaceType": null,
        "numberStart": "14",
        "numberEnd": "32",
        "latStart": 36.388611,
        "lonStart": 28.113611,
        "latEnd": 36.38,
        "lonEnd": 28.121944,
        "length": 0,
        "surfacetype": 1
      }
    ],
    "id": 15846
  }
]