[
  {
    "type": 1,
    "icao": "VA1L",
    "lat": 21.9260905,
    "lon": 50.0184335,
    "communications": [],
    "elevation": 2435,
    "tower": false,
    "name": "AMLA",
    "runways": [
      {
        "type": 100,
        "width": 53.34,
        "surfaceType": null,
        "numberStart": "08",
        "numberEnd": "26",
        "latStart": 21.925628,
        "lonStart": 78.110314,
        "latEnd": 21.926553,
        "lonEnd": 78.116964,
        "length": 0,
        "surfacetype": 1
      }
    ],
    "id": 278
  },
  {
    "type": 1,
    "icao": "VANP",
    "lat": 21.0947675,
    "lon": 50.062482,
    "communications": [
      {
        "type": 53,
        "frequency": 12190,
        "name": "GND"
      },
      {
        "type": 54,
        "frequency": 11810,
        "name": "TWR"
      },
      {
        "type": 55,
        "frequency": 12270,
        "name": "APP"
      }
    ],
    "elevation": 1033,
    "tower": true,
    "name": "DR AMBEDKAR INTL",
    "runways": [
      {
        "type": 100,
        "width": 45.72,
        "surfaceType": null,
        "numberStart": "14",
        "numberEnd": "32",
        "latStart": 21.109022,
        "lonStart": 79.033833,
        "latEnd": 21.085753,
        "lonEnd": 79.052272,
        "length": 0,
        "surfacetype": 1
      },
      {
        "type": 100,
        "width": 45.72,
        "surfaceType": null,
        "numberStart": "09",
        "numberEnd": "27",
        "latStart": 21.091289,
        "lonStart": 79.037336,
        "latEnd": 21.093006,
        "lonEnd": 79.055958,
        "length": 0,
        "surfacetype": 1
      }
    ],
    "id": 5869
  },
  {
    "type": 1,
    "icao": "VA2C",
    "lat": 21.5262165,
    "lon": 50.908235,
    "communications": [],
    "elevation": 990,
    "tower": false,
    "name": "GONDIA",
    "runways": [
      {
        "type": 100,
        "width": 45.72,
        "surfaceType": null,
        "numberStart": "05",
        "numberEnd": "23",
        "latStart": 21.520669,
        "lonStart": 80.284706,
        "latEnd": 21.531764,
        "lonEnd": 80.296156,
        "length": 0,
        "surfacetype": 1
      }
    ],
    "id": 10066
  }
]