[
  {
    "type": 1,
    "icao": "EDWZ",
    "lat": 53.724844000000004,
    "lon": 30.5476235,
    "communications": [
      {
        "type": 54,
        "frequency": 12305,
        "name": "Baltrum Info"
      }
    ],
    "elevation": 5,
    "tower": true,
    "name": "Baltrum",
    "runways": [
      {
        "type": 100,
        "width": 14.94,
        "surfaceType": null,
        "numberStart": "10",
        "numberEnd": "28",
        "latStart": 53.72497,
        "lonStart": 7.370529,
        "latEnd": 53.724718,
        "lonEnd": 7.375957,
        "length": 0,
        "surfacetype": 1
      }
    ],
    "id": 2154
  },
  {
    "type": 1,
    "icao": "EDXL",
    "lat": 53.164608,
    "lon": 30.476547500000002,
    "communications": [
      {
        "type": 54,
        "frequency": 12200,
        "name": "Barssel Info"
      }
    ],
    "elevation": 9,
    "tower": true,
    "name": "Barssel",
    "runways": [
      {
        "type": 100,
        "width": 29.87,
        "surfaceType": null,
        "numberStart": "12",
        "numberEnd": "30",
        "latStart": 53.165971,
        "lonStart": 7.78985,
        "latEnd": 53.163245,
        "lonEnd": 7.797605,
        "length": 0,
        "surfacetype": 3
      }
    ],
    "id": 2289
  },
  {
    "type": 1,
    "icao": "EDWR",
    "lat": 53.5956179,
    "lon": 30.150073168333336,
    "communications": [
      {
        "type": 54,
        "frequency": 12300,
        "name": "Borkum Info"
      },
      {
        "type": 56,
        "frequency": 12510,
        "name": "Bremen Information"
      }
    ],
    "elevation": 2,
    "tower": true,
    "name": "Borkum",
    "runways": [
      {
        "type": 100,
        "width": 20.12,
        "surfaceType": null,
        "numberStart": "13",
        "numberEnd": "31",
        "latStart": 53.597071,
        "lonStart": 6.710205,
        "latEnd": 53.591305,
        "lonEnd": 6.721804,
        "length": 0,
        "surfacetype": 1
      },
      {
        "type": 100,
        "width": 40.06,
        "surfaceType": null,
        "numberStart": "12",
        "numberEnd": "30",
        "latStart": 53.5973152,
        "lonStart": 6.70177278,
        "latEnd": 53.59368962,
        "lonEnd": 6.71352057,
        "length": 0,
        "surfacetype": 3
      },
      {
        "type": 100,
        "width": 40.07,
        "surfaceType": null,
        "numberStart": "05",
        "numberEnd": "23",
        "latStart": 53.59467073,
        "lonStart": 6.70381076,
        "latEnd": 53.59965585,
        "lonEnd": 6.71283073,
        "length": 0,
        "surfacetype": 3
      }
    ],
    "id": 3018
  },
  {
    "type": 1,
    "icao": "EDWQ",
    "lat": 53.036059,
    "lon": 30.7681075,
    "communications": [
      {
        "type": 54,
        "frequency": 11862,
        "name": "Ganderkesee Info"
      }
    ],
    "elevation": 96,
    "tower": true,
    "name": "Ganderkesee Atlas Airfield",
    "runways": [
      {
        "type": 100,
        "width": 21.95,
        "surfaceType": null,
        "numberStart": "08",
        "numberEnd": "26",
        "latStart": 53.035274,
        "lonStart": 8.499371,
        "latEnd": 53.036844,
        "lonEnd": 8.511517,
        "length": 0,
        "surfacetype": 1
      }
    ],
    "id": 10289
  },
  {
    "type": 1,
    "icao": "EDXP",
    "lat": 53.7065985,
    "lon": 30.761632499999997,
    "communications": [
      {
        "type": 54,
        "frequency": 12240,
        "name": "Harle Info"
      }
    ],
    "elevation": 6,
    "tower": true,
    "name": "Harle",
    "runways": [
      {
        "type": 100,
        "width": 20.12,
        "surfaceType": null,
        "numberStart": "09",
        "numberEnd": "27",
        "latStart": 53.70637,
        "lonStart": 7.816438,
        "latEnd": 53.706827,
        "lonEnd": 7.824188,
        "length": 0,
        "surfacetype": 1
      }
    ],
    "id": 11450
  },
  {
    "type": 1,
    "icao": "EDAH",
    "lat": 53.879191594,
    "lon": 30.033380508000004,
    "communications": [
      {
        "type": 54,
        "frequency": 13282,
        "name": "Heringsdorf Tower"
      },
      {
        "type": 56,
        "frequency": 13465,
        "name": "Bremen Radar"
      }
    ],
    "elevation": 92,
    "tower": true,
    "name": "Heringsdorf",
    "runways": [
      {
        "type": 100,
        "width": 30,
        "surfaceType": null,
        "numberStart": "10R",
        "numberEnd": "28L",
        "latStart": 53.87984439,
        "lonStart": 14.14057781,
        "latEnd": 53.87838236,
        "lonEnd": 14.14939534,
        "length": 0,
        "surfacetype": 3
      },
      {
        "type": 100,
        "width": 35,
        "surfaceType": null,
        "numberStart": "10",
        "numberEnd": "28",
        "latStart": 53.88163587,
        "lonStart": 14.13444797,
        "latEnd": 53.8760721,
        "lonEnd": 14.16834532,
        "length": 0,
        "surfacetype": 1
      },
      {
        "type": 102,
        "width": 18.3,
        "surfaceType": 2,
        "numberStart": "H1",
        "numberEnd": null,
        "latStart": 53.88002325,
        "lonStart": 14.1374223,
        "latEnd": null,
        "lonEnd": null,
        "length": 18.3
      }
    ],
    "id": 11713
  },
  {
    "type": 1,
    "icao": "ETNJ",
    "lat": 53.533514,
    "lon": 30.700216,
    "communications": [],
    "elevation": 22,
    "tower": false,
    "name": "Jever AB (closed)",
    "runways": [
      {
        "type": 100,
        "width": 30,
        "surfaceType": null,
        "numberStart": "10",
        "numberEnd": "28",
        "latStart": 53.535917,
        "lonStart": 7.869321,
        "latEnd": 53.531111,
        "lonEnd": 7.908497,
        "length": 0,
        "surfacetype": 1
      }
    ],
    "id": 12980
  },
  {
    "type": 1,
    "icao": "EDWJ",
    "lat": 53.680345005,
    "lon": 30.367157965,
    "communications": [
      {
        "type": 54,
        "frequency": 12050,
        "name": "Juist INFO"
      }
    ],
    "elevation": 7,
    "tower": true,
    "name": "Juist",
    "runways": [
      {
        "type": 100,
        "width": 20.12,
        "surfaceType": null,
        "numberStart": "08",
        "numberEnd": "26",
        "latStart": 53.68051,
        "lonStart": 7.051346,
        "latEnd": 53.682003,
        "lonEnd": 7.061652,
        "length": 0,
        "surfacetype": 2
      },
      {
        "type": 100,
        "width": 29.87,
        "surfaceType": null,
        "numberStart": "12",
        "numberEnd": "30",
        "latStart": 53.6806977,
        "lonStart": 7.05506602,
        "latEnd": 53.67951285,
        "lonEnd": 7.06085241,
        "length": 0,
        "surfacetype": 3
      },
      {
        "type": 100,
        "width": 32.97,
        "surfaceType": null,
        "numberStart": "08R",
        "numberEnd": "26L",
        "latStart": 53.67943965,
        "lonStart": 7.05511309,
        "latEnd": 53.67990683,
        "lonEnd": 7.05982112,
        "length": 0,
        "surfacetype": 3
      }
    ],
    "id": 13132
  },
  {
    "type": 1,
    "icao": "EDWF",
    "lat": 53.271770000000004,
    "lon": 30.352558,
    "communications": [
      {
        "type": 54,
        "frequency": 12510,
        "name": "Bremen Information"
      },
      {
        "type": 54,
        "frequency": 13077,
        "name": "Leer Info"
      }
    ],
    "elevation": 2,
    "tower": true,
    "name": "Leer-Papenburg",
    "runways": [
      {
        "type": 100,
        "width": 20.12,
        "surfaceType": null,
        "numberStart": "08",
        "numberEnd": "26",
        "latStart": 53.270704,
        "lonStart": 7.43228,
        "latEnd": 53.272836,
        "lonEnd": 7.450824,
        "length": 0,
        "surfacetype": 1
      }
    ],
    "id": 15109
  },
  {
    "type": 1,
    "icao": "EDWS",
    "lat": 53.633120000000005,
    "lon": 30.4092355,
    "communications": [
      {
        "type": 54,
        "frequency": 12510,
        "name": "Bremen Information"
      },
      {
        "type": 54,
        "frequency": 12050,
        "name": "Norddeich Info"
      }
    ],
    "elevation": 2,
    "tower": true,
    "name": "Norden Norddeich",
    "runways": [
      {
        "type": 100,
        "width": 20.12,
        "surfaceType": null,
        "numberStart": "16",
        "numberEnd": "34",
        "latStart": 53.636152,
        "lonStart": 7.188383,
        "latEnd": 53.630088,
        "lonEnd": 7.192158,
        "length": 0,
        "surfacetype": 1
      }
    ],
    "id": 18403
  },
  {
    "type": 1,
    "icao": "EDWY",
    "lat": 53.7068955,
    "lon": 30.464873,
    "communications": [
      {
        "type": 54,
        "frequency": 12200,
        "name": "Norderney INFO"
      }
    ],
    "elevation": 5,
    "tower": true,
    "name": "Norderney",
    "runways": [
      {
        "type": 100,
        "width": 20.12,
        "surfaceType": null,
        "numberStart": "09",
        "numberEnd": "27",
        "latStart": 53.706565,
        "lonStart": 7.22252,
        "latEnd": 53.707226,
        "lonEnd": 7.2376,
        "length": 0,
        "surfacetype": 1
      }
    ],
    "id": 18404
  },
  {
    "type": 1,
    "icao": "EDWH",
    "lat": 53.0686195,
    "lon": 30.688845,
    "communications": [
      {
        "type": 54,
        "frequency": 11817,
        "name": "Oldenburg Info"
      }
    ],
    "elevation": 25,
    "tower": true,
    "name": "Oldenburg Hatten",
    "runways": [
      {
        "type": 100,
        "width": 29.87,
        "surfaceType": null,
        "numberStart": "6",
        "numberEnd": "24",
        "latStart": 53.066736,
        "lonStart": 8.307187,
        "latEnd": 53.070503,
        "lonEnd": 8.317736,
        "length": 0,
        "surfacetype": 3
      }
    ],
    "id": 18905
  },
  {
    "type": 1,
    "icao": "EHOW",
    "lat": 53.201667,
    "lon": 30.11526927,
    "communications": [],
    "elevation": 2,
    "tower": false,
    "name": "Oostwold",
    "runways": [
      {
        "type": 100,
        "width": 74.98,
        "surfaceType": null,
        "numberStart": "07",
        "numberEnd": "25",
        "latStart": 53.19967385,
        "lonStart": 7.02687839,
        "latEnd": 53.20366015,
        "lonEnd": 7.04034361,
        "length": 0,
        "surfacetype": 3
      }
    ],
    "id": 18988
  },
  {
    "type": 1,
    "icao": "EDWX",
    "lat": 53.2886885,
    "lon": 30.6082125,
    "communications": [
      {
        "type": 54,
        "frequency": 12365,
        "name": "Westerstede Info"
      }
    ],
    "elevation": 29,
    "tower": true,
    "name": "Westerstede-Felde",
    "runways": [
      {
        "type": 100,
        "width": 14.94,
        "surfaceType": null,
        "numberStart": "07",
        "numberEnd": "25",
        "latStart": 53.287543,
        "lonStart": 7.926591,
        "latEnd": 53.289834,
        "lonEnd": 7.935036,
        "length": 0,
        "surfacetype": 1
      }
    ],
    "id": 27144
  },
  {
    "type": 1,
    "icao": "EDWP",
    "lat": 53.321279000000004,
    "lon": 30.694679,
    "communications": [
      {
        "type": 54,
        "frequency": 12650,
        "name": "Conneforde Info"
      }
    ],
    "elevation": 29,
    "tower": false,
    "name": "Wiefelstede- Conneforde",
    "runways": [
      {
        "type": 100,
        "width": 30,
        "surfaceType": null,
        "numberStart": "12",
        "numberEnd": "30",
        "latStart": 53.322654,
        "lonStart": 8.069454,
        "latEnd": 53.319904,
        "lonEnd": 8.077193,
        "length": 0,
        "surfacetype": 3
      }
    ],
    "id": 27256
  }
]