[
  {
    "type": 1,
    "icao": "BIHN",
    "lat": 64.29568275,
    "lon": -15.227347179999999,
    "communications": [
      {
        "type": 54,
        "frequency": 11970,
        "name": "ACC"
      },
      {
        "type": 50,
        "frequency": 11910,
        "name": "AFIS"
      }
    ],
    "elevation": 23,
    "tower": false,
    "name": "Hornafjordur",
    "runways": [
      {
        "type": 100,
        "width": 30,
        "surfaceType": null,
        "numberStart": "18",
        "numberEnd": "36",
        "latStart": 64.3022435,
        "lonStart": -15.23078336,
        "latEnd": 64.289122,
        "lonEnd": -15.223911,
        "length": 0,
        "surfacetype": 1
      }
    ],
    "id": 12057
  },
  {
    "type": 1,
    "icao": "BISG",
    "lat": 64.1652813,
    "lon": -15.914541635,
    "communications": [
      {
        "type": 50,
        "frequency": 11810,
        "name": "AFIS"
      }
    ],
    "elevation": 28,
    "tower": false,
    "name": "Steinasandur",
    "runways": [
      {
        "type": 100,
        "width": 22.86,
        "surfaceType": null,
        "numberStart": "06",
        "numberEnd": "24",
        "latStart": 64.16340196,
        "lonStart": -15.91957677,
        "latEnd": 64.16716064,
        "lonEnd": -15.9095065,
        "length": 0,
        "surfacetype": 5
      }
    ],
    "id": 24156
  },
  {
    "type": 1,
    "icao": "BISN",
    "lat": 64.38428601999999,
    "lon": -15.383225395,
    "communications": [
      {
        "type": 50,
        "frequency": 11810,
        "name": "AFIS"
      }
    ],
    "elevation": 59,
    "tower": false,
    "name": "Svinafell",
    "runways": [
      {
        "type": 100,
        "width": 24,
        "surfaceType": null,
        "numberStart": "18",
        "numberEnd": "36",
        "latStart": 64.38659029,
        "lonStart": -15.38416509,
        "latEnd": 64.38198175,
        "lonEnd": -15.3822857,
        "length": 0,
        "surfacetype": 5
      }
    ],
    "id": 24446
  }
]