[
  {
    "type": 1,
    "icao": "SECO",
    "lat": -0.4609265,
    "lon": -38.730607,
    "communications": [
      {
        "type": 54,
        "frequency": 12350,
        "name": "COCA TWR"
      },
      {
        "type": 55,
        "frequency": 11970,
        "name": "QUITO APP"
      },
      {
        "type": 55,
        "frequency": 12120,
        "name": "QUITO APP"
      }
    ],
    "elevation": 834,
    "tower": true,
    "name": "FRANCISCO DE ORELLANA",
    "runways": [
      {
        "type": 100,
        "width": 27.43,
        "surfaceType": null,
        "numberStart": "15",
        "numberEnd": "33",
        "latStart": -0.452578,
        "lonStart": -76.991939,
        "latEnd": -0.469275,
        "lonEnd": -76.983719,
        "length": 0,
        "surfacetype": 1
      }
    ],
    "id": 7675
  },
  {
    "type": 1,
    "icao": "SELA",
    "lat": -0.092222,
    "lon": -38.481065935,
    "communications": [],
    "elevation": 981,
    "tower": true,
    "name": "Lago Agrio",
    "runways": [
      {
        "type": 100,
        "width": 32.92,
        "surfaceType": null,
        "numberStart": "05",
        "numberEnd": "23",
        "latStart": -0.09901173,
        "lonStart": -76.8766996,
        "latEnd": -0.08543227,
        "lonEnd": -76.8610782,
        "length": 0,
        "surfacetype": 2
      }
    ],
    "id": 14777
  },
  {
    "type": 1,
    "icao": "SETR",
    "lat": -0.1229555,
    "lon": -38.235364,
    "communications": [
      {
        "type": 54,
        "frequency": 12910,
        "name": "TWR"
      }
    ],
    "elevation": 814,
    "tower": true,
    "name": "TARAPOA",
    "runways": [
      {
        "type": 100,
        "width": 14.94,
        "surfaceType": null,
        "numberStart": "12",
        "numberEnd": "30",
        "latStart": -0.119008,
        "lonStart": -76.343825,
        "latEnd": -0.126903,
        "lonEnd": -76.331672,
        "length": 0,
        "surfacetype": 1
      }
    ],
    "id": 24596
  },
  {
    "type": 1,
    "icao": "SETI",
    "lat": -0.783056,
    "lon": -38.15176902,
    "communications": [],
    "elevation": 997,
    "tower": true,
    "name": "Tiputini",
    "runways": [
      {
        "type": 100,
        "width": 15.85,
        "surfaceType": null,
        "numberStart": "08",
        "numberEnd": "26",
        "latStart": -0.78408482,
        "lonStart": -75.52151086,
        "latEnd": -0.78202718,
        "lonEnd": -75.51182954,
        "length": 0,
        "surfacetype": 2
      }
    ],
    "id": 25402
  }
]