[
  {
    "type": 1,
    "icao": "EHDS",
    "lat": 52.4632912,
    "lon": 6.3242002,
    "communications": [],
    "elevation": 16,
    "tower": false,
    "name": "Dalfsen Gliders",
    "runways": [
      {
        "type": 100,
        "width": 36.58,
        "surfaceType": null,
        "numberStart": "07",
        "numberEnd": "25",
        "latStart": 52.46154438,
        "lonStart": 6.31710396,
        "latEnd": 52.46503802,
        "lonEnd": 6.33129644,
        "length": 0,
        "surfacetype": 3
      }
    ],
    "id": 5961
  },
  {
    "type": 1,
    "icao": "EHHO",
    "lat": 52.73096075,
    "lon": 6.51710338,
    "communications": [
      {
        "type": 54,
        "frequency": 12735,
        "name": "Hoogeveen Information"
      }
    ],
    "elevation": 41,
    "tower": true,
    "name": "Hoogeveen",
    "runways": [
      {
        "type": 100,
        "width": 24,
        "surfaceType": null,
        "numberStart": "09",
        "numberEnd": "27",
        "latStart": 52.7312835,
        "lonStart": 6.50909496,
        "latEnd": 52.730638,
        "lonEnd": 6.5251118,
        "length": 0,
        "surfacetype": 3
      }
    ],
    "id": 12020
  },
  {
    "type": 1,
    "icao": "EHTE",
    "lat": 52.243007037999995,
    "lon": 6.04953611,
    "communications": [],
    "elevation": 17,
    "tower": false,
    "name": "Teuge International Airport",
    "runways": [
      {
        "type": 100,
        "width": 27,
        "surfaceType": null,
        "numberStart": "08",
        "numberEnd": "26",
        "latStart": 52.24245679,
        "lonStart": 6.04164915,
        "latEnd": 52.2432095,
        "lonEnd": 6.05922878,
        "length": 0,
        "surfacetype": 1
      },
      {
        "type": 100,
        "width": 18.81,
        "surfaceType": null,
        "numberStart": "08L",
        "numberEnd": "26R",
        "latStart": 52.2438455,
        "lonStart": 6.04694687,
        "latEnd": 52.24404026,
        "lonEnd": 6.05271912,
        "length": 0,
        "surfacetype": 3
      },
      {
        "type": 102,
        "width": 5,
        "surfaceType": 15,
        "numberStart": "H1",
        "numberEnd": null,
        "latStart": 52.24148314,
        "lonStart": 6.04713663,
        "latEnd": null,
        "lonEnd": null,
        "length": 5
      }
    ],
    "id": 25197
  },
  {
    "type": 1,
    "icao": "EHTW",
    "lat": 52.27209524999999,
    "lon": 6.886612,
    "communications": [
      {
        "type": 54,
        "frequency": 12210,
        "name": "TWR"
      },
      {
        "type": 54,
        "frequency": 11995,
        "name": "TWR"
      },
      {
        "type": 55,
        "frequency": 12210,
        "name": "APP"
      },
      {
        "type": 55,
        "frequency": 11857,
        "name": "APP"
      },
      {
        "type": 55,
        "frequency": 11857,
        "name": "DIRECTOR"
      },
      {
        "type": 55,
        "frequency": 12210,
        "name": "DIRECTOR"
      },
      {
        "type": 55,
        "frequency": 12245,
        "name": "FINAL"
      },
      {
        "type": 55,
        "frequency": 12330,
        "name": "FINAL"
      }
    ],
    "elevation": 114,
    "tower": true,
    "name": "Twenthe",
    "runways": [
      {
        "type": 100,
        "width": 45.11,
        "surfaceType": null,
        "numberStart": "06",
        "numberEnd": "24",
        "latStart": 52.268182,
        "lonStart": 6.871232,
        "latEnd": 52.283494,
        "lonEnd": 6.907107,
        "length": 0,
        "surfacetype": 1
      },
      {
        "type": 100,
        "width": 24.99,
        "surfaceType": null,
        "numberStart": "11",
        "numberEnd": "29",
        "latStart": 52.271625,
        "lonStart": 6.870472,
        "latEnd": 52.26508,
        "lonEnd": 6.897637,
        "length": 0,
        "surfacetype": 1
      }
    ],
    "id": 25742
  }
]