[
  {
    "type": 1,
    "icao": "KEAN",
    "lat": 42.055520285,
    "lon": -104.928618705,
    "communications": [
      {
        "type": 51,
        "frequency": 12290,
        "name": "CTAF"
      },
      {
        "type": 50,
        "frequency": 12112,
        "name": "AWOS"
      }
    ],
    "elevation": 4773,
    "tower": false,
    "name": "Phifer Airfield",
    "runways": [
      {
        "type": 100,
        "width": 20.91,
        "surfaceType": null,
        "numberStart": "08",
        "numberEnd": "26",
        "latStart": 42.0554386,
        "lonStart": -104.93948629,
        "latEnd": 42.05560197,
        "lonEnd": -104.91775112,
        "length": 0,
        "surfacetype": 1
      }
    ],
    "id": 19064
  },
  {
    "type": 1,
    "icao": "KGUR",
    "lat": 42.259439470000004,
    "lon": -104.728103065,
    "communications": [
      {
        "type": 51,
        "frequency": 12270,
        "name": "CTAF/UNICOM"
      }
    ],
    "elevation": 4399,
    "tower": false,
    "name": "CAMP GUERNSEY",
    "runways": [
      {
        "type": 100,
        "width": 22.86,
        "surfaceType": null,
        "numberStart": "14",
        "numberEnd": "32",
        "latStart": 42.2659304,
        "lonStart": -104.73270756,
        "latEnd": 42.25294854,
        "lonEnd": -104.72349857,
        "length": 0,
        "surfacetype": 1
      }
    ],
    "id": 19233
  },
  {
    "type": 1,
    "icao": "KLSK",
    "lat": 42.75382118,
    "lon": -104.404582325,
    "communications": [
      {
        "type": 51,
        "frequency": 12280,
        "name": "CTAF/UNICOM"
      }
    ],
    "elevation": 4963,
    "tower": false,
    "name": "LUSK MUNI",
    "runways": [
      {
        "type": 100,
        "width": 23,
        "surfaceType": null,
        "numberStart": "10",
        "numberEnd": "28",
        "latStart": 42.7568102,
        "lonStart": -104.41307472,
        "latEnd": 42.75083216,
        "lonEnd": -104.39608993,
        "length": 0,
        "surfacetype": 1
      }
    ],
    "id": 19438
  },
  {
    "type": 1,
    "icao": "KTOR",
    "lat": 42.0648818675,
    "lon": -104.151906815,
    "communications": [
      {
        "type": 50,
        "frequency": 11837,
        "name": "ASOS"
      },
      {
        "type": 51,
        "frequency": 12280,
        "name": "CTAF/UNICOM"
      }
    ],
    "elevation": 4205,
    "tower": false,
    "name": "TORRINGTON MUNI",
    "runways": [
      {
        "type": 100,
        "width": 23,
        "surfaceType": null,
        "numberStart": "10",
        "numberEnd": "28",
        "latStart": 42.06717014,
        "lonStart": -104.1639902,
        "latEnd": 42.06044907,
        "lonEnd": -104.14502684,
        "length": 0,
        "surfacetype": 1
      },
      {
        "type": 100,
        "width": 18,
        "surfaceType": null,
        "numberStart": "02",
        "numberEnd": "20",
        "latStart": 42.06233461,
        "lonStart": -104.15194134,
        "latEnd": 42.06957365,
        "lonEnd": -104.14666888,
        "length": 0,
        "surfacetype": 1
      }
    ],
    "id": 19899
  },
  {
    "type": 1,
    "icao": "WY25",
    "lat": 42.298710385,
    "lon": -104.93564083999999,
    "communications": [],
    "elevation": 4490,
    "tower": false,
    "name": "Snell - North Laramie River",
    "runways": [
      {
        "type": 100,
        "width": 11.89,
        "surfaceType": null,
        "numberStart": "12",
        "numberEnd": "30",
        "latStart": 42.29927977,
        "lonStart": -104.93993168,
        "latEnd": 42.298141,
        "lonEnd": -104.93135,
        "length": 0,
        "surfacetype": 3
      }
    ],
    "id": 32232
  },
  {
    "type": 17,
    "icao": "WY26",
    "lat": 42.04996444,
    "lon": -104.16717223,
    "communications": [],
    "elevation": 4213,
    "tower": false,
    "name": "[H] Community Hospital",
    "runways": [
      {
        "type": 102,
        "width": 19.8,
        "surfaceType": 1,
        "numberStart": "H1",
        "numberEnd": null,
        "latStart": 42.04996444,
        "lonStart": -104.16717223,
        "latEnd": null,
        "lonEnd": null,
        "length": 19.8
      }
    ],
    "id": 32233
  }
]