[
  {
    "type": 1,
    "icao": "OMAA",
    "lat": 24.433048499999998,
    "lon": 39.528456999999996,
    "communications": [
      {
        "type": 50,
        "frequency": 12510,
        "name": "ATIS"
      },
      {
        "type": 54,
        "frequency": 11920,
        "name": "TWR"
      },
      {
        "type": 54,
        "frequency": 12175,
        "name": "TWR"
      },
      {
        "type": 55,
        "frequency": 12440,
        "name": "RDR"
      },
      {
        "type": 55,
        "frequency": 12810,
        "name": "RDR"
      }
    ],
    "elevation": 87,
    "tower": true,
    "name": "ABU DHABI INTL",
    "runways": [
      {
        "type": 100,
        "width": 45.11,
        "surfaceType": null,
        "numberStart": "13",
        "numberEnd": "31",
        "latStart": 24.444389,
        "lonStart": 54.635206,
        "latEnd": 24.421708,
        "lonEnd": 54.667158,
        "length": 0,
        "surfacetype": 1
      }
    ],
    "id": 55
  },
  {
    "type": 1,
    "icao": "OM11",
    "lat": 24.5188555,
    "lon": 39.7422445,
    "communications": [],
    "elevation": 87,
    "tower": false,
    "name": "ABU DHABI NORTHEAST",
    "runways": [
      {
        "type": 100,
        "width": 60.96,
        "surfaceType": null,
        "numberStart": "13",
        "numberEnd": "31",
        "latStart": 24.525236,
        "lonStart": 54.972014,
        "latEnd": 24.512475,
        "lonEnd": 54.988114,
        "length": 0,
        "surfacetype": 1
      }
    ],
    "id": 56
  },
  {
    "type": 1,
    "icao": "OMAL",
    "lat": 24.26169,
    "lon": 39.9430875,
    "communications": [
      {
        "type": 53,
        "frequency": 12915,
        "name": "GND"
      },
      {
        "type": 54,
        "frequency": 11985,
        "name": "TWR"
      },
      {
        "type": 55,
        "frequency": 11985,
        "name": "APP"
      }
    ],
    "elevation": 869,
    "tower": true,
    "name": "AL AIN INTL",
    "runways": [
      {
        "type": 100,
        "width": 45.11,
        "surfaceType": null,
        "numberStart": "01",
        "numberEnd": "19",
        "latStart": 24.243786,
        "lonStart": 55.606581,
        "latEnd": 24.279594,
        "lonEnd": 55.611681,
        "length": 0,
        "surfacetype": 1
      }
    ],
    "id": 138
  },
  {
    "type": 1,
    "icao": "OMAM",
    "lat": 24.23958275,
    "lon": 39.38234425,
    "communications": [
      {
        "type": 54,
        "frequency": 11830,
        "name": "TWR"
      },
      {
        "type": 55,
        "frequency": 12440,
        "name": "ABU DHABI APP"
      },
      {
        "type": 55,
        "frequency": 12450,
        "name": "AL DHAFRA ARR/DEP"
      }
    ],
    "elevation": 77,
    "tower": true,
    "name": "AL DHAFRA",
    "runways": [
      {
        "type": 100,
        "width": 45.72,
        "surfaceType": null,
        "numberStart": "13L",
        "numberEnd": "31R",
        "latStart": 24.258167,
        "lonStart": 54.533333,
        "latEnd": 24.238333,
        "lonEnd": 54.562111,
        "length": 0,
        "surfacetype": 1
      },
      {
        "type": 100,
        "width": 45.72,
        "surfaceType": null,
        "numberStart": "13R",
        "numberEnd": "31L",
        "latStart": 24.240842,
        "lonStart": 54.536722,
        "latEnd": 24.220989,
        "lonEnd": 54.565494,
        "length": 0,
        "surfacetype": 1
      }
    ],
    "id": 147
  },
  {
    "type": 1,
    "icao": "OMAD",
    "lat": 24.428596785000003,
    "lon": 39.432727400000005,
    "communications": [
      {
        "type": 53,
        "frequency": 12190,
        "name": "GND"
      },
      {
        "type": 54,
        "frequency": 11990,
        "name": "TWR"
      },
      {
        "type": 55,
        "frequency": 12440,
        "name": "ABU DHABI APP"
      },
      {
        "type": 55,
        "frequency": 12810,
        "name": "ABU DHABI APP"
      }
    ],
    "elevation": 16,
    "tower": true,
    "name": "BATEEN",
    "runways": [
      {
        "type": 100,
        "width": 46.02,
        "surfaceType": null,
        "numberStart": "13",
        "numberEnd": "31",
        "latStart": 24.43743119,
        "lonStart": 54.44569242,
        "latEnd": 24.41976238,
        "lonEnd": 54.47066977,
        "length": 0,
        "surfacetype": 1
      }
    ],
    "id": 1561
  }
]