[
  {
    "type": 17,
    "icao": "7VA4",
    "lat": 37.29570416,
    "lon": -77.27108834,
    "communications": [],
    "elevation": 15,
    "tower": false,
    "name": "[H] Bermuda Hundred",
    "runways": [
      {
        "type": 102,
        "width": 30.5,
        "surfaceType": 3,
        "numberStart": "H1",
        "numberEnd": null,
        "latStart": 37.29570416,
        "lonStart": -77.27108834,
        "latEnd": null,
        "lonEnd": null,
        "length": 30.5
      }
    ],
    "id": 28439
  },
  {
    "type": 17,
    "icao": "6VA3",
    "lat": 37.52348027,
    "lon": -77.52693084,
    "communications": [],
    "elevation": 180,
    "tower": false,
    "name": "[H] Chippenham Hospital",
    "runways": [
      {
        "type": 102,
        "width": 12.2,
        "surfaceType": 1,
        "numberStart": "H1",
        "numberEnd": null,
        "latStart": 37.52348027,
        "lonStart": -77.52693084,
        "latEnd": null,
        "lonEnd": null,
        "length": 12.2
      }
    ],
    "id": 28940
  },
  {
    "type": 17,
    "icao": "9VA7",
    "lat": 37.35487083,
    "lon": -77.41553806,
    "communications": [],
    "elevation": 168,
    "tower": false,
    "name": "[H] Fire Station No. 14",
    "runways": [
      {
        "type": 102,
        "width": 15.2,
        "surfaceType": 2,
        "numberStart": "H1",
        "numberEnd": null,
        "latStart": 37.35487083,
        "lonStart": -77.41553806,
        "latEnd": null,
        "lonEnd": null,
        "length": 15.2
      }
    ],
    "id": 29729
  },
  {
    "type": 17,
    "icao": "VA39",
    "lat": 37.25014944,
    "lon": -77.33303528,
    "communications": [],
    "elevation": 100,
    "tower": false,
    "name": "[H] Fort Lee AHP 3 - Qrtmst Cen",
    "runways": [
      {
        "type": 102,
        "width": 121.9,
        "surfaceType": 3,
        "numberStart": "H1",
        "numberEnd": null,
        "latStart": 37.25014944,
        "lonStart": -77.33303528,
        "latEnd": null,
        "lonEnd": null,
        "length": 121.9
      }
    ],
    "id": 29796
  },
  {
    "type": 17,
    "icao": "60VA",
    "lat": 37.60486805,
    "lon": -77.54137528,
    "communications": [],
    "elevation": 258,
    "tower": false,
    "name": "[H] H D H",
    "runways": [
      {
        "type": 102,
        "width": 9.1,
        "surfaceType": 2,
        "numberStart": "H1",
        "numberEnd": null,
        "latStart": 37.60486805,
        "lonStart": -77.54137528,
        "latEnd": null,
        "lonEnd": null,
        "length": 9.1
      }
    ],
    "id": 30062
  },
  {
    "type": 17,
    "icao": "7VA3",
    "lat": 37.28737083,
    "lon": -77.27108834,
    "communications": [],
    "elevation": 35,
    "tower": false,
    "name": "[H] Hopewell",
    "runways": [
      {
        "type": 102,
        "width": 30.5,
        "surfaceType": 3,
        "numberStart": "H1",
        "numberEnd": null,
        "latStart": 37.28737083,
        "lonStart": -77.27108834,
        "latEnd": null,
        "lonEnd": null,
        "length": 30.5
      }
    ],
    "id": 30298
  },
  {
    "type": 17,
    "icao": "9VA8",
    "lat": 37.64875638,
    "lon": -77.58498778,
    "communications": [],
    "elevation": 250,
    "tower": false,
    "name": "[H] Innsbrook Pavilion",
    "runways": [
      {
        "type": 102,
        "width": 10.7,
        "surfaceType": 3,
        "numberStart": "H1",
        "numberEnd": null,
        "latStart": 37.64875638,
        "lonStart": -77.58498778,
        "latEnd": null,
        "lonEnd": null,
        "length": 10.7
      }
    ],
    "id": 30521
  },
  {
    "type": 17,
    "icao": "8VA0",
    "lat": 37.55014611,
    "lon": -77.43026056,
    "communications": [],
    "elevation": 160,
    "tower": false,
    "name": "[H] MCV",
    "runways": [
      {
        "type": 102,
        "width": 27.4,
        "surfaceType": 1,
        "numberStart": "H1",
        "numberEnd": null,
        "latStart": 37.55014611,
        "lonStart": -77.43026056,
        "latEnd": null,
        "lonEnd": null,
        "length": 27.4
      }
    ],
    "id": 31003
  },
  {
    "type": 17,
    "icao": "63VA",
    "lat": 37.25098361,
    "lon": -77.82138751,
    "communications": [],
    "elevation": 318,
    "tower": false,
    "name": "[H] Mannboro Medical Center",
    "runways": [
      {
        "type": 102,
        "width": 9.1,
        "surfaceType": 2,
        "numberStart": "H1",
        "numberEnd": null,
        "latStart": 37.25098361,
        "lonStart": -77.82138751,
        "latEnd": null,
        "lonEnd": null,
        "length": 9.1
      }
    ],
    "id": 31063
  },
  {
    "type": 17,
    "icao": "0VA6",
    "lat": 37.49598055,
    "lon": -77.46220612,
    "communications": [],
    "elevation": 178,
    "tower": false,
    "name": "[H] Mc Guire Va Medical Center Pad",
    "runways": [
      {
        "type": 102,
        "width": 30.5,
        "surfaceType": 1,
        "numberStart": "H1",
        "numberEnd": null,
        "latStart": 37.49598055,
        "lonStart": -77.46220612,
        "latEnd": null,
        "lonEnd": null,
        "length": 30.5
      }
    ],
    "id": 31152
  },
  {
    "type": 17,
    "icao": "0VA0",
    "lat": 37.9654175,
    "lon": -77.77749223,
    "communications": [],
    "elevation": 330,
    "tower": false,
    "name": "[H] Mostly Harmless",
    "runways": [
      {
        "type": 102,
        "width": 12.2,
        "surfaceType": 3,
        "numberStart": "H1",
        "numberEnd": null,
        "latStart": 37.9654175,
        "lonStart": -77.77749223,
        "latEnd": null,
        "lonEnd": null,
        "length": 12.2
      }
    ],
    "id": 31462
  },
  {
    "type": 17,
    "icao": "VA20",
    "lat": 37.21681666,
    "lon": -77.39775973,
    "communications": [],
    "elevation": 125,
    "tower": false,
    "name": "[H] SRMC",
    "runways": [
      {
        "type": 102,
        "width": 12.2,
        "surfaceType": 1,
        "numberStart": "H1",
        "numberEnd": null,
        "latStart": 37.21681666,
        "lonStart": -77.39775973,
        "latEnd": null,
        "lonEnd": null,
        "length": 12.2
      }
    ],
    "id": 32497
  },
  {
    "type": 17,
    "icao": "7VA2",
    "lat": 37.30570472,
    "lon": -77.39442639,
    "communications": [],
    "elevation": 64,
    "tower": false,
    "name": "[H] Technical Center",
    "runways": [
      {
        "type": 102,
        "width": 30.5,
        "surfaceType": 3,
        "numberStart": "H1",
        "numberEnd": null,
        "latStart": 37.30570472,
        "lonStart": -77.39442639,
        "latEnd": null,
        "lonEnd": null,
        "length": 30.5
      }
    ],
    "id": 33223
  }
]