[
  {
    "type": 1,
    "icao": "GCRR",
    "lat": 28.946798433999998,
    "lon": -5.0955694939999985,
    "communications": [
      {
        "type": 50,
        "frequency": 11862,
        "name": "ATIS"
      },
      {
        "type": 53,
        "frequency": 12180,
        "name": "GND"
      },
      {
        "type": 54,
        "frequency": 12400,
        "name": "TWR"
      },
      {
        "type": 54,
        "frequency": 12070,
        "name": "TWR"
      },
      {
        "type": 55,
        "frequency": 12930,
        "name": "CANARIAS APP"
      }
    ],
    "elevation": 14,
    "tower": true,
    "name": "Lanzarote",
    "runways": [
      {
        "type": 100,
        "width": 45.11,
        "surfaceType": null,
        "numberStart": "03",
        "numberEnd": "21",
        "latStart": 28.93580798,
        "lonStart": -13.61082791,
        "latEnd": 28.9550635,
        "lonEnd": -13.59965796,
        "length": 0,
        "surfacetype": 1
      },
      {
        "type": 102,
        "width": 15.8,
        "surfaceType": 1,
        "numberStart": "H1",
        "numberEnd": null,
        "latStart": 28.94785318,
        "lonStart": -13.60763447,
        "latEnd": null,
        "lonEnd": null,
        "length": 16
      },
      {
        "type": 102,
        "width": 15.4,
        "surfaceType": 1,
        "numberStart": "H2",
        "numberEnd": null,
        "latStart": 28.94773771,
        "lonStart": -13.60737408,
        "latEnd": null,
        "lonEnd": null,
        "length": 17.1
      },
      {
        "type": 102,
        "width": 27.8,
        "surfaceType": 1,
        "numberStart": "H3",
        "numberEnd": null,
        "latStart": 28.9475298,
        "lonStart": -13.60707451,
        "latEnd": null,
        "lonEnd": null,
        "length": 26.6
      }
    ],
    "id": 14952
  },
  {
    "type": 1,
    "icao": "GCTS",
    "lat": 28.0475081275,
    "lon": -5.415857075,
    "communications": [
      {
        "type": 50,
        "frequency": 11867,
        "name": "ATIS"
      },
      {
        "type": 53,
        "frequency": 12190,
        "name": "GND"
      },
      {
        "type": 54,
        "frequency": 11900,
        "name": "TWR"
      },
      {
        "type": 55,
        "frequency": 12812,
        "name": "APP"
      },
      {
        "type": 55,
        "frequency": 12770,
        "name": "APP"
      }
    ],
    "elevation": 208,
    "tower": true,
    "name": "Tenerife Sur",
    "runways": [
      {
        "type": 100,
        "width": 45.11,
        "surfaceType": null,
        "numberStart": "08",
        "numberEnd": "26",
        "latStart": 28.03920303,
        "lonStart": -16.58763669,
        "latEnd": 28.04974697,
        "lonEnd": -16.55733931,
        "length": 0,
        "surfacetype": 1
      },
      {
        "type": 102,
        "width": 10.4,
        "surfaceType": 2,
        "numberStart": "H3",
        "numberEnd": null,
        "latStart": 28.05046745,
        "lonStart": -16.56301135,
        "latEnd": null,
        "lonEnd": null,
        "length": 10.7
      },
      {
        "type": 102,
        "width": 25.7,
        "surfaceType": 2,
        "numberStart": "H1",
        "numberEnd": null,
        "latStart": 28.05061506,
        "lonStart": -16.56252723,
        "latEnd": null,
        "lonEnd": null,
        "length": 26.6
      }
    ],
    "id": 25155
  }
]