[
  {
    "type": 17,
    "icao": "CD36",
    "lat": 37.88332361,
    "lon": -108.83399112,
    "communications": [],
    "elevation": 8062,
    "tower": false,
    "name": "[H] Egnar",
    "runways": [
      {
        "type": 102,
        "width": 30.5,
        "surfaceType": 3,
        "numberStart": "H1",
        "numberEnd": null,
        "latStart": 37.88332361,
        "lonStart": -108.83399112,
        "latEnd": null,
        "lonEnd": null,
        "length": 30.5
      }
    ],
    "id": 29509
  },
  {
    "type": 17,
    "icao": "1CO9",
    "lat": 37.36296583,
    "lon": -108.57462056,
    "communications": [],
    "elevation": 6151,
    "tower": false,
    "name": "[H] MCHD",
    "runways": [
      {
        "type": 102,
        "width": 28,
        "surfaceType": 2,
        "numberStart": "H1",
        "numberEnd": null,
        "latStart": 37.36296583,
        "lonStart": -108.57462056,
        "latEnd": null,
        "lonEnd": null,
        "length": 28
      }
    ],
    "id": 31000
  },
  {
    "type": 17,
    "icao": "CD44",
    "lat": 37.3499975,
    "lon": -108.15063223,
    "communications": [],
    "elevation": 10039,
    "tower": false,
    "name": "[H] Madden Peak",
    "runways": [
      {
        "type": 102,
        "width": 30.5,
        "surfaceType": 3,
        "numberStart": "H1",
        "numberEnd": null,
        "latStart": 37.3499975,
        "lonStart": -108.15063223,
        "latEnd": null,
        "lonEnd": null,
        "length": 30.5
      }
    ],
    "id": 31031
  },
  {
    "type": 17,
    "icao": "CD33",
    "lat": 37.24999527,
    "lon": -108.50064473,
    "communications": [],
    "elevation": 8074,
    "tower": false,
    "name": "[H] Mesa Verde",
    "runways": [
      {
        "type": 102,
        "width": 30.5,
        "surfaceType": 3,
        "numberStart": "H1",
        "numberEnd": null,
        "latStart": 37.24999527,
        "lonStart": -108.50064473,
        "latEnd": null,
        "lonEnd": null,
        "length": 30.5
      }
    ],
    "id": 31303
  },
  {
    "type": 17,
    "icao": "CD35",
    "lat": 37.59999055,
    "lon": -108.63398473,
    "communications": [],
    "elevation": 7723,
    "tower": false,
    "name": "[H] Pleasant View",
    "runways": [
      {
        "type": 102,
        "width": 30.5,
        "surfaceType": 3,
        "numberStart": "H1",
        "numberEnd": null,
        "latStart": 37.59999055,
        "lonStart": -108.63398473,
        "latEnd": null,
        "lonEnd": null,
        "length": 30.5
      }
    ],
    "id": 32069
  },
  {
    "type": 17,
    "icao": "CD65",
    "lat": 37.68332833,
    "lon": -108.01729445,
    "communications": [],
    "elevation": 8807,
    "tower": false,
    "name": "[H] Rico",
    "runways": [
      {
        "type": 102,
        "width": 30.5,
        "surfaceType": 3,
        "numberStart": "H1",
        "numberEnd": null,
        "latStart": 37.68332833,
        "lonStart": -108.01729445,
        "latEnd": null,
        "lonEnd": null,
        "length": 30.5
      }
    ],
    "id": 32342
  }
]