[
  {
    "type": 17,
    "icao": "0AZ3",
    "lat": 33.41699055,
    "lon": -111.83264,
    "communications": [],
    "elevation": 1263,
    "tower": false,
    "name": "[H] 1st St Center Parking Garage",
    "runways": [
      {
        "type": 102,
        "width": 15.2,
        "surfaceType": 2,
        "numberStart": "H1",
        "numberEnd": null,
        "latStart": 33.41699055,
        "lonStart": -111.83264,
        "latEnd": null,
        "lonEnd": null,
        "length": 15.2
      }
    ],
    "id": 27940
  },
  {
    "type": 17,
    "icao": "AZ42",
    "lat": 33.44754416,
    "lon": -111.99181223,
    "communications": [],
    "elevation": 1140,
    "tower": false,
    "name": "[H] ASI",
    "runways": [
      {
        "type": 102,
        "width": 30.5,
        "surfaceType": 1,
        "numberStart": "H1",
        "numberEnd": null,
        "latStart": 33.44754416,
        "lonStart": -111.99181223,
        "latEnd": null,
        "lonEnd": null,
        "length": 30.5
      }
    ],
    "id": 27983
  },
  {
    "type": 17,
    "icao": "0AZ9",
    "lat": 33.61670833,
    "lon": -111.92014445,
    "communications": [],
    "elevation": 1438,
    "tower": false,
    "name": "[H] Air Commerce Center",
    "runways": [
      {
        "type": 102,
        "width": 6.1,
        "surfaceType": 2,
        "numberStart": "H1",
        "numberEnd": null,
        "latStart": 33.61670833,
        "lonStart": -111.92014445,
        "latEnd": null,
        "lonEnd": null,
        "length": 6.1
      }
    ],
    "id": 28036
  },
  {
    "type": 17,
    "icao": "00E",
    "lat": 33.49421222,
    "lon": -111.64124806,
    "communications": [],
    "elevation": 2525,
    "tower": false,
    "name": "[H] Apache Junction",
    "runways": [
      {
        "type": 102,
        "width": 13.7,
        "surfaceType": 1,
        "numberStart": "H1",
        "numberEnd": null,
        "latStart": 33.49421222,
        "lonStart": -111.64124806,
        "latEnd": null,
        "lonEnd": null,
        "length": 18.3
      }
    ],
    "id": 28153
  },
  {
    "type": 17,
    "icao": "AZ51",
    "lat": 33.81865277,
    "lon": -111.63263834,
    "communications": [],
    "elevation": 1608,
    "tower": false,
    "name": "[H] Bartlett Dam",
    "runways": [
      {
        "type": 102,
        "width": 9.1,
        "surfaceType": 4,
        "numberStart": "H1",
        "numberEnd": null,
        "latStart": 33.81865277,
        "lonStart": -111.63263834,
        "latEnd": null,
        "lonEnd": null,
        "length": 9.1
      }
    ],
    "id": 28353
  },
  {
    "type": 17,
    "icao": "AZ76",
    "lat": 33.29810472,
    "lon": -111.8729175,
    "communications": [],
    "elevation": 1193,
    "tower": false,
    "name": "[H] Chandler Regional Hospital",
    "runways": [
      {
        "type": 102,
        "width": 18.3,
        "surfaceType": 1,
        "numberStart": "H1",
        "numberEnd": null,
        "latStart": 33.29810472,
        "lonStart": -111.8729175,
        "latEnd": null,
        "lonEnd": null,
        "length": 18.3
      }
    ],
    "id": 28882
  },
  {
    "type": 17,
    "icao": "AZ59",
    "lat": 33.44171138,
    "lon": -111.95014389,
    "communications": [],
    "elevation": 1180,
    "tower": false,
    "name": "[H] Cross Cut",
    "runways": [
      {
        "type": 102,
        "width": 6.1,
        "surfaceType": 2,
        "numberStart": "H1",
        "numberEnd": null,
        "latStart": 33.44171138,
        "lonStart": -111.95014389,
        "latEnd": null,
        "lonEnd": null,
        "length": 6.1
      }
    ],
    "id": 29193
  },
  {
    "type": 17,
    "icao": "5AZ1",
    "lat": 33.45615861,
    "lon": -111.49235445,
    "communications": [],
    "elevation": 2000,
    "tower": false,
    "name": "[H] Goldfield Ghost Town",
    "runways": [
      {
        "type": 102,
        "width": 7.3,
        "surfaceType": 1,
        "numberStart": "H1",
        "numberEnd": null,
        "latStart": 33.45615861,
        "lonStart": -111.49235445,
        "latEnd": null,
        "lonEnd": null,
        "length": 7.3
      }
    ],
    "id": 29955
  },
  {
    "type": 17,
    "icao": "2AZ0",
    "lat": 33.45004416,
    "lon": -111.980145,
    "communications": [],
    "elevation": 1160,
    "tower": false,
    "name": "[H] Helicopter Transport Inc",
    "runways": [
      {
        "type": 102,
        "width": 33.5,
        "surfaceType": 1,
        "numberStart": "H1",
        "numberEnd": null,
        "latStart": 33.45004416,
        "lonStart": -111.980145,
        "latEnd": null,
        "lonEnd": null,
        "length": 60
      }
    ],
    "id": 30188
  },
  {
    "type": 17,
    "icao": "AZ53",
    "lat": 33.59060305,
    "lon": -111.34429556,
    "communications": [],
    "elevation": 1891,
    "tower": false,
    "name": "[H] Horse Mesa Dam Nr 2",
    "runways": [
      {
        "type": 102,
        "width": 6.1,
        "surfaceType": 1,
        "numberStart": "H1",
        "numberEnd": null,
        "latStart": 33.59060305,
        "lonStart": -111.34429556,
        "latEnd": null,
        "lonEnd": null,
        "length": 6.1
      }
    ],
    "id": 30308
  },
  {
    "type": 17,
    "icao": "AZ55",
    "lat": 33.58254722,
    "lon": -111.35735195,
    "communications": [],
    "elevation": 1890,
    "tower": false,
    "name": "[H] Horse Mesa Nr 1",
    "runways": [
      {
        "type": 102,
        "width": 4.6,
        "surfaceType": 2,
        "numberStart": "H1",
        "numberEnd": null,
        "latStart": 33.58254722,
        "lonStart": -111.35735195,
        "latEnd": null,
        "lonEnd": null,
        "length": 6.1
      }
    ],
    "id": 30309
  },
  {
    "type": 17,
    "icao": "AZ52",
    "lat": 33.98198305,
    "lon": -111.71653306,
    "communications": [],
    "elevation": 2020,
    "tower": false,
    "name": "[H] Horseshoe Dam",
    "runways": [
      {
        "type": 102,
        "width": 6.1,
        "surfaceType": 3,
        "numberStart": "H1",
        "numberEnd": null,
        "latStart": 33.98198305,
        "lonStart": -111.71653306,
        "latEnd": null,
        "lonEnd": null,
        "length": 9.1
      }
    ],
    "id": 30310
  },
  {
    "type": 17,
    "icao": "AZ10",
    "lat": 33.4472675,
    "lon": -111.84652973,
    "communications": [],
    "elevation": 1250,
    "tower": false,
    "name": "[H] JSJ",
    "runways": [
      {
        "type": 102,
        "width": 17.1,
        "surfaceType": 2,
        "numberStart": "H1",
        "numberEnd": null,
        "latStart": 33.4472675,
        "lonStart": -111.84652973,
        "latEnd": null,
        "lonEnd": null,
        "length": 17.1
      }
    ],
    "id": 30567
  },
  {
    "type": 17,
    "icao": "AZ87",
    "lat": 33.22755111,
    "lon": -111.85347167,
    "communications": [],
    "elevation": 1203,
    "tower": false,
    "name": "[H] Jeppesen Ranch",
    "runways": [
      {
        "type": 102,
        "width": 18.3,
        "surfaceType": 3,
        "numberStart": "H1",
        "numberEnd": null,
        "latStart": 33.22755111,
        "lonStart": -111.85347167,
        "latEnd": null,
        "lonEnd": null,
        "length": 24.4
      }
    ],
    "id": 30606
  },
  {
    "type": 17,
    "icao": "AZ28",
    "lat": 33.42504805,
    "lon": -111.54513278,
    "communications": [],
    "elevation": 1758,
    "tower": false,
    "name": "[H] Lost Dutchman",
    "runways": [
      {
        "type": 102,
        "width": 6.1,
        "surfaceType": 2,
        "numberStart": "H1",
        "numberEnd": null,
        "latStart": 33.42504805,
        "lonStart": -111.54513278,
        "latEnd": null,
        "lonEnd": null,
        "length": 6.1
      }
    ],
    "id": 30946
  },
  {
    "type": 17,
    "icao": "AZ81",
    "lat": 33.47310111,
    "lon": -111.72680473,
    "communications": [],
    "elevation": 1383,
    "tower": false,
    "name": "[H] Mc Donnell Douglas",
    "runways": [
      {
        "type": 102,
        "width": 27.4,
        "surfaceType": 2,
        "numberStart": "H1",
        "numberEnd": null,
        "latStart": 33.47310111,
        "lonStart": -111.72680473,
        "latEnd": null,
        "lonEnd": null,
        "length": 27.4
      },
      {
        "type": 102,
        "width": 27.4,
        "surfaceType": 2,
        "numberStart": "H2",
        "numberEnd": null,
        "latStart": 33.47310111,
        "lonStart": -111.72680473,
        "latEnd": null,
        "lonEnd": null,
        "length": 27.4
      },
      {
        "type": 102,
        "width": 27.4,
        "surfaceType": 2,
        "numberStart": "H3",
        "numberEnd": null,
        "latStart": 33.47310111,
        "lonStart": -111.72680473,
        "latEnd": null,
        "lonEnd": null,
        "length": 27.4
      },
      {
        "type": 102,
        "width": 27.4,
        "surfaceType": 2,
        "numberStart": "H4",
        "numberEnd": null,
        "latStart": 33.47310111,
        "lonStart": -111.72680473,
        "latEnd": null,
        "lonEnd": null,
        "length": 27.4
      },
      {
        "type": 102,
        "width": 27.4,
        "surfaceType": 2,
        "numberStart": "H5",
        "numberEnd": null,
        "latStart": 33.47310111,
        "lonStart": -111.72680473,
        "latEnd": null,
        "lonEnd": null,
        "length": 27.4
      }
    ],
    "id": 31146
  },
  {
    "type": 17,
    "icao": "AZ66",
    "lat": 33.42449055,
    "lon": -111.82041778,
    "communications": [],
    "elevation": 1243,
    "tower": false,
    "name": "[H] Mesa Hospital Medical Center",
    "runways": [
      {
        "type": 102,
        "width": 18.3,
        "surfaceType": 3,
        "numberStart": "H1",
        "numberEnd": null,
        "latStart": 33.42449055,
        "lonStart": -111.82041778,
        "latEnd": null,
        "lonEnd": null,
        "length": 18.3
      }
    ],
    "id": 31301
  },
  {
    "type": 17,
    "icao": "02E",
    "lat": 33.4342125,
    "lon": -111.84152945,
    "communications": [],
    "elevation": 1248,
    "tower": false,
    "name": "[H] Mesa Lutheran Hospital",
    "runways": [
      {
        "type": 102,
        "width": 9.8,
        "surfaceType": 2,
        "numberStart": "H1",
        "numberEnd": null,
        "latStart": 33.4342125,
        "lonStart": -111.84152945,
        "latEnd": null,
        "lonEnd": null,
        "length": 9.8
      }
    ],
    "id": 31302
  },
  {
    "type": 17,
    "icao": "AZ56",
    "lat": 33.55337972,
    "lon": -111.44485445,
    "communications": [],
    "elevation": 1640,
    "tower": false,
    "name": "[H] Mormon Flat Dam",
    "runways": [
      {
        "type": 102,
        "width": 6.1,
        "surfaceType": 2,
        "numberStart": "H1",
        "numberEnd": null,
        "latStart": 33.55337972,
        "lonStart": -111.44485445,
        "latEnd": null,
        "lonEnd": null,
        "length": 6.1
      }
    ],
    "id": 31446
  },
  {
    "type": 17,
    "icao": "AZ95",
    "lat": 33.639485,
    "lon": -111.99709195,
    "communications": [],
    "elevation": 1459,
    "tower": false,
    "name": "[H] Paradise Valley Hosp Emerg Dept",
    "runways": [
      {
        "type": 102,
        "width": 12.2,
        "surfaceType": 2,
        "numberStart": "H1",
        "numberEnd": null,
        "latStart": 33.639485,
        "lonStart": -111.99709195,
        "latEnd": null,
        "lonEnd": null,
        "length": 12.2
      }
    ],
    "id": 31887
  },
  {
    "type": 17,
    "icao": "3AZ1",
    "lat": 33.37226972,
    "lon": -111.83652834,
    "communications": [],
    "elevation": 1229,
    "tower": false,
    "name": "[H] Pixley-Richards Gilbert",
    "runways": [
      {
        "type": 102,
        "width": 11.6,
        "surfaceType": 2,
        "numberStart": "H1",
        "numberEnd": null,
        "latStart": 33.37226972,
        "lonStart": -111.83652834,
        "latEnd": null,
        "lonEnd": null,
        "length": 11.6
      }
    ],
    "id": 32047
  },
  {
    "type": 17,
    "icao": "AZ58",
    "lat": 33.67088138,
    "lon": -111.16206834,
    "communications": [],
    "elevation": 1895,
    "tower": false,
    "name": "[H] Roosevelt Dam",
    "runways": [
      {
        "type": 102,
        "width": 15.2,
        "surfaceType": 4,
        "numberStart": "H1",
        "numberEnd": null,
        "latStart": 33.67088138,
        "lonStart": -111.16206834,
        "latEnd": null,
        "lonEnd": null,
        "length": 21.3
      }
    ],
    "id": 32412
  },
  {
    "type": 17,
    "icao": "AZ96",
    "lat": 33.58226472,
    "lon": -111.88681028,
    "communications": [],
    "elevation": 1375,
    "tower": false,
    "name": "[H] Scottsdale Memorial Hospital-North",
    "runways": [
      {
        "type": 102,
        "width": 12.2,
        "surfaceType": 2,
        "numberStart": "H1",
        "numberEnd": null,
        "latStart": 33.58226472,
        "lonStart": -111.88681028,
        "latEnd": null,
        "lonEnd": null,
        "length": 12.2
      }
    ],
    "id": 32617
  },
  {
    "type": 17,
    "icao": "AZ54",
    "lat": 33.5522675,
    "lon": -111.54902306,
    "communications": [],
    "elevation": 1528,
    "tower": false,
    "name": "[H] Stewart Mountain Dam",
    "runways": [
      {
        "type": 102,
        "width": 6.1,
        "surfaceType": 2,
        "numberStart": "H1",
        "numberEnd": null,
        "latStart": 33.5522675,
        "lonStart": -111.54902306,
        "latEnd": null,
        "lonEnd": null,
        "length": 6.1
      }
    ],
    "id": 33083
  },
  {
    "type": 17,
    "icao": "0AZ7",
    "lat": 33.44365555,
    "lon": -111.96347834,
    "communications": [],
    "elevation": 1180,
    "tower": false,
    "name": "[H] Sunstate",
    "runways": [
      {
        "type": 102,
        "width": 15.2,
        "surfaceType": 2,
        "numberStart": "H1",
        "numberEnd": null,
        "latStart": 33.44365555,
        "lonStart": -111.96347834,
        "latEnd": null,
        "lonEnd": null,
        "length": 15.2
      }
    ],
    "id": 33138
  },
  {
    "type": 17,
    "icao": "AZ73",
    "lat": 33.41282333,
    "lon": -111.94042112,
    "communications": [],
    "elevation": 1160,
    "tower": false,
    "name": "[H] Tempe St. Lukes Hospital",
    "runways": [
      {
        "type": 102,
        "width": 12.2,
        "surfaceType": 1,
        "numberStart": "H1",
        "numberEnd": null,
        "latStart": 33.41282333,
        "lonStart": -111.94042112,
        "latEnd": null,
        "lonEnd": null,
        "length": 12.2
      }
    ],
    "id": 33236
  },
  {
    "type": 17,
    "icao": "AZ91",
    "lat": 33.80281694,
    "lon": -111.91848028,
    "communications": [],
    "elevation": 2358,
    "tower": false,
    "name": "[H] The Boulders",
    "runways": [
      {
        "type": 102,
        "width": 18.3,
        "surfaceType": 3,
        "numberStart": "H1",
        "numberEnd": null,
        "latStart": 33.80281694,
        "lonStart": -111.91848028,
        "latEnd": null,
        "lonEnd": null,
        "length": 18.3
      }
    ],
    "id": 33281
  },
  {
    "type": 17,
    "icao": "3AZ7",
    "lat": 33.40337888,
    "lon": -111.97320001,
    "communications": [],
    "elevation": 1295,
    "tower": false,
    "name": "[H] The Buttes In Tempe",
    "runways": [
      {
        "type": 102,
        "width": 6.1,
        "surfaceType": 2,
        "numberStart": "H1",
        "numberEnd": null,
        "latStart": 33.40337888,
        "lonStart": -111.97320001,
        "latEnd": null,
        "lonEnd": null,
        "length": 6.1
      }
    ],
    "id": 33283
  },
  {
    "type": 17,
    "icao": "4AZ3",
    "lat": 33.66643722,
    "lon": -111.12401112,
    "communications": [],
    "elevation": 2165,
    "tower": false,
    "name": "[H] Tonto Ranger Station",
    "runways": [
      {
        "type": 102,
        "width": 6.1,
        "surfaceType": 2,
        "numberStart": "H1",
        "numberEnd": null,
        "latStart": 33.66643722,
        "lonStart": -111.12401112,
        "latEnd": null,
        "lonEnd": null,
        "length": 6.1
      },
      {
        "type": 102,
        "width": 6.1,
        "surfaceType": 2,
        "numberStart": "H2",
        "numberEnd": null,
        "latStart": 33.66643722,
        "lonStart": -111.12401112,
        "latEnd": null,
        "lonEnd": null,
        "length": 6.1
      }
    ],
    "id": 33348
  },
  {
    "type": 17,
    "icao": "AZ92",
    "lat": 33.41074194,
    "lon": -111.68902501,
    "communications": [],
    "elevation": 1403,
    "tower": false,
    "name": "[H] Valley Lutheran Hospital",
    "runways": [
      {
        "type": 102,
        "width": 18.9,
        "surfaceType": 2,
        "numberStart": "H1",
        "numberEnd": null,
        "latStart": 33.41074194,
        "lonStart": -111.68902501,
        "latEnd": null,
        "lonEnd": null,
        "length": 18.9
      }
    ],
    "id": 33577
  },
  {
    "type": 17,
    "icao": "AZ20",
    "lat": 33.59254166,
    "lon": -111.97848028,
    "communications": [],
    "elevation": 1370,
    "tower": false,
    "name": "[H] Westcor Home Office",
    "runways": [
      {
        "type": 102,
        "width": 91.4,
        "surfaceType": 3,
        "numberStart": "H1",
        "numberEnd": null,
        "latStart": 33.59254166,
        "lonStart": -111.97848028,
        "latEnd": null,
        "lonEnd": null,
        "length": 91.4
      }
    ],
    "id": 33808
  }
]