[
  {
    "type": 1,
    "icao": "LAGJ",
    "lat": 41.895106435,
    "lon": 19.59857174,
    "communications": [
      {
        "type": 54,
        "frequency": 12950,
        "name": "Gjader TWR"
      }
    ],
    "elevation": 22,
    "tower": true,
    "name": "Gjader",
    "runways": [
      {
        "type": 100,
        "width": 60.05,
        "surfaceType": null,
        "numberStart": "16",
        "numberEnd": "34",
        "latStart": 41.9064389,
        "lonStart": 19.5912367,
        "latEnd": 41.88377397,
        "lonEnd": 19.60590678,
        "length": 0,
        "surfacetype": 2
      }
    ],
    "id": 3458
  },
  {
    "type": 1,
    "icao": "LATI",
    "lat": 41.414703794999994,
    "lon": 19.720599685,
    "communications": [
      {
        "type": 54,
        "frequency": 12350,
        "name": "TWR"
      },
      {
        "type": 55,
        "frequency": 13315,
        "name": "APP"
      }
    ],
    "elevation": 125,
    "tower": true,
    "name": "Tirana Rinas",
    "runways": [
      {
        "type": 100,
        "width": 45.11,
        "surfaceType": null,
        "numberStart": "17",
        "numberEnd": "35",
        "latStart": 41.42699801,
        "lonStart": 19.71895792,
        "latEnd": 41.40240958,
        "lonEnd": 19.72224145,
        "length": 0,
        "surfacetype": 1
      }
    ],
    "id": 20106
  }
]