[
  {
    "type": 1,
    "icao": "LAGJ",
    "lat": 41.895106435,
    "lon": 19.59857174,
    "communications": [
      {
        "type": 54,
        "frequency": 12950,
        "name": "Gjader TWR"
      }
    ],
    "elevation": 22,
    "tower": true,
    "name": "Gjader",
    "runways": [
      {
        "type": 100,
        "width": 60.05,
        "surfaceType": null,
        "numberStart": "16",
        "numberEnd": "34",
        "latStart": 41.9064389,
        "lonStart": 19.5912367,
        "latEnd": 41.88377397,
        "lonEnd": 19.60590678,
        "length": 0,
        "surfacetype": 2
      }
    ],
    "id": 10501
  },
  {
    "type": 1,
    "icao": "LATI",
    "lat": 41.414732,
    "lon": 19.7205695,
    "communications": [
      {
        "type": 54,
        "frequency": 12350,
        "name": "TWR"
      },
      {
        "type": 55,
        "frequency": 13315,
        "name": "APP"
      }
    ],
    "elevation": 126,
    "tower": true,
    "name": "Tirana Rinas",
    "runways": [
      {
        "type": 100,
        "width": 45.11,
        "surfaceType": null,
        "numberStart": "18",
        "numberEnd": "36",
        "latStart": 41.426981,
        "lonStart": 19.718942,
        "latEnd": 41.402483,
        "lonEnd": 19.722197,
        "length": 0,
        "surfacetype": 1
      }
    ],
    "id": 25403
  }
]