[
  {
    "type": 1,
    "icao": "0U5",
    "lat": 42.27824722,
    "lon": -113.30499862,
    "communications": [],
    "elevation": 4580,
    "tower": false,
    "name": "Interstate",
    "runways": [
      {
        "type": 100,
        "width": 22.86,
        "surfaceType": null,
        "numberStart": "14",
        "numberEnd": "32",
        "latStart": 42.28184582,
        "lonStart": -113.30769462,
        "latEnd": 42.27464862,
        "lonEnd": -113.30230262,
        "length": 0,
        "surfacetype": 3
      }
    ],
    "id": 6199
  },
  {
    "type": 1,
    "icao": "1U0",
    "lat": 42.97490722,
    "lon": -113.35056028,
    "communications": [],
    "elevation": 4715,
    "tower": false,
    "name": "Bear Trap",
    "runways": [
      {
        "type": 100,
        "width": 36.58,
        "surfaceType": null,
        "numberStart": "06",
        "numberEnd": "24",
        "latStart": 42.97416068,
        "lonStart": -113.35465265,
        "latEnd": 42.97565376,
        "lonEnd": -113.34646791,
        "length": 0,
        "surfacetype": 3
      }
    ],
    "id": 6789
  },
  {
    "type": 1,
    "icao": "1U6",
    "lat": 42.23407833,
    "lon": -113.87765417,
    "communications": [],
    "elevation": 4650,
    "tower": false,
    "name": "Oakley Municipal",
    "runways": [
      {
        "type": 100,
        "width": 12.19,
        "surfaceType": null,
        "numberStart": "16",
        "numberEnd": "34",
        "latStart": 42.2392773,
        "lonStart": -113.87814518,
        "latEnd": 42.22887936,
        "lonEnd": -113.87716316,
        "length": 0,
        "surfacetype": 5
      }
    ],
    "id": 6792
  },
  {
    "type": 17,
    "icao": "ID53",
    "lat": 42.62101972,
    "lon": -113.68612417,
    "communications": [],
    "elevation": 4154,
    "tower": false,
    "name": "[H] Minidoka Meml Hospital",
    "runways": [
      {
        "type": 102,
        "width": 7.9,
        "surfaceType": 2,
        "numberStart": "H1",
        "numberEnd": null,
        "latStart": 42.62101972,
        "lonStart": -113.68612417,
        "latEnd": null,
        "lonEnd": null,
        "length": 6.7
      }
    ],
    "id": 18282
  },
  {
    "type": 1,
    "icao": "KBYI",
    "lat": 42.54260825,
    "lon": -113.7715445,
    "communications": [
      {
        "type": 50,
        "frequency": 13557,
        "name": "ASOS"
      },
      {
        "type": 51,
        "frequency": 12290,
        "name": "CTAF"
      },
      {
        "type": 55,
        "frequency": 12670,
        "name": "TWIN FALLS APP/DEP"
      }
    ],
    "elevation": 4149,
    "tower": false,
    "name": "BURLEY MUNI",
    "runways": [
      {
        "type": 100,
        "width": 24.38,
        "surfaceType": null,
        "numberStart": "02",
        "numberEnd": "20",
        "latStart": 42.53765,
        "lonStart": -113.77405,
        "latEnd": 42.546572,
        "lonEnd": -113.764825,
        "length": 0,
        "surfacetype": 1
      },
      {
        "type": 100,
        "width": 22.86,
        "surfaceType": null,
        "numberStart": "06",
        "numberEnd": "24",
        "latStart": 42.542025,
        "lonStart": -113.781053,
        "latEnd": 42.544186,
        "lonEnd": -113.76625,
        "length": 0,
        "surfacetype": 1
      }
    ],
    "id": 18912
  },
  {
    "type": 1,
    "icao": "U40",
    "lat": 42.39768861,
    "lon": -113.55750695,
    "communications": [],
    "elevation": 4776,
    "tower": false,
    "name": "Albion Municipal",
    "runways": [
      {
        "type": 100,
        "width": 53.34,
        "surfaceType": null,
        "numberStart": "07",
        "numberEnd": "25",
        "latStart": 42.39725809,
        "lonStart": -113.56584387,
        "latEnd": 42.39811913,
        "lonEnd": -113.54917003,
        "length": 0,
        "surfacetype": 3
      }
    ],
    "id": 30182
  }
]