[
  {
    "type": 17,
    "icao": "02CA",
    "lat": 33.58252222,
    "lon": -118.12895417,
    "communications": [],
    "elevation": 122,
    "tower": false,
    "name": "[H] Swepi Beta Platform Ellen",
    "runways": [
      {
        "type": 102,
        "width": 16.8,
        "surfaceType": 15,
        "numberStart": "H1",
        "numberEnd": null,
        "latStart": 33.58252222,
        "lonStart": -118.12895417,
        "latEnd": null,
        "lonEnd": null,
        "length": 16.8
      }
    ],
    "id": 75
  },
  {
    "type": 17,
    "icao": "CL65",
    "lat": 33.6952343,
    "lon": -118.00162204,
    "communications": [],
    "elevation": 56,
    "tower": false,
    "name": "[H] H.B.P.D.",
    "runways": [
      {
        "type": 102,
        "width": 30.1,
        "surfaceType": 15,
        "numberStart": "H1",
        "numberEnd": null,
        "latStart": 33.6952343,
        "lonStart": -118.00162204,
        "latEnd": null,
        "lonEnd": null,
        "length": 30.7
      }
    ],
    "id": 683
  },
  {
    "type": 1,
    "icao": "KAVX",
    "lat": 33.40499722,
    "lon": -118.41576945,
    "communications": [
      {
        "type": 51,
        "frequency": 12270,
        "name": "CTAF/UNICOM"
      },
      {
        "type": 55,
        "frequency": 12740,
        "name": "SOCAL APP/DEP"
      }
    ],
    "elevation": 1602,
    "tower": false,
    "name": "Catalina",
    "runways": [
      {
        "type": 100,
        "width": 17.98,
        "surfaceType": null,
        "numberStart": "04",
        "numberEnd": "22",
        "latStart": 33.40262222,
        "lonStart": -118.41978612,
        "latEnd": 33.40737222,
        "lonEnd": -118.41175278,
        "length": 0,
        "surfacetype": 1
      }
    ],
    "id": 2382
  },
  {
    "type": 1,
    "icao": "KCPM",
    "lat": 33.889919365,
    "lon": -118.243814605,
    "communications": [
      {
        "type": 51,
        "frequency": 12305,
        "name": "CTAF/UNICOM"
      }
    ],
    "elevation": 97,
    "tower": false,
    "name": "COMPTON WOODLEY",
    "runways": [
      {
        "type": 100,
        "width": 18.29,
        "surfaceType": null,
        "numberStart": "07L",
        "numberEnd": "25R",
        "latStart": 33.89016831,
        "lonStart": -118.2492894,
        "latEnd": 33.89022163,
        "lonEnd": -118.2383402,
        "length": 0,
        "surfacetype": 1
      },
      {
        "type": 100,
        "width": 18.29,
        "surfaceType": null,
        "numberStart": "07R",
        "numberEnd": "25L",
        "latStart": 33.88961567,
        "lonStart": -118.24928918,
        "latEnd": 33.88967185,
        "lonEnd": -118.23833964,
        "length": 0,
        "surfacetype": 1
      }
    ],
    "id": 2517
  },
  {
    "type": 1,
    "icao": "KHHR",
    "lat": 33.92292963,
    "lon": -118.33537775875,
    "communications": [
      {
        "type": 50,
        "frequency": 11840,
        "name": "ATIS"
      },
      {
        "type": 51,
        "frequency": 12110,
        "name": "CTAF"
      },
      {
        "type": 53,
        "frequency": 12510,
        "name": "GND"
      },
      {
        "type": 54,
        "frequency": 12110,
        "name": "TWR"
      },
      {
        "type": 55,
        "frequency": 12430,
        "name": "SOCAL APP"
      },
      {
        "type": 55,
        "frequency": 12490,
        "name": "SOCAL APP"
      },
      {
        "type": 55,
        "frequency": 12520,
        "name": "SOCAL APP"
      },
      {
        "type": 55,
        "frequency": 12850,
        "name": "SOCAL APP"
      },
      {
        "type": 56,
        "frequency": 12430,
        "name": "SOCAL DEP"
      }
    ],
    "elevation": 63,
    "tower": true,
    "name": "Jack Northrop Field/ Hawthorne Muni",
    "runways": [
      {
        "type": 100,
        "width": 30.48,
        "surfaceType": null,
        "numberStart": "7",
        "numberEnd": "25",
        "latStart": 33.9224681,
        "lonStart": -118.34314148,
        "latEnd": 33.92322804,
        "lonEnd": -118.32704586,
        "length": 0,
        "surfacetype": 1
      },
      {
        "type": 102,
        "width": 12.2,
        "surfaceType": 1,
        "numberStart": "H30",
        "numberEnd": null,
        "latStart": 33.92190255,
        "lonStart": -118.33510415,
        "latEnd": null,
        "lonEnd": null,
        "length": 12.2
      },
      {
        "type": 102,
        "width": 12.2,
        "surfaceType": 1,
        "numberStart": "H5",
        "numberEnd": null,
        "latStart": 33.92188962,
        "lonStart": -118.33536987,
        "latEnd": null,
        "lonEnd": null,
        "length": 12.2
      },
      {
        "type": 102,
        "width": 10.7,
        "surfaceType": 1,
        "numberStart": "H4",
        "numberEnd": null,
        "latStart": 33.92349985,
        "lonStart": -118.3352979,
        "latEnd": null,
        "lonEnd": null,
        "length": 10.7
      },
      {
        "type": 102,
        "width": 10.7,
        "surfaceType": 1,
        "numberStart": "H3",
        "numberEnd": null,
        "latStart": 33.92349365,
        "lonStart": -118.33549381,
        "latEnd": null,
        "lonEnd": null,
        "length": 10.7
      },
      {
        "type": 102,
        "width": 10.7,
        "surfaceType": 1,
        "numberStart": "H2",
        "numberEnd": null,
        "latStart": 33.92348264,
        "lonStart": -118.33568656,
        "latEnd": null,
        "lonEnd": null,
        "length": 10.7
      },
      {
        "type": 102,
        "width": 10.7,
        "surfaceType": 1,
        "numberStart": "H1",
        "numberEnd": null,
        "latStart": 33.92347259,
        "lonStart": -118.33588244,
        "latEnd": null,
        "lonEnd": null,
        "length": 10.7
      }
    ],
    "id": 2759
  },
  {
    "type": 1,
    "icao": "KLAX",
    "lat": 33.943366979000004,
    "lon": -118.41087434,
    "communications": [
      {
        "type": 50,
        "frequency": 13565,
        "name": "Los Angeles Departure ATIS"
      },
      {
        "type": 50,
        "frequency": 13380,
        "name": "Los Angeles Arrival ATIS"
      },
      {
        "type": 51,
        "frequency": 12295,
        "name": "Los Angeles UNICOM"
      },
      {
        "type": 52,
        "frequency": 12035,
        "name": "Los Angeles Delivery"
      },
      {
        "type": 53,
        "frequency": 12165,
        "name": "Los Angeles GND North"
      },
      {
        "type": 53,
        "frequency": 12140,
        "name": "Los Angeles GND South"
      },
      {
        "type": 54,
        "frequency": 13390,
        "name": "Los Angeles TWR North"
      },
      {
        "type": 54,
        "frequency": 12095,
        "name": "Los Angeles TWR South"
      },
      {
        "type": 55,
        "frequency": 12405,
        "name": "SOCAL APP 1"
      },
      {
        "type": 55,
        "frequency": 12810,
        "name": "SOCAL APP 2"
      },
      {
        "type": 56,
        "frequency": 12520,
        "name": "SOCAL DEP Northwest"
      },
      {
        "type": 56,
        "frequency": 12520,
        "name": "SOCAL DEP Southeast"
      }
    ],
    "elevation": 125,
    "tower": true,
    "name": "Los Angeles Intl",
    "runways": [
      {
        "type": 100,
        "width": 46.02,
        "surfaceType": null,
        "numberStart": "07L",
        "numberEnd": "25R",
        "latStart": 33.9358303,
        "lonStart": -118.41934178,
        "latEnd": 33.93987814,
        "lonEnd": -118.37977663,
        "length": 0,
        "surfacetype": 2
      },
      {
        "type": 100,
        "width": 46.02,
        "surfaceType": null,
        "numberStart": "06R",
        "numberEnd": "24L",
        "latStart": 33.94674628,
        "lonStart": -118.43532907,
        "latEnd": 33.95018976,
        "lonEnd": -118.40167828,
        "length": 0,
        "surfacetype": 2
      },
      {
        "type": 100,
        "width": 60.96,
        "surfaceType": null,
        "numberStart": "07R",
        "numberEnd": "25L",
        "latStart": 33.93365019,
        "lonStart": -118.41904513,
        "latEnd": 33.93736722,
        "lonEnd": -118.38271453,
        "length": 0,
        "surfacetype": 2
      },
      {
        "type": 100,
        "width": 46.02,
        "surfaceType": null,
        "numberStart": "06L",
        "numberEnd": "24R",
        "latStart": 33.94911411,
        "lonStart": -118.43119757,
        "latEnd": 33.95210459,
        "lonEnd": -118.40196313,
        "length": 0,
        "surfacetype": 2
      },
      {
        "type": 102,
        "width": 14.5,
        "surfaceType": 2,
        "numberStart": "H5",
        "numberEnd": null,
        "latStart": 33.94476671,
        "lonStart": -118.41899773,
        "latEnd": null,
        "lonEnd": null,
        "length": 14.9
      },
      {
        "type": 102,
        "width": 16.2,
        "surfaceType": 2,
        "numberStart": "H4",
        "numberEnd": null,
        "latStart": 33.94402249,
        "lonStart": -118.41869955,
        "latEnd": null,
        "lonEnd": null,
        "length": 16.8
      }
    ],
    "id": 2870
  },
  {
    "type": 1,
    "icao": "KLGB",
    "lat": 33.81693579681817,
    "lon": -118.15121118409093,
    "communications": [
      {
        "type": 50,
        "frequency": 12775,
        "name": "ATIS"
      },
      {
        "type": 51,
        "frequency": 11940,
        "name": "CTAF"
      },
      {
        "type": 51,
        "frequency": 12295,
        "name": "UNICOM"
      },
      {
        "type": 52,
        "frequency": 11815,
        "name": "DEL"
      },
      {
        "type": 53,
        "frequency": 13300,
        "name": "GND"
      },
      {
        "type": 54,
        "frequency": 11940,
        "name": "TWR"
      },
      {
        "type": 54,
        "frequency": 12050,
        "name": "TWR"
      },
      {
        "type": 55,
        "frequency": 12465,
        "name": "SOCAL APP"
      },
      {
        "type": 56,
        "frequency": 12720,
        "name": "SOCAL DEP"
      }
    ],
    "elevation": 60,
    "tower": true,
    "name": "Long Beach/Daugherty Field",
    "runways": [
      {
        "type": 100,
        "width": 60.96,
        "surfaceType": null,
        "numberStart": "12",
        "numberEnd": "30",
        "latStart": 33.826203,
        "lonStart": -118.161536,
        "latEnd": 33.806867,
        "lonEnd": -118.138142,
        "length": 0,
        "surfacetype": 1
      },
      {
        "type": 100,
        "width": 46.02,
        "surfaceType": null,
        "numberStart": "07L",
        "numberEnd": "25R",
        "latStart": 33.82275,
        "lonStart": -118.163519,
        "latEnd": 33.822694,
        "lonEnd": -118.143136,
        "length": 0,
        "surfacetype": 1
      },
      {
        "type": 100,
        "width": 46.02,
        "surfaceType": null,
        "numberStart": "07R",
        "numberEnd": "25L",
        "latStart": 33.813825,
        "lonStart": -118.161303,
        "latEnd": 33.813836,
        "lonEnd": -118.143447,
        "length": 0,
        "surfacetype": 1
      },
      {
        "type": 100,
        "width": 22.86,
        "surfaceType": null,
        "numberStart": "16R",
        "numberEnd": "34L",
        "latStart": 33.824861,
        "lonStart": -118.155783,
        "latEnd": 33.812581,
        "lonEnd": -118.155769,
        "length": 0,
        "surfacetype": 1
      },
      {
        "type": 100,
        "width": 22.86,
        "surfaceType": null,
        "numberStart": "16L",
        "numberEnd": "34R",
        "latStart": 33.821845,
        "lonStart": -118.14795706,
        "latEnd": 33.8126861,
        "lonEnd": -118.14799351,
        "length": 0,
        "surfacetype": 1
      },
      {
        "type": 102,
        "width": 6.1,
        "surfaceType": 1,
        "numberStart": "H1",
        "numberEnd": null,
        "latStart": 33.81928611,
        "lonStart": -118.14898452,
        "latEnd": null,
        "lonEnd": null,
        "length": 6.1
      },
      {
        "type": 102,
        "width": 11.9,
        "surfaceType": 1,
        "numberStart": "H10",
        "numberEnd": null,
        "latStart": 33.81254378,
        "lonStart": -118.15402607,
        "latEnd": null,
        "lonEnd": null,
        "length": 11.9
      },
      {
        "type": 102,
        "width": 11.9,
        "surfaceType": 1,
        "numberStart": "H11",
        "numberEnd": null,
        "latStart": 33.812417,
        "lonStart": -118.15402584,
        "latEnd": null,
        "lonEnd": null,
        "length": 11.9
      },
      {
        "type": 102,
        "width": 11.9,
        "surfaceType": 1,
        "numberStart": "H12",
        "numberEnd": null,
        "latStart": 33.81229204,
        "lonStart": -118.15402475,
        "latEnd": null,
        "lonEnd": null,
        "length": 11.9
      },
      {
        "type": 102,
        "width": 6.1,
        "surfaceType": 1,
        "numberStart": "H2",
        "numberEnd": null,
        "latStart": 33.81986844,
        "lonStart": -118.14996803,
        "latEnd": null,
        "lonEnd": null,
        "length": 6.1
      },
      {
        "type": 102,
        "width": 6.1,
        "surfaceType": 1,
        "numberStart": "H3",
        "numberEnd": null,
        "latStart": 33.82046296,
        "lonStart": -118.15102896,
        "latEnd": null,
        "lonEnd": null,
        "length": 6.1
      },
      {
        "type": 102,
        "width": 6.1,
        "surfaceType": 1,
        "numberStart": "H4",
        "numberEnd": null,
        "latStart": 33.82094256,
        "lonStart": -118.15212588,
        "latEnd": null,
        "lonEnd": null,
        "length": 6.1
      },
      {
        "type": 102,
        "width": 6.1,
        "surfaceType": 1,
        "numberStart": "H5",
        "numberEnd": null,
        "latStart": 33.81573337,
        "lonStart": -118.15251988,
        "latEnd": null,
        "lonEnd": null,
        "length": 6.1
      },
      {
        "type": 102,
        "width": 6.1,
        "surfaceType": 1,
        "numberStart": "H6",
        "numberEnd": null,
        "latStart": 33.81536858,
        "lonStart": -118.15489072,
        "latEnd": null,
        "lonEnd": null,
        "length": 6.1
      },
      {
        "type": 102,
        "width": 11.9,
        "surfaceType": 1,
        "numberStart": "H7",
        "numberEnd": null,
        "latStart": 33.81666879,
        "lonStart": -118.14101199,
        "latEnd": null,
        "lonEnd": null,
        "length": 11.9
      },
      {
        "type": 102,
        "width": 11.9,
        "surfaceType": 1,
        "numberStart": "H8",
        "numberEnd": null,
        "latStart": 33.81618087,
        "lonStart": -118.14142755,
        "latEnd": null,
        "lonEnd": null,
        "length": 11.9
      },
      {
        "type": 102,
        "width": 11.9,
        "surfaceType": 1,
        "numberStart": "H9",
        "numberEnd": null,
        "latStart": 33.81267493,
        "lonStart": -118.15402629,
        "latEnd": null,
        "lonEnd": null,
        "length": 11.9
      }
    ],
    "id": 2885
  },
  {
    "type": 1,
    "icao": "KTOA",
    "lat": 33.803874523333334,
    "lon": -118.34076191999999,
    "communications": [
      {
        "type": 50,
        "frequency": 12560,
        "name": "ATIS"
      },
      {
        "type": 51,
        "frequency": 12400,
        "name": "CTAF"
      },
      {
        "type": 51,
        "frequency": 12295,
        "name": "UNICOM"
      },
      {
        "type": 53,
        "frequency": 12090,
        "name": "GND"
      },
      {
        "type": 54,
        "frequency": 13560,
        "name": "TWR (N)"
      },
      {
        "type": 54,
        "frequency": 12400,
        "name": "TWR (S)"
      },
      {
        "type": 55,
        "frequency": 12430,
        "name": "SOCAL APP/DEP (RWY11)"
      },
      {
        "type": 55,
        "frequency": 12720,
        "name": "SOCAL APP/DEP (RWY29)"
      }
    ],
    "elevation": 103,
    "tower": true,
    "name": "Torrance / Zamperini Field",
    "runways": [
      {
        "type": 100,
        "width": 45.72,
        "surfaceType": null,
        "numberStart": "11L",
        "numberEnd": "29R",
        "latStart": 33.80805938,
        "lonStart": -118.34566678,
        "latEnd": 33.79951238,
        "lonEnd": -118.33277678,
        "length": 0,
        "surfacetype": 1
      },
      {
        "type": 100,
        "width": 22.86,
        "surfaceType": null,
        "numberStart": "11R",
        "numberEnd": "29L",
        "latStart": 33.80527438,
        "lonStart": -118.34411379,
        "latEnd": 33.80014838,
        "lonEnd": -118.33638079,
        "length": 0,
        "surfacetype": 1
      },
      {
        "type": 102,
        "width": 6.5,
        "surfaceType": 1,
        "numberStart": "H1",
        "numberEnd": null,
        "latStart": 33.80099782,
        "lonStart": -118.33999542,
        "latEnd": null,
        "lonEnd": null,
        "length": 6.9
      },
      {
        "type": 102,
        "width": 46.9,
        "surfaceType": 1,
        "numberStart": "H2",
        "numberEnd": null,
        "latStart": 33.8092548,
        "lonStart": -118.34563796,
        "latEnd": null,
        "lonEnd": null,
        "length": 44.5
      }
    ],
    "id": 3335
  },
  {
    "type": 16,
    "icao": "L11",
    "lat": 33.33932697666666,
    "lon": -118.30906155000001,
    "communications": [],
    "elevation": 5,
    "tower": false,
    "name": "Pebbly Beach Seaplane Base",
    "runways": [
      {
        "type": 101,
        "width": 50,
        "surfaceType": null,
        "numberStart": "4",
        "numberEnd": "22",
        "latStart": 33.33751336,
        "lonStart": -118.31080271,
        "latEnd": 33.34378461,
        "lonEnd": -118.30492904,
        "length": 0
      },
      {
        "type": 102,
        "width": 14,
        "surfaceType": 15,
        "numberStart": "H1",
        "numberEnd": null,
        "latStart": 33.33668296,
        "lonStart": -118.3114529,
        "latEnd": null,
        "lonEnd": null,
        "length": 14
      }
    ],
    "id": 3430
  },
  {
    "type": 17,
    "icao": "0CA7",
    "lat": 33.75696138,
    "lon": -118.08756389,
    "communications": [],
    "elevation": 158,
    "tower": false,
    "name": "[H] R I Seal Beach Helistop B80",
    "runways": [
      {
        "type": 102,
        "width": 25.9,
        "surfaceType": 2,
        "numberStart": "H1",
        "numberEnd": null,
        "latStart": 33.75696138,
        "lonStart": -118.08756389,
        "latEnd": null,
        "lonEnd": null,
        "length": 25.9
      }
    ],
    "id": 5737
  },
  {
    "type": 17,
    "icao": "2CA1",
    "lat": 33.84362666,
    "lon": -118.33979556,
    "communications": [],
    "elevation": 126,
    "tower": false,
    "name": "[H] Cosmodyne",
    "runways": [
      {
        "type": 102,
        "width": 12.2,
        "surfaceType": 2,
        "numberStart": "H1",
        "numberEnd": null,
        "latStart": 33.84362666,
        "lonStart": -118.33979556,
        "latEnd": null,
        "lonEnd": null,
        "length": 12.2
      }
    ],
    "id": 6901
  },
  {
    "type": 17,
    "icao": "2CA5",
    "lat": 33.66232472,
    "lon": -118.04450584,
    "communications": [],
    "elevation": 85,
    "tower": false,
    "name": "[H] Platform Emmy",
    "runways": [
      {
        "type": 102,
        "width": 13.4,
        "surfaceType": 2,
        "numberStart": "H1",
        "numberEnd": null,
        "latStart": 33.66232472,
        "lonStart": -118.04450584,
        "latEnd": null,
        "lonEnd": null,
        "length": 13.4
      }
    ],
    "id": 6904
  },
  {
    "type": 17,
    "icao": "2CL0",
    "lat": 33.98668027,
    "lon": -118.16062556,
    "communications": [],
    "elevation": 133,
    "tower": false,
    "name": "[H] Commerce Business Park",
    "runways": [
      {
        "type": 102,
        "width": 19.8,
        "surfaceType": 2,
        "numberStart": "H1",
        "numberEnd": null,
        "latStart": 33.98668027,
        "lonStart": -118.16062556,
        "latEnd": null,
        "lonEnd": null,
        "length": 19.8
      }
    ],
    "id": 6910
  },
  {
    "type": 17,
    "icao": "3CL3",
    "lat": 33.77779583,
    "lon": -118.19951306,
    "communications": [],
    "elevation": 396,
    "tower": false,
    "name": "[H] World Trade Center",
    "runways": [
      {
        "type": 102,
        "width": 19.8,
        "surfaceType": 1,
        "numberStart": "H1",
        "numberEnd": null,
        "latStart": 33.77779583,
        "lonStart": -118.19951306,
        "latEnd": null,
        "lonEnd": null,
        "length": 19.8
      }
    ],
    "id": 7471
  },
  {
    "type": 17,
    "icao": "3CL6",
    "lat": 33.73696166,
    "lon": -118.39368417,
    "communications": [],
    "elevation": 83,
    "tower": false,
    "name": "[H] Long Point",
    "runways": [
      {
        "type": 102,
        "width": 6.1,
        "surfaceType": 2,
        "numberStart": "H1",
        "numberEnd": null,
        "latStart": 33.73696166,
        "lonStart": -118.39368417,
        "latEnd": null,
        "lonEnd": null,
        "length": 7.6
      }
    ],
    "id": 7473
  },
  {
    "type": 17,
    "icao": "3CL8",
    "lat": 33.85640277,
    "lon": -118.31257223,
    "communications": [],
    "elevation": 60,
    "tower": false,
    "name": "[H] Toyota Helistop",
    "runways": [
      {
        "type": 102,
        "width": 19.8,
        "surfaceType": 2,
        "numberStart": "H1",
        "numberEnd": null,
        "latStart": 33.85640277,
        "lonStart": -118.31257223,
        "latEnd": null,
        "lonEnd": null,
        "length": 26.8
      }
    ],
    "id": 7475
  },
  {
    "type": 17,
    "icao": "4CA4",
    "lat": 33.93029277,
    "lon": -118.20257112,
    "communications": [],
    "elevation": 152,
    "tower": false,
    "name": "[H] St Francis Medical Center Helistop",
    "runways": [
      {
        "type": 102,
        "width": 28.6,
        "surfaceType": 2,
        "numberStart": "H1",
        "numberEnd": null,
        "latStart": 33.93029277,
        "lonStart": -118.20257112,
        "latEnd": null,
        "lonEnd": null,
        "length": 19.5
      }
    ],
    "id": 8000
  },
  {
    "type": 17,
    "icao": "4CA6",
    "lat": 33.91417972,
    "lon": -118.42702056,
    "communications": [],
    "elevation": 27,
    "tower": false,
    "name": "[H] Chevron Refinery",
    "runways": [
      {
        "type": 102,
        "width": 21.3,
        "surfaceType": 1,
        "numberStart": "H1",
        "numberEnd": null,
        "latStart": 33.91417972,
        "lonStart": -118.42702056,
        "latEnd": null,
        "lonEnd": null,
        "length": 21.3
      }
    ],
    "id": 8002
  },
  {
    "type": 17,
    "icao": "6CA3",
    "lat": 33.74918499,
    "lon": -118.27479306,
    "communications": [],
    "elevation": 4,
    "tower": false,
    "name": "[H] Catalina Air-Sea Terminal",
    "runways": [
      {
        "type": 102,
        "width": 30.5,
        "surfaceType": 1,
        "numberStart": "H1",
        "numberEnd": null,
        "latStart": 33.74918499,
        "lonStart": -118.27479306,
        "latEnd": null,
        "lonEnd": null,
        "length": 45.7
      }
    ],
    "id": 9021
  },
  {
    "type": 17,
    "icao": "7CL5",
    "lat": 33.98083333,
    "lon": -118.40500001,
    "communications": [],
    "elevation": 15,
    "tower": false,
    "name": "[H] Playa Vista 1",
    "runways": [
      {
        "type": 102,
        "width": 19.8,
        "surfaceType": 1,
        "numberStart": "H1",
        "numberEnd": null,
        "latStart": 33.98083333,
        "lonStart": -118.40500001,
        "latEnd": null,
        "lonEnd": null,
        "length": 19.8
      }
    ],
    "id": 9537
  },
  {
    "type": 17,
    "icao": "7CL6",
    "lat": 33.97972222,
    "lon": -118.40777778,
    "communications": [],
    "elevation": 13,
    "tower": false,
    "name": "[H] Playa Vista 2",
    "runways": [
      {
        "type": 102,
        "width": 30.2,
        "surfaceType": 1,
        "numberStart": "H1",
        "numberEnd": null,
        "latStart": 33.97972222,
        "lonStart": -118.40777778,
        "latEnd": null,
        "lonEnd": null,
        "length": 30.2
      }
    ],
    "id": 9538
  },
  {
    "type": 17,
    "icao": "7CL7",
    "lat": 33.975,
    "lon": -118.41583334,
    "communications": [],
    "elevation": 9,
    "tower": false,
    "name": "[H] Playa Vista 3",
    "runways": [
      {
        "type": 102,
        "width": 30.2,
        "surfaceType": 1,
        "numberStart": "H1",
        "numberEnd": null,
        "latStart": 33.975,
        "lonStart": -118.41583334,
        "latEnd": null,
        "lonEnd": null,
        "length": 30.2
      }
    ],
    "id": 9539
  },
  {
    "type": 17,
    "icao": "7L1",
    "lat": 33.83418361,
    "lon": -118.26173778,
    "communications": [],
    "elevation": 17,
    "tower": false,
    "name": "[H] Carson Sheriff Station",
    "runways": [
      {
        "type": 102,
        "width": 22.9,
        "surfaceType": 2,
        "numberStart": "H1",
        "numberEnd": null,
        "latStart": 33.83418361,
        "lonStart": -118.26173778,
        "latEnd": null,
        "lonEnd": null,
        "length": 22.9
      }
    ],
    "id": 9671
  },
  {
    "type": 17,
    "icao": "9L6",
    "lat": 33.93029083,
    "lon": -118.39702028,
    "communications": [],
    "elevation": 237,
    "tower": false,
    "name": "[H] Airport Imperial Bldg Helistop",
    "runways": [
      {
        "type": 102,
        "width": 12.2,
        "surfaceType": 2,
        "numberStart": "H1",
        "numberEnd": null,
        "latStart": 33.93029083,
        "lonStart": -118.39702028,
        "latEnd": null,
        "lonEnd": null,
        "length": 12.2
      }
    ],
    "id": 10589
  },
  {
    "type": 17,
    "icao": "9L7",
    "lat": 33.93029083,
    "lon": -118.39813139,
    "communications": [],
    "elevation": 183,
    "tower": false,
    "name": "[H] Hughes Space & Comm",
    "runways": [
      {
        "type": 102,
        "width": 12.2,
        "surfaceType": 2,
        "numberStart": "H1",
        "numberEnd": null,
        "latStart": 33.93029083,
        "lonStart": -118.39813139,
        "latEnd": null,
        "lonEnd": null,
        "length": 12.2
      }
    ],
    "id": 10590
  },
  {
    "type": 17,
    "icao": "9L9",
    "lat": 33.9800125,
    "lon": -118.38229862,
    "communications": [],
    "elevation": 208,
    "tower": false,
    "name": "[H] Pacific Bell-2300 Imperial Hwy",
    "runways": [
      {
        "type": 102,
        "width": 15.9,
        "surfaceType": 2,
        "numberStart": "H1",
        "numberEnd": null,
        "latStart": 33.9800125,
        "lonStart": -118.38229862,
        "latEnd": null,
        "lonEnd": null,
        "length": 15.9
      }
    ],
    "id": 10591
  },
  {
    "type": 17,
    "icao": "20L",
    "lat": 33.67918527,
    "lon": -118.02839417,
    "communications": [],
    "elevation": 40,
    "tower": false,
    "name": "[H] Shell Western E & P Inc",
    "runways": [
      {
        "type": 102,
        "width": 22.9,
        "surfaceType": 1,
        "numberStart": "H1",
        "numberEnd": null,
        "latStart": 33.67918527,
        "lonStart": -118.02839417,
        "latEnd": null,
        "lonEnd": null,
        "length": 22.9
      }
    ],
    "id": 11309
  },
  {
    "type": 17,
    "icao": "21L",
    "lat": 33.74722222,
    "lon": -118.03444445,
    "communications": [],
    "elevation": 63,
    "tower": false,
    "name": "[H] Mc Donnell Douglas Space Systems",
    "runways": [
      {
        "type": 102,
        "width": 15.2,
        "surfaceType": 2,
        "numberStart": "H1",
        "numberEnd": null,
        "latStart": 33.74722222,
        "lonStart": -118.03444445,
        "latEnd": null,
        "lonEnd": null,
        "length": 15.2
      },
      {
        "type": 102,
        "width": 15.2,
        "surfaceType": 1,
        "numberStart": "H2",
        "numberEnd": null,
        "latStart": 33.74722222,
        "lonStart": -118.03444445,
        "latEnd": null,
        "lonEnd": null,
        "length": 15.2
      }
    ],
    "id": 11349
  },
  {
    "type": 17,
    "icao": "36L",
    "lat": 33.85084916,
    "lon": -118.13340056,
    "communications": [],
    "elevation": 58,
    "tower": false,
    "name": "[H] L A Co Sheriff Lakewood",
    "runways": [
      {
        "type": 102,
        "width": 9.1,
        "surfaceType": 2,
        "numberStart": "H1",
        "numberEnd": null,
        "latStart": 33.85084916,
        "lonStart": -118.13340056,
        "latEnd": null,
        "lonEnd": null,
        "length": 15.2
      }
    ],
    "id": 11938
  },
  {
    "type": 17,
    "icao": "39L",
    "lat": 33.80835027,
    "lon": -118.18729084,
    "communications": [],
    "elevation": 83,
    "tower": false,
    "name": "[H] Memorial Medical Center Long Beach",
    "runways": [
      {
        "type": 102,
        "width": 19.8,
        "surfaceType": 2,
        "numberStart": "H1",
        "numberEnd": null,
        "latStart": 33.80835027,
        "lonStart": -118.18729084,
        "latEnd": null,
        "lonEnd": null,
        "length": 20.1
      }
    ],
    "id": 12062
  },
  {
    "type": 17,
    "icao": "40L",
    "lat": 33.82612666,
    "lon": -118.08367612,
    "communications": [],
    "elevation": 32,
    "tower": false,
    "name": "[H] Naval Hospital Long Beach",
    "runways": [
      {
        "type": 102,
        "width": 30.5,
        "surfaceType": 2,
        "numberStart": "H1",
        "numberEnd": null,
        "latStart": 33.82612666,
        "lonStart": -118.08367612,
        "latEnd": null,
        "lonEnd": null,
        "length": 30.5
      }
    ],
    "id": 12097
  },
  {
    "type": 17,
    "icao": "42L",
    "lat": 33.76474,
    "lon": -118.19951278,
    "communications": [],
    "elevation": 15,
    "tower": false,
    "name": "[H] Naa Long Beach Port Helistop",
    "runways": [
      {
        "type": 102,
        "width": 22.9,
        "surfaceType": 1,
        "numberStart": "H1",
        "numberEnd": null,
        "latStart": 33.76474,
        "lonStart": -118.19951278,
        "latEnd": null,
        "lonEnd": null,
        "length": 32
      }
    ],
    "id": 12176
  },
  {
    "type": 17,
    "icao": "48CA",
    "lat": 33.74529416,
    "lon": -118.00006028,
    "communications": [],
    "elevation": 27,
    "tower": false,
    "name": "[H] Huntington Beach Service Center",
    "runways": [
      {
        "type": 102,
        "width": 15.2,
        "surfaceType": 1,
        "numberStart": "H1",
        "numberEnd": null,
        "latStart": 33.74529416,
        "lonStart": -118.00006028,
        "latEnd": null,
        "lonEnd": null,
        "length": 15.2
      }
    ],
    "id": 12394
  },
  {
    "type": 17,
    "icao": "50CA",
    "lat": 33.77890638,
    "lon": -118.18590139,
    "communications": [],
    "elevation": 172,
    "tower": false,
    "name": "[H] St Mary Medical Center",
    "runways": [
      {
        "type": 102,
        "width": 12.2,
        "surfaceType": 2,
        "numberStart": "H1",
        "numberEnd": null,
        "latStart": 33.77890638,
        "lonStart": -118.18590139,
        "latEnd": null,
        "lonEnd": null,
        "length": 12.2
      }
    ],
    "id": 12469
  },
  {
    "type": 17,
    "icao": "57CA",
    "lat": 33.95334638,
    "lon": -118.38090917,
    "communications": [],
    "elevation": 125,
    "tower": false,
    "name": "[H] Merle Norman Cosmetics Bldg 3",
    "runways": [
      {
        "type": 102,
        "width": 30.5,
        "surfaceType": 1,
        "numberStart": "H1",
        "numberEnd": null,
        "latStart": 33.95334638,
        "lonStart": -118.38090917,
        "latEnd": null,
        "lonEnd": null,
        "length": 30.5
      }
    ],
    "id": 12749
  },
  {
    "type": 1,
    "icao": "64CL",
    "lat": 33.856405269999996,
    "lon": -118.27729445,
    "communications": [],
    "elevation": 21,
    "tower": false,
    "name": "Goodyear Blimp Base",
    "runways": [
      {
        "type": 100,
        "width": 274.32,
        "surfaceType": null,
        "numberStart": "14",
        "numberEnd": "32",
        "latStart": 33.85781599,
        "lonStart": -118.27831517,
        "latEnd": 33.85499455,
        "lonEnd": -118.27627373,
        "length": 0,
        "surfacetype": 3
      }
    ],
    "id": 13021
  },
  {
    "type": 17,
    "icao": "75CA",
    "lat": 33.67779638,
    "lon": -118.00033695,
    "communications": [],
    "elevation": 157,
    "tower": false,
    "name": "[H] Civic Center",
    "runways": [
      {
        "type": 102,
        "width": 13.7,
        "surfaceType": 2,
        "numberStart": "H1",
        "numberEnd": null,
        "latStart": 33.67779638,
        "lonStart": -118.00033695,
        "latEnd": null,
        "lonEnd": null,
        "length": 13.7
      }
    ],
    "id": 13469
  },
  {
    "type": 17,
    "icao": "75L",
    "lat": 33.89695833,
    "lon": -118.3828525,
    "communications": [],
    "elevation": 94,
    "tower": false,
    "name": "[H] Trw Manhattan Beach",
    "runways": [
      {
        "type": 102,
        "width": 30.5,
        "surfaceType": 1,
        "numberStart": "H1",
        "numberEnd": null,
        "latStart": 33.89695833,
        "lonStart": -118.3828525,
        "latEnd": null,
        "lonEnd": null,
        "length": 30.5
      }
    ],
    "id": 13483
  },
  {
    "type": 17,
    "icao": "83L",
    "lat": 33.91362527,
    "lon": -118.07312139,
    "communications": [],
    "elevation": 233,
    "tower": false,
    "name": "[H] Southeast Superior Court",
    "runways": [
      {
        "type": 102,
        "width": 19.8,
        "surfaceType": 2,
        "numberStart": "H1",
        "numberEnd": null,
        "latStart": 33.91362527,
        "lonStart": -118.07312139,
        "latEnd": null,
        "lonEnd": null,
        "length": 19.8
      }
    ],
    "id": 13787
  },
  {
    "type": 17,
    "icao": "84L",
    "lat": 33.91334722,
    "lon": -118.06978834,
    "communications": [],
    "elevation": 101,
    "tower": false,
    "name": "[H] Norwalk Sheriff Station",
    "runways": [
      {
        "type": 102,
        "width": 6.1,
        "surfaceType": 1,
        "numberStart": "H1",
        "numberEnd": null,
        "latStart": 33.91334722,
        "lonStart": -118.06978834,
        "latEnd": null,
        "lonEnd": null,
        "length": 6.1
      }
    ],
    "id": 13824
  },
  {
    "type": 17,
    "icao": "90L",
    "lat": 33.76057194,
    "lon": -118.38840612,
    "communications": [],
    "elevation": 1080,
    "tower": false,
    "name": "[H] Northrop Palos Verdes",
    "runways": [
      {
        "type": 102,
        "width": 30.5,
        "surfaceType": 1,
        "numberStart": "H1",
        "numberEnd": null,
        "latStart": 33.76057194,
        "lonStart": -118.38840612,
        "latEnd": null,
        "lonEnd": null,
        "length": 30.5
      }
    ],
    "id": 14029
  },
  {
    "type": 17,
    "icao": "99CA",
    "lat": 33.73862916,
    "lon": -118.31062667,
    "communications": [],
    "elevation": 270,
    "tower": false,
    "name": "[H] San Pedro Peninsula Hospital",
    "runways": [
      {
        "type": 102,
        "width": 14,
        "surfaceType": 2,
        "numberStart": "H1",
        "numberEnd": null,
        "latStart": 33.73862916,
        "lonStart": -118.31062667,
        "latEnd": null,
        "lonEnd": null,
        "length": 14
      }
    ],
    "id": 14318
  },
  {
    "type": 17,
    "icao": "CA52",
    "lat": 33.73210194,
    "lon": -118.27604306,
    "communications": [],
    "elevation": 0,
    "tower": false,
    "name": "[H] Ports O Call",
    "runways": [
      {
        "type": 102,
        "width": 6.1,
        "surfaceType": 1,
        "numberStart": "H1",
        "numberEnd": null,
        "latStart": 33.73210194,
        "lonStart": -118.27604306,
        "latEnd": null,
        "lonEnd": null,
        "length": 6.1
      }
    ],
    "id": 15037
  },
  {
    "type": 17,
    "icao": "CA79",
    "lat": 33.98445583,
    "lon": -118.45007862,
    "communications": [],
    "elevation": 147,
    "tower": false,
    "name": "[H] The Ritz-Carlton Hotel Company",
    "runways": [
      {
        "type": 102,
        "width": 6.1,
        "surfaceType": 2,
        "numberStart": "H1",
        "numberEnd": null,
        "latStart": 33.98445583,
        "lonStart": -118.45007862,
        "latEnd": null,
        "lonEnd": null,
        "length": 6.1
      }
    ],
    "id": 15063
  },
  {
    "type": 17,
    "icao": "CA92",
    "lat": 33.8527925,
    "lon": -118.38146362,
    "communications": [],
    "elevation": 162,
    "tower": false,
    "name": "[H] South Bay Hospital",
    "runways": [
      {
        "type": 102,
        "width": 36.6,
        "surfaceType": 1,
        "numberStart": "H1",
        "numberEnd": null,
        "latStart": 33.8527925,
        "lonStart": -118.38146362,
        "latEnd": null,
        "lonEnd": null,
        "length": 30.5
      }
    ],
    "id": 15073
  },
  {
    "type": 17,
    "icao": "CA99",
    "lat": 33.80723888,
    "lon": -118.14617834,
    "communications": [],
    "elevation": 121,
    "tower": false,
    "name": "[H] Kilroy Ac8-Long Beach",
    "runways": [
      {
        "type": 102,
        "width": 15.2,
        "surfaceType": 2,
        "numberStart": "H1",
        "numberEnd": null,
        "latStart": 33.80723888,
        "lonStart": -118.14617834,
        "latEnd": null,
        "lonEnd": null,
        "length": 15.2
      }
    ],
    "id": 15079
  },
  {
    "type": 17,
    "icao": "CL02",
    "lat": 33.93251333,
    "lon": -118.38479806,
    "communications": [],
    "elevation": 253,
    "tower": false,
    "name": "[H] Kilroy Airport Center",
    "runways": [
      {
        "type": 102,
        "width": 13.4,
        "surfaceType": 2,
        "numberStart": "H1",
        "numberEnd": null,
        "latStart": 33.93251333,
        "lonStart": -118.38479806,
        "latEnd": null,
        "lonEnd": null,
        "length": 13.4
      }
    ],
    "id": 15363
  },
  {
    "type": 17,
    "icao": "CL03",
    "lat": 33.91695777,
    "lon": -118.39507612,
    "communications": [],
    "elevation": 402,
    "tower": false,
    "name": "[H] Airport Towers Nr 1",
    "runways": [
      {
        "type": 102,
        "width": 21.3,
        "surfaceType": 2,
        "numberStart": "H1",
        "numberEnd": null,
        "latStart": 33.91695777,
        "lonStart": -118.39507612,
        "latEnd": null,
        "lonEnd": null,
        "length": 22.6
      }
    ],
    "id": 15364
  },
  {
    "type": 17,
    "icao": "CL30",
    "lat": 33.75501805,
    "lon": -118.19479028,
    "communications": [],
    "elevation": 12,
    "tower": false,
    "name": "[H] Queensway Bay",
    "runways": [
      {
        "type": 102,
        "width": 30.5,
        "surfaceType": 1,
        "numberStart": "H1",
        "numberEnd": null,
        "latStart": 33.75501805,
        "lonStart": -118.19479028,
        "latEnd": null,
        "lonEnd": null,
        "length": 30.5
      }
    ],
    "id": 15386
  },
  {
    "type": 17,
    "icao": "CL38",
    "lat": 33.56391166,
    "lon": -118.11756473,
    "communications": [],
    "elevation": 123,
    "tower": false,
    "name": "[H] Swepi Beta Platform Eureka",
    "runways": [
      {
        "type": 102,
        "width": 17.4,
        "surfaceType": 1,
        "numberStart": "H1",
        "numberEnd": null,
        "latStart": 33.56391166,
        "lonStart": -118.11756473,
        "latEnd": null,
        "lonEnd": null,
        "length": 18.6
      }
    ],
    "id": 15393
  },
  {
    "type": 17,
    "icao": "CL43",
    "lat": 33.75501694,
    "lon": -118.09339723,
    "communications": [],
    "elevation": 20,
    "tower": false,
    "name": "[H] Rockwell International Seal Beach",
    "runways": [
      {
        "type": 102,
        "width": 15.2,
        "surfaceType": 1,
        "numberStart": "H1",
        "numberEnd": null,
        "latStart": 33.75501694,
        "lonStart": -118.09339723,
        "latEnd": null,
        "lonEnd": null,
        "length": 15.2
      }
    ],
    "id": 15397
  },
  {
    "type": 17,
    "icao": "CL48",
    "lat": 33.77585027,
    "lon": -118.11950973,
    "communications": [],
    "elevation": 76,
    "tower": false,
    "name": "[H] Va Medical Center",
    "runways": [
      {
        "type": 102,
        "width": 24.4,
        "surfaceType": 2,
        "numberStart": "H1",
        "numberEnd": null,
        "latStart": 33.77585027,
        "lonStart": -118.11950973,
        "latEnd": null,
        "lonEnd": null,
        "length": 67.1
      }
    ],
    "id": 15401
  },
  {
    "type": 17,
    "icao": "CL71",
    "lat": 33.96612305,
    "lon": -118.42424362,
    "communications": [],
    "elevation": 75,
    "tower": false,
    "name": "[H] Hughes Corporate",
    "runways": [
      {
        "type": 102,
        "width": 18.3,
        "surfaceType": 2,
        "numberStart": "H1",
        "numberEnd": null,
        "latStart": 33.96612305,
        "lonStart": -118.42424362,
        "latEnd": null,
        "lonEnd": null,
        "length": 36.6
      }
    ],
    "id": 15420
  },
  {
    "type": 17,
    "icao": "CL98",
    "lat": 33.75779472,
    "lon": -118.08478584,
    "communications": [],
    "elevation": 12,
    "tower": false,
    "name": "[H] Rockwell Facility",
    "runways": [
      {
        "type": 102,
        "width": 18.3,
        "surfaceType": 2,
        "numberStart": "H1",
        "numberEnd": null,
        "latStart": 33.75779472,
        "lonStart": -118.08478584,
        "latEnd": null,
        "lonEnd": null,
        "length": 18.3
      }
    ],
    "id": 15444
  },
  {
    "type": 17,
    "icao": "KJDY",
    "lat": 33.92334777,
    "lon": -118.12645751,
    "communications": [],
    "elevation": 120,
    "tower": false,
    "name": "[H] R I Sd Downey Helistop",
    "runways": [
      {
        "type": 102,
        "width": 16.8,
        "surfaceType": 2,
        "numberStart": "H1",
        "numberEnd": null,
        "latStart": 33.92334777,
        "lonStart": -118.12645751,
        "latEnd": null,
        "lonEnd": null,
        "length": 32
      }
    ],
    "id": 19363
  },
  {
    "type": 1,
    "icao": "KNUC",
    "lat": 33.0227445,
    "lon": -118.58848750000001,
    "communications": [
      {
        "type": 53,
        "frequency": 11955,
        "name": "GND"
      },
      {
        "type": 54,
        "frequency": 12675,
        "name": "TWR"
      },
      {
        "type": 54,
        "frequency": 12085,
        "name": "BEAVER CON"
      }
    ],
    "elevation": 182,
    "tower": true,
    "name": "San Clemente Island Nalf",
    "runways": [
      {
        "type": 100,
        "width": 60.96,
        "surfaceType": null,
        "numberStart": "06",
        "numberEnd": "24",
        "latStart": 33.017811,
        "lonStart": -118.602483,
        "latEnd": 33.027678,
        "lonEnd": -118.574492,
        "length": 0,
        "surfacetype": 2
      }
    ],
    "id": 19588
  },
  {
    "type": 1,
    "icao": "KSLI",
    "lat": 33.789834,
    "lon": -118.05027733333334,
    "communications": [
      {
        "type": 53,
        "frequency": 12695,
        "name": "GND"
      },
      {
        "type": 54,
        "frequency": 12385,
        "name": "TWR"
      },
      {
        "type": 55,
        "frequency": 12465,
        "name": "SOCAL APP/DEP"
      }
    ],
    "elevation": 35,
    "tower": true,
    "name": "Los Alamitos AAF",
    "runways": [
      {
        "type": 100,
        "width": 60.96,
        "surfaceType": null,
        "numberStart": "04R",
        "numberEnd": "22L",
        "latStart": 33.78380729,
        "lonStart": -118.0602755,
        "latEnd": 33.79630271,
        "lonEnd": -118.0386105,
        "length": 0,
        "surfacetype": 1
      },
      {
        "type": 100,
        "width": 45.72,
        "surfaceType": null,
        "numberStart": "04L",
        "numberEnd": "22R",
        "latStart": 33.78531742,
        "lonStart": -118.06211738,
        "latEnd": 33.79455058,
        "lonEnd": -118.04610862,
        "length": 0,
        "surfacetype": 1
      },
      {
        "type": 100,
        "width": 45.72,
        "surfaceType": null,
        "numberStart": "17",
        "numberEnd": "35",
        "latStart": 33.79376462,
        "lonStart": -118.047276,
        "latEnd": 33.78526138,
        "lonEnd": -118.047276,
        "length": 0,
        "surfacetype": 1
      }
    ],
    "id": 19819
  }
]