[
  {
    "type": 1,
    "icao": "KPWK",
    "lat": 42.114076000000004,
    "lon": -87.90135350000001,
    "communications": [
      {
        "type": 50,
        "frequency": 12420,
        "name": "ATIS"
      },
      {
        "type": 51,
        "frequency": 11990,
        "name": "CTAF"
      },
      {
        "type": 51,
        "frequency": 12295,
        "name": "UNICOM"
      },
      {
        "type": 52,
        "frequency": 12470,
        "name": "CLNC DEL"
      },
      {
        "type": 53,
        "frequency": 12170,
        "name": "GND"
      },
      {
        "type": 54,
        "frequency": 11990,
        "name": "TWR"
      },
      {
        "type": 55,
        "frequency": 12055,
        "name": "CHICAGO APP/DEP"
      },
      {
        "type": 55,
        "frequency": 12500,
        "name": "CHICAGO APP/DEP"
      }
    ],
    "elevation": 646,
    "tower": true,
    "name": "Chicago Executive",
    "runways": [
      {
        "type": 100,
        "width": 45.72,
        "surfaceType": null,
        "numberStart": "16",
        "numberEnd": "34",
        "latStart": 42.123328,
        "lonStart": -87.907131,
        "latEnd": 42.110553,
        "lonEnd": -87.900406,
        "length": 0,
        "surfacetype": 1
      },
      {
        "type": 100,
        "width": 22.86,
        "surfaceType": null,
        "numberStart": "12",
        "numberEnd": "30",
        "latStart": 42.115361,
        "lonStart": -87.907078,
        "latEnd": 42.109714,
        "lonEnd": -87.892803,
        "length": 0,
        "surfacetype": 1
      },
      {
        "type": 100,
        "width": 15.24,
        "surfaceType": null,
        "numberStart": "06",
        "numberEnd": "24",
        "latStart": 42.1105,
        "lonStart": -87.906381,
        "latEnd": 42.115,
        "lonEnd": -87.894322,
        "length": 0,
        "surfacetype": 1
      }
    ],
    "id": 4897
  },
  {
    "type": 1,
    "icao": "0WI5",
    "lat": 42.79335166,
    "lon": -87.89063528,
    "communications": [],
    "elevation": 754,
    "tower": false,
    "name": "Crash In International",
    "runways": [
      {
        "type": 100,
        "width": 30.48,
        "surfaceType": null,
        "numberStart": "09",
        "numberEnd": "27",
        "latStart": 42.79325593,
        "lonStart": -87.89437101,
        "latEnd": 42.79344739,
        "lonEnd": -87.88689955,
        "length": 0,
        "surfacetype": 3
      }
    ],
    "id": 5462
  },
  {
    "type": 1,
    "icao": "KMKE",
    "lat": 42.947932562,
    "lon": -87.896468009,
    "communications": [
      {
        "type": 50,
        "frequency": 12640,
        "name": "ATIS"
      },
      {
        "type": 51,
        "frequency": 12295,
        "name": "UNICOM"
      },
      {
        "type": 52,
        "frequency": 12080,
        "name": "MILWAUKEE CLNC DEL"
      },
      {
        "type": 53,
        "frequency": 12180,
        "name": "MILWAUKEE GND"
      },
      {
        "type": 54,
        "frequency": 11910,
        "name": "MILWAUKEE TWR"
      },
      {
        "type": 55,
        "frequency": 11800,
        "name": "MILWAUKEE APP"
      },
      {
        "type": 55,
        "frequency": 12650,
        "name": "MILWAUKEE APP"
      },
      {
        "type": 56,
        "frequency": 11965,
        "name": "MILWAUKEE DEP"
      },
      {
        "type": 56,
        "frequency": 12535,
        "name": "MILWAUKEE DEP"
      }
    ],
    "elevation": 723,
    "tower": true,
    "name": "General Mitchell Intl",
    "runways": [
      {
        "type": 100,
        "width": 60.96,
        "surfaceType": null,
        "numberStart": "01L",
        "numberEnd": "19R",
        "latStart": 42.93049562,
        "lonStart": -87.89764796,
        "latEnd": 42.95769089,
        "lonEnd": -87.89299858,
        "length": 0,
        "surfacetype": 2
      },
      {
        "type": 100,
        "width": 45.72,
        "surfaceType": null,
        "numberStart": "07R",
        "numberEnd": "25L",
        "latStart": 42.93907252,
        "lonStart": -87.91775868,
        "latEnd": 42.94623905,
        "lonEnd": -87.88833927,
        "length": 0,
        "surfacetype": 2
      },
      {
        "type": 100,
        "width": 45.72,
        "surfaceType": null,
        "numberStart": "13",
        "numberEnd": "31",
        "latStart": 42.95813341,
        "lonStart": -87.90342518,
        "latEnd": 42.9479164,
        "lonEnd": -87.88811318,
        "length": 0,
        "surfacetype": 1
      },
      {
        "type": 100,
        "width": 30.48,
        "surfaceType": null,
        "numberStart": "07L",
        "numberEnd": "25R",
        "latStart": 42.95274474,
        "lonStart": -87.90531855,
        "latEnd": 42.9568913,
        "lonEnd": -87.88829995,
        "length": 0,
        "surfacetype": 1
      },
      {
        "type": 100,
        "width": 45.72,
        "surfaceType": null,
        "numberStart": "01R",
        "numberEnd": "19L",
        "latStart": 42.93937797,
        "lonStart": -87.89236326,
        "latEnd": 42.95076372,
        "lonEnd": -87.89041548,
        "length": 0,
        "surfacetype": 1
      }
    ],
    "id": 10389
  },
  {
    "type": 1,
    "icao": "IL02",
    "lat": 42.4722425,
    "lon": -87.90840945,
    "communications": [],
    "elevation": 719,
    "tower": false,
    "name": "Herbert C. Maas",
    "runways": [
      {
        "type": 100,
        "width": 24.38,
        "surfaceType": null,
        "numberStart": "06",
        "numberEnd": "24",
        "latStart": 42.47040594,
        "lonStart": -87.91255334,
        "latEnd": 42.47407906,
        "lonEnd": -87.90426556,
        "length": 0,
        "surfacetype": 3
      }
    ],
    "id": 11703
  },
  {
    "type": 1,
    "icao": "KRAC",
    "lat": 42.76116475,
    "lon": -87.8140305,
    "communications": [
      {
        "type": 51,
        "frequency": 12307,
        "name": "CTAF/UNICOM"
      },
      {
        "type": 52,
        "frequency": 12015,
        "name": "CLNC DEL"
      },
      {
        "type": 55,
        "frequency": 12015,
        "name": "MILWAUKEE APP/DEP"
      }
    ],
    "elevation": 674,
    "tower": true,
    "name": "John H Batten",
    "runways": [
      {
        "type": 100,
        "width": 30.48,
        "surfaceType": null,
        "numberStart": "04",
        "numberEnd": "22",
        "latStart": 42.754392,
        "lonStart": -87.820342,
        "latEnd": 42.768767,
        "lonEnd": -87.805669,
        "length": 0,
        "surfacetype": 2
      },
      {
        "type": 100,
        "width": 30.48,
        "surfaceType": null,
        "numberStart": "14",
        "numberEnd": "32",
        "latStart": 42.764778,
        "lonStart": -87.821211,
        "latEnd": 42.756722,
        "lonEnd": -87.8089,
        "length": 0,
        "surfacetype": 1
      }
    ],
    "id": 13028
  },
  {
    "type": 1,
    "icao": "KENW",
    "lat": 42.59542430333334,
    "lon": -87.92698308333333,
    "communications": [
      {
        "type": 50,
        "frequency": 12717,
        "name": "ASOS"
      },
      {
        "type": 50,
        "frequency": 12717,
        "name": "ATIS"
      },
      {
        "type": 51,
        "frequency": 11860,
        "name": "CTAF"
      },
      {
        "type": 51,
        "frequency": 12295,
        "name": "UNICOM"
      },
      {
        "type": 52,
        "frequency": 11860,
        "name": "CLNC DEL"
      },
      {
        "type": 53,
        "frequency": 12187,
        "name": "GND"
      },
      {
        "type": 54,
        "frequency": 11860,
        "name": "TWR"
      },
      {
        "type": 55,
        "frequency": 12015,
        "name": "MILWAUKEE APP/DEP"
      }
    ],
    "elevation": 743,
    "tower": true,
    "name": "KENOSHA RGNL",
    "runways": [
      {
        "type": 100,
        "width": 30.48,
        "surfaceType": null,
        "numberStart": "07L",
        "numberEnd": "25R",
        "latStart": 42.59299807,
        "lonStart": -87.94172077,
        "latEnd": 42.59967119,
        "lonEnd": -87.92339621,
        "length": 0,
        "surfacetype": 2
      },
      {
        "type": 100,
        "width": 30.48,
        "surfaceType": null,
        "numberStart": "15",
        "numberEnd": "33",
        "latStart": 42.60189203,
        "lonStart": -87.93067022,
        "latEnd": 42.59211771,
        "lonEnd": -87.92096668,
        "length": 0,
        "surfacetype": 2
      },
      {
        "type": 100,
        "width": 22.86,
        "surfaceType": null,
        "numberStart": "07R",
        "numberEnd": "25L",
        "latStart": 42.59092839,
        "lonStart": -87.92807055,
        "latEnd": 42.59493843,
        "lonEnd": -87.91707407,
        "length": 0,
        "surfacetype": 1
      }
    ],
    "id": 13312
  },
  {
    "type": 1,
    "icao": "7IL2",
    "lat": 42.36835472,
    "lon": -87.99174445,
    "communications": [],
    "elevation": 790,
    "tower": false,
    "name": "O John Clark Rla",
    "runways": [
      {
        "type": 100,
        "width": 36.58,
        "surfaceType": null,
        "numberStart": "18",
        "numberEnd": "36",
        "latStart": 42.36473454,
        "lonStart": -87.99165892,
        "latEnd": 42.3719749,
        "lonEnd": -87.99182998,
        "length": 0,
        "surfacetype": 3
      }
    ],
    "id": 18575
  },
  {
    "type": 1,
    "icao": "C89",
    "lat": 42.70307444,
    "lon": -87.95841417,
    "communications": [],
    "elevation": 785,
    "tower": false,
    "name": "Sylvania",
    "runways": [
      {
        "type": 100,
        "width": 10.06,
        "surfaceType": null,
        "numberStart": "08",
        "numberEnd": "26",
        "latStart": 42.70247255,
        "lonStart": -87.96262776,
        "latEnd": 42.70367633,
        "lonEnd": -87.95420058,
        "length": 0,
        "surfacetype": 1
      }
    ],
    "id": 24500
  },
  {
    "type": 1,
    "icao": "8WI5",
    "lat": 42.57224138,
    "lon": -87.97785805999999,
    "communications": [],
    "elevation": 740,
    "tower": false,
    "name": "Thompson Strawberry Farm",
    "runways": [
      {
        "type": 100,
        "width": 30.48,
        "surfaceType": null,
        "numberStart": "18",
        "numberEnd": "36",
        "latStart": 42.57676661,
        "lonStart": -87.97796532,
        "latEnd": 42.56771615,
        "lonEnd": -87.9777508,
        "length": 0,
        "surfacetype": 3
      }
    ],
    "id": 25295
  },
  {
    "type": 1,
    "icao": "KUGN",
    "lat": 42.42240075,
    "lon": -87.86810750000001,
    "communications": [
      {
        "type": 50,
        "frequency": 13240,
        "name": "ATIS"
      },
      {
        "type": 51,
        "frequency": 12005,
        "name": "CTAF"
      },
      {
        "type": 51,
        "frequency": 12295,
        "name": "UNICOM"
      },
      {
        "type": 53,
        "frequency": 12165,
        "name": "GND"
      },
      {
        "type": 54,
        "frequency": 12005,
        "name": "TWR"
      },
      {
        "type": 55,
        "frequency": 12055,
        "name": "CHICAGO APP/DEP"
      }
    ],
    "elevation": 727,
    "tower": true,
    "name": "WAUKEGAN RGNL",
    "runways": [
      {
        "type": 100,
        "width": 45.72,
        "surfaceType": null,
        "numberStart": "05",
        "numberEnd": "23",
        "latStart": 42.415853,
        "lonStart": -87.875608,
        "latEnd": 42.426769,
        "lonEnd": -87.858981,
        "length": 0,
        "surfacetype": 1
      },
      {
        "type": 100,
        "width": 22.86,
        "surfaceType": null,
        "numberStart": "14",
        "numberEnd": "32",
        "latStart": 42.427664,
        "lonStart": -87.872983,
        "latEnd": 42.419317,
        "lonEnd": -87.864858,
        "length": 0,
        "surfacetype": 1
      }
    ],
    "id": 26540
  },
  {
    "type": 17,
    "icao": "9WI0",
    "lat": 42.962515,
    "lon": -87.97508528,
    "communications": [],
    "elevation": 759,
    "tower": false,
    "name": "[H] All-State Equipment Co.",
    "runways": [
      {
        "type": 102,
        "width": 15.2,
        "surfaceType": 1,
        "numberStart": "H1",
        "numberEnd": null,
        "latStart": 42.962515,
        "lonStart": -87.97508528,
        "latEnd": null,
        "lonEnd": null,
        "length": 15.2
      }
    ],
    "id": 28084
  },
  {
    "type": 17,
    "icao": "9IL5",
    "lat": 42.19835777,
    "lon": -87.82673389,
    "communications": [],
    "elevation": 640,
    "tower": false,
    "name": "[H] City of Highland Park",
    "runways": [
      {
        "type": 102,
        "width": 42.7,
        "surfaceType": 2,
        "numberStart": "H1",
        "numberEnd": null,
        "latStart": 42.19835777,
        "lonStart": -87.82673389,
        "latEnd": null,
        "lonEnd": null,
        "length": 42.7
      }
    ],
    "id": 28981
  },
  {
    "type": 17,
    "icao": "KNBU",
    "lat": 42.08333333,
    "lon": -87.81683334,
    "communications": [],
    "elevation": 633,
    "tower": false,
    "name": "[H] Coast Guard Air Facility Glenview",
    "runways": [
      {
        "type": 102,
        "width": 27.4,
        "surfaceType": 1,
        "numberStart": "H1",
        "numberEnd": null,
        "latStart": 42.08333333,
        "lonStart": -87.81683334,
        "latEnd": null,
        "lonEnd": null,
        "length": 457.2
      }
    ],
    "id": 29025
  },
  {
    "type": 17,
    "icao": "02IS",
    "lat": 42.27502305,
    "lon": -87.95701889,
    "communications": [],
    "elevation": 720,
    "tower": false,
    "name": "[H] Condell Memorial Hospital",
    "runways": [
      {
        "type": 102,
        "width": 12.2,
        "surfaceType": 1,
        "numberStart": "H1",
        "numberEnd": null,
        "latStart": 42.27502305,
        "lonStart": -87.95701889,
        "latEnd": null,
        "lonEnd": null,
        "length": 12.2
      }
    ],
    "id": 29105
  },
  {
    "type": 17,
    "icao": "0IS2",
    "lat": 42.09308305,
    "lon": -87.85256584,
    "communications": [],
    "elevation": 678,
    "tower": false,
    "name": "[H] Evanston Glenbrook",
    "runways": [
      {
        "type": 102,
        "width": 18.3,
        "surfaceType": 2,
        "numberStart": "H1",
        "numberEnd": null,
        "latStart": 42.09308305,
        "lonStart": -87.85256584,
        "latEnd": null,
        "lonEnd": null,
        "length": 18.3
      }
    ],
    "id": 29594
  },
  {
    "type": 17,
    "icao": "3IL8",
    "lat": 42.06475166,
    "lon": -87.68450334,
    "communications": [],
    "elevation": 608,
    "tower": false,
    "name": "[H] Evanston Hospital-Golf Course Site",
    "runways": [
      {
        "type": 102,
        "width": 12.2,
        "surfaceType": 3,
        "numberStart": "H1",
        "numberEnd": null,
        "latStart": 42.06475166,
        "lonStart": -87.68450334,
        "latEnd": null,
        "lonEnd": null,
        "length": 12.2
      }
    ],
    "id": 29595
  },
  {
    "type": 17,
    "icao": "9IS6",
    "lat": 42.06169638,
    "lon": -87.67394723,
    "communications": [],
    "elevation": 609,
    "tower": false,
    "name": "[H] Evanston Water Plant",
    "runways": [
      {
        "type": 102,
        "width": 24.4,
        "surfaceType": 3,
        "numberStart": "H1",
        "numberEnd": null,
        "latStart": 42.06169638,
        "lonStart": -87.67394723,
        "latEnd": null,
        "lonEnd": null,
        "length": 58.5
      }
    ],
    "id": 29596
  },
  {
    "type": 17,
    "icao": "6IS5",
    "lat": 42.05502833,
    "lon": -87.89145528,
    "communications": [],
    "elevation": 649,
    "tower": false,
    "name": "[H] Holy Family Hospital",
    "runways": [
      {
        "type": 102,
        "width": 106.7,
        "surfaceType": 2,
        "numberStart": "H1",
        "numberEnd": null,
        "latStart": 42.05502833,
        "lonStart": -87.89145528,
        "latEnd": null,
        "lonEnd": null,
        "length": 304.8
      }
    ],
    "id": 30279
  },
  {
    "type": 17,
    "icao": "1WI4",
    "lat": 42.70835305,
    "lon": -87.79174112,
    "communications": [],
    "elevation": 640,
    "tower": false,
    "name": "[H] Johnson Wax",
    "runways": [
      {
        "type": 102,
        "width": 24.4,
        "surfaceType": 1,
        "numberStart": "H1",
        "numberEnd": null,
        "latStart": 42.70835305,
        "lonStart": -87.79174112,
        "latEnd": null,
        "lonEnd": null,
        "length": 30.5
      }
    ],
    "id": 30644
  },
  {
    "type": 17,
    "icao": "WI82",
    "lat": 42.57863138,
    "lon": -87.81951834,
    "communications": [],
    "elevation": 608,
    "tower": false,
    "name": "[H] Kenosha Hospital and Medical Center",
    "runways": [
      {
        "type": 102,
        "width": 14,
        "surfaceType": 1,
        "numberStart": "H1",
        "numberEnd": null,
        "latStart": 42.57863138,
        "lonStart": -87.81951834,
        "latEnd": null,
        "lonEnd": null,
        "length": 14
      }
    ],
    "id": 30710
  },
  {
    "type": 17,
    "icao": "45IL",
    "lat": 42.25363416,
    "lon": -87.86368139,
    "communications": [],
    "elevation": 680,
    "tower": false,
    "name": "[H] Lake Forest Hospital",
    "runways": [
      {
        "type": 102,
        "width": 15.2,
        "surfaceType": 2,
        "numberStart": "H1",
        "numberEnd": null,
        "latStart": 42.25363416,
        "lonStart": -87.86368139,
        "latEnd": null,
        "lonEnd": null,
        "length": 15.2
      }
    ],
    "id": 30818
  },
  {
    "type": 17,
    "icao": "IS19",
    "lat": 42.03864027,
    "lon": -87.84728667,
    "communications": [],
    "elevation": 648,
    "tower": false,
    "name": "[H] Lutheran General Hospital",
    "runways": [
      {
        "type": 102,
        "width": 12.2,
        "surfaceType": 1,
        "numberStart": "H1",
        "numberEnd": null,
        "latStart": 42.03864027,
        "lonStart": -87.84728667,
        "latEnd": null,
        "lonEnd": null,
        "length": 12.2
      }
    ],
    "id": 30976
  },
  {
    "type": 17,
    "icao": "IL90",
    "lat": 42.35833333,
    "lon": -87.88750001,
    "communications": [],
    "elevation": 700,
    "tower": false,
    "name": "[H] Nordic",
    "runways": [
      {
        "type": 102,
        "width": 15.2,
        "surfaceType": 2,
        "numberStart": "H1",
        "numberEnd": null,
        "latStart": 42.35833333,
        "lonStart": -87.88750001,
        "latEnd": null,
        "lonEnd": null,
        "length": 15.2
      }
    ],
    "id": 31633
  },
  {
    "type": 17,
    "icao": "IS17",
    "lat": 42.10613805,
    "lon": -87.8706225,
    "communications": [],
    "elevation": 645,
    "tower": false,
    "name": "[H] Plaza",
    "runways": [
      {
        "type": 102,
        "width": 30.5,
        "surfaceType": 1,
        "numberStart": "H1",
        "numberEnd": null,
        "latStart": 42.10613805,
        "lonStart": -87.8706225,
        "latEnd": null,
        "lonEnd": null,
        "length": 30.5
      }
    ],
    "id": 32062
  },
  {
    "type": 17,
    "icao": "0WI0",
    "lat": 42.98890361,
    "lon": -87.95147389,
    "communications": [],
    "elevation": 761,
    "tower": false,
    "name": "[H] St Lukes Medical Center",
    "runways": [
      {
        "type": 102,
        "width": 13.4,
        "surfaceType": 1,
        "numberStart": "H1",
        "numberEnd": null,
        "latStart": 42.98890361,
        "lonStart": -87.95147389,
        "latEnd": null,
        "lonEnd": null,
        "length": 13.1
      }
    ],
    "id": 32956
  },
  {
    "type": 17,
    "icao": "WS53",
    "lat": 42.73140833,
    "lon": -87.82757612,
    "communications": [],
    "elevation": 686,
    "tower": false,
    "name": "[H] St Marys Medical Center",
    "runways": [
      {
        "type": 102,
        "width": 9.1,
        "surfaceType": 2,
        "numberStart": "H1",
        "numberEnd": null,
        "latStart": 42.73140833,
        "lonStart": -87.82757612,
        "latEnd": null,
        "lonEnd": null,
        "length": 9.1
      }
    ],
    "id": 32998
  },
  {
    "type": 17,
    "icao": "7LL1",
    "lat": 42.35779972,
    "lon": -87.86562778,
    "communications": [],
    "elevation": 700,
    "tower": false,
    "name": "[H] St Therese Medical Center",
    "runways": [
      {
        "type": 102,
        "width": 12.2,
        "surfaceType": 2,
        "numberStart": "H1",
        "numberEnd": null,
        "latStart": 42.35779972,
        "lonStart": -87.86562778,
        "latEnd": null,
        "lonEnd": null,
        "length": 12.2
      }
    ],
    "id": 33009
  },
  {
    "type": 17,
    "icao": "7LL2",
    "lat": 42.37863277,
    "lon": -87.83257139,
    "communications": [],
    "elevation": 624,
    "tower": false,
    "name": "[H] Victory Memorial Hospital Off",
    "runways": [
      {
        "type": 102,
        "width": 26.2,
        "surfaceType": 2,
        "numberStart": "H1",
        "numberEnd": null,
        "latStart": 42.37863277,
        "lonStart": -87.83257139,
        "latEnd": null,
        "lonEnd": null,
        "length": 26.5
      }
    ],
    "id": 33628
  }
]