[
  {
    "type": 17,
    "icao": "9WI0",
    "lat": 42.962515,
    "lon": -87.97508528,
    "communications": [],
    "elevation": 759,
    "tower": false,
    "name": "[H] All-State Equipment Co.",
    "runways": [
      {
        "type": 102,
        "width": 15.2,
        "surfaceType": 1,
        "numberStart": "H1",
        "numberEnd": null,
        "latStart": 42.962515,
        "lonStart": -87.97508528,
        "latEnd": null,
        "lonEnd": null,
        "length": 15.2
      }
    ],
    "id": 28084
  },
  {
    "type": 17,
    "icao": "9IL5",
    "lat": 42.19835777,
    "lon": -87.82673389,
    "communications": [],
    "elevation": 640,
    "tower": false,
    "name": "[H] City of Highland Park",
    "runways": [
      {
        "type": 102,
        "width": 42.7,
        "surfaceType": 2,
        "numberStart": "H1",
        "numberEnd": null,
        "latStart": 42.19835777,
        "lonStart": -87.82673389,
        "latEnd": null,
        "lonEnd": null,
        "length": 42.7
      }
    ],
    "id": 28981
  },
  {
    "type": 17,
    "icao": "KNBU",
    "lat": 42.08333333,
    "lon": -87.81683334,
    "communications": [],
    "elevation": 633,
    "tower": false,
    "name": "[H] Coast Guard Air Facility Glenview",
    "runways": [
      {
        "type": 102,
        "width": 27.4,
        "surfaceType": 1,
        "numberStart": "H1",
        "numberEnd": null,
        "latStart": 42.08333333,
        "lonStart": -87.81683334,
        "latEnd": null,
        "lonEnd": null,
        "length": 457.2
      }
    ],
    "id": 29025
  },
  {
    "type": 17,
    "icao": "02IS",
    "lat": 42.27502305,
    "lon": -87.95701889,
    "communications": [],
    "elevation": 720,
    "tower": false,
    "name": "[H] Condell Memorial Hospital",
    "runways": [
      {
        "type": 102,
        "width": 12.2,
        "surfaceType": 1,
        "numberStart": "H1",
        "numberEnd": null,
        "latStart": 42.27502305,
        "lonStart": -87.95701889,
        "latEnd": null,
        "lonEnd": null,
        "length": 12.2
      }
    ],
    "id": 29105
  },
  {
    "type": 17,
    "icao": "0IS2",
    "lat": 42.09308305,
    "lon": -87.85256584,
    "communications": [],
    "elevation": 678,
    "tower": false,
    "name": "[H] Evanston Glenbrook",
    "runways": [
      {
        "type": 102,
        "width": 18.3,
        "surfaceType": 2,
        "numberStart": "H1",
        "numberEnd": null,
        "latStart": 42.09308305,
        "lonStart": -87.85256584,
        "latEnd": null,
        "lonEnd": null,
        "length": 18.3
      }
    ],
    "id": 29594
  },
  {
    "type": 17,
    "icao": "3IL8",
    "lat": 42.06475166,
    "lon": -87.68450334,
    "communications": [],
    "elevation": 608,
    "tower": false,
    "name": "[H] Evanston Hospital-Golf Course Site",
    "runways": [
      {
        "type": 102,
        "width": 12.2,
        "surfaceType": 3,
        "numberStart": "H1",
        "numberEnd": null,
        "latStart": 42.06475166,
        "lonStart": -87.68450334,
        "latEnd": null,
        "lonEnd": null,
        "length": 12.2
      }
    ],
    "id": 29595
  },
  {
    "type": 17,
    "icao": "9IS6",
    "lat": 42.06169638,
    "lon": -87.67394723,
    "communications": [],
    "elevation": 609,
    "tower": false,
    "name": "[H] Evanston Water Plant",
    "runways": [
      {
        "type": 102,
        "width": 24.4,
        "surfaceType": 3,
        "numberStart": "H1",
        "numberEnd": null,
        "latStart": 42.06169638,
        "lonStart": -87.67394723,
        "latEnd": null,
        "lonEnd": null,
        "length": 58.5
      }
    ],
    "id": 29596
  },
  {
    "type": 17,
    "icao": "6IS5",
    "lat": 42.05502833,
    "lon": -87.89145528,
    "communications": [],
    "elevation": 649,
    "tower": false,
    "name": "[H] Holy Family Hospital",
    "runways": [
      {
        "type": 102,
        "width": 106.7,
        "surfaceType": 2,
        "numberStart": "H1",
        "numberEnd": null,
        "latStart": 42.05502833,
        "lonStart": -87.89145528,
        "latEnd": null,
        "lonEnd": null,
        "length": 304.8
      }
    ],
    "id": 30279
  },
  {
    "type": 17,
    "icao": "1WI4",
    "lat": 42.70835305,
    "lon": -87.79174112,
    "communications": [],
    "elevation": 640,
    "tower": false,
    "name": "[H] Johnson Wax",
    "runways": [
      {
        "type": 102,
        "width": 24.4,
        "surfaceType": 1,
        "numberStart": "H1",
        "numberEnd": null,
        "latStart": 42.70835305,
        "lonStart": -87.79174112,
        "latEnd": null,
        "lonEnd": null,
        "length": 30.5
      }
    ],
    "id": 30644
  },
  {
    "type": 17,
    "icao": "WI82",
    "lat": 42.57863138,
    "lon": -87.81951834,
    "communications": [],
    "elevation": 608,
    "tower": false,
    "name": "[H] Kenosha Hospital and Medical Center",
    "runways": [
      {
        "type": 102,
        "width": 14,
        "surfaceType": 1,
        "numberStart": "H1",
        "numberEnd": null,
        "latStart": 42.57863138,
        "lonStart": -87.81951834,
        "latEnd": null,
        "lonEnd": null,
        "length": 14
      }
    ],
    "id": 30710
  },
  {
    "type": 17,
    "icao": "45IL",
    "lat": 42.25363416,
    "lon": -87.86368139,
    "communications": [],
    "elevation": 680,
    "tower": false,
    "name": "[H] Lake Forest Hospital",
    "runways": [
      {
        "type": 102,
        "width": 15.2,
        "surfaceType": 2,
        "numberStart": "H1",
        "numberEnd": null,
        "latStart": 42.25363416,
        "lonStart": -87.86368139,
        "latEnd": null,
        "lonEnd": null,
        "length": 15.2
      }
    ],
    "id": 30818
  },
  {
    "type": 17,
    "icao": "IS19",
    "lat": 42.03864027,
    "lon": -87.84728667,
    "communications": [],
    "elevation": 648,
    "tower": false,
    "name": "[H] Lutheran General Hospital",
    "runways": [
      {
        "type": 102,
        "width": 12.2,
        "surfaceType": 1,
        "numberStart": "H1",
        "numberEnd": null,
        "latStart": 42.03864027,
        "lonStart": -87.84728667,
        "latEnd": null,
        "lonEnd": null,
        "length": 12.2
      }
    ],
    "id": 30976
  },
  {
    "type": 17,
    "icao": "IL90",
    "lat": 42.35833333,
    "lon": -87.88750001,
    "communications": [],
    "elevation": 700,
    "tower": false,
    "name": "[H] Nordic",
    "runways": [
      {
        "type": 102,
        "width": 15.2,
        "surfaceType": 2,
        "numberStart": "H1",
        "numberEnd": null,
        "latStart": 42.35833333,
        "lonStart": -87.88750001,
        "latEnd": null,
        "lonEnd": null,
        "length": 15.2
      }
    ],
    "id": 31633
  },
  {
    "type": 17,
    "icao": "IS17",
    "lat": 42.10613805,
    "lon": -87.8706225,
    "communications": [],
    "elevation": 645,
    "tower": false,
    "name": "[H] Plaza",
    "runways": [
      {
        "type": 102,
        "width": 30.5,
        "surfaceType": 1,
        "numberStart": "H1",
        "numberEnd": null,
        "latStart": 42.10613805,
        "lonStart": -87.8706225,
        "latEnd": null,
        "lonEnd": null,
        "length": 30.5
      }
    ],
    "id": 32062
  },
  {
    "type": 17,
    "icao": "0WI0",
    "lat": 42.98890361,
    "lon": -87.95147389,
    "communications": [],
    "elevation": 761,
    "tower": false,
    "name": "[H] St Lukes Medical Center",
    "runways": [
      {
        "type": 102,
        "width": 13.4,
        "surfaceType": 1,
        "numberStart": "H1",
        "numberEnd": null,
        "latStart": 42.98890361,
        "lonStart": -87.95147389,
        "latEnd": null,
        "lonEnd": null,
        "length": 13.1
      }
    ],
    "id": 32956
  },
  {
    "type": 17,
    "icao": "WS53",
    "lat": 42.73140833,
    "lon": -87.82757612,
    "communications": [],
    "elevation": 686,
    "tower": false,
    "name": "[H] St Marys Medical Center",
    "runways": [
      {
        "type": 102,
        "width": 9.1,
        "surfaceType": 2,
        "numberStart": "H1",
        "numberEnd": null,
        "latStart": 42.73140833,
        "lonStart": -87.82757612,
        "latEnd": null,
        "lonEnd": null,
        "length": 9.1
      }
    ],
    "id": 32998
  },
  {
    "type": 17,
    "icao": "7LL1",
    "lat": 42.35779972,
    "lon": -87.86562778,
    "communications": [],
    "elevation": 700,
    "tower": false,
    "name": "[H] St Therese Medical Center",
    "runways": [
      {
        "type": 102,
        "width": 12.2,
        "surfaceType": 2,
        "numberStart": "H1",
        "numberEnd": null,
        "latStart": 42.35779972,
        "lonStart": -87.86562778,
        "latEnd": null,
        "lonEnd": null,
        "length": 12.2
      }
    ],
    "id": 33009
  },
  {
    "type": 17,
    "icao": "7LL2",
    "lat": 42.37863277,
    "lon": -87.83257139,
    "communications": [],
    "elevation": 624,
    "tower": false,
    "name": "[H] Victory Memorial Hospital Off",
    "runways": [
      {
        "type": 102,
        "width": 26.2,
        "surfaceType": 2,
        "numberStart": "H1",
        "numberEnd": null,
        "latStart": 42.37863277,
        "lonStart": -87.83257139,
        "latEnd": null,
        "lonEnd": null,
        "length": 26.5
      }
    ],
    "id": 33628
  }
]