[
  {
    "type": 1,
    "icao": "SBBP",
    "lat": -22.978800015,
    "lon": -46.537114875,
    "communications": [
      {
        "type": 54,
        "frequency": 12570,
        "name": "AFIS"
      },
      {
        "type": 50,
        "frequency": 12775,
        "name": "ATIS"
      }
    ],
    "elevation": 2887,
    "tower": false,
    "name": "Aeroporto Estadual Arthur Siqueira",
    "runways": [
      {
        "type": 100,
        "width": 32,
        "surfaceType": null,
        "numberStart": "16",
        "numberEnd": "34",
        "latStart": -22.97438542,
        "lonStart": -46.54052445,
        "latEnd": -22.98321461,
        "lonEnd": -46.5337053,
        "length": 0,
        "surfacetype": 1
      }
    ],
    "id": 4592
  },
  {
    "type": 1,
    "icao": "SNEJ",
    "lat": -22.859722220000002,
    "lon": -46.03750029,
    "communications": [],
    "elevation": 5102,
    "tower": false,
    "name": "Monte Verde",
    "runways": [
      {
        "type": 100,
        "width": 30,
        "surfaceType": null,
        "numberStart": "09",
        "numberEnd": "27",
        "latStart": -22.86163431,
        "lonStart": -46.04250747,
        "latEnd": -22.85781013,
        "lonEnd": -46.03249311,
        "length": 0,
        "surfacetype": 4
      }
    ],
    "id": 4924
  },
  {
    "type": 1,
    "icao": "SNOF",
    "lat": -22.297168,
    "lon": -46.392441575,
    "communications": [
      {
        "type": 51,
        "frequency": 12345,
        "name": "RDO"
      }
    ],
    "elevation": 2818,
    "tower": true,
    "name": "Ouro Fino",
    "runways": [
      {
        "type": 100,
        "width": 23,
        "surfaceType": null,
        "numberStart": "06",
        "numberEnd": "24",
        "latStart": -22.30051306,
        "lonStart": -46.39608215,
        "latEnd": -22.29382294,
        "lonEnd": -46.388801,
        "length": 0,
        "surfacetype": 1
      }
    ],
    "id": 4935
  },
  {
    "type": 17,
    "icao": "SDAK",
    "lat": -22.29583333,
    "lon": -46.85527778,
    "communications": [],
    "elevation": 2403,
    "tower": false,
    "name": "[H] Solar das Paineiras",
    "runways": [
      {
        "type": 102,
        "width": 21,
        "surfaceType": 3,
        "numberStart": "H1",
        "numberEnd": null,
        "latStart": -22.29583333,
        "lonStart": -46.85527778,
        "latEnd": null,
        "lonEnd": null,
        "length": 21
      }
    ],
    "id": 25332
  },
  {
    "type": 17,
    "icao": "SDAR",
    "lat": -22.74861111,
    "lon": -46.68555556,
    "communications": [],
    "elevation": 859,
    "tower": false,
    "name": "[H] Hotel Canto da Floresta",
    "runways": [
      {
        "type": 102,
        "width": 24.1,
        "surfaceType": 2,
        "numberStart": "H1",
        "numberEnd": null,
        "latStart": -22.74861111,
        "lonStart": -46.68555556,
        "latEnd": null,
        "lonEnd": null,
        "length": 24.1
      }
    ],
    "id": 25339
  },
  {
    "type": 1,
    "icao": "SDBP",
    "lat": -22.9811525,
    "lon": -46.5386685,
    "communications": [],
    "elevation": 2887,
    "tower": false,
    "name": "Aeroporto E Arthur Siqueira RC",
    "runways": [
      {
        "type": 100,
        "width": 10.5,
        "surfaceType": null,
        "numberStart": "02",
        "numberEnd": "20",
        "latStart": -22.98031288,
        "lonStart": -46.53884344,
        "latEnd": -22.98199212,
        "lonEnd": -46.53849356,
        "length": 0,
        "surfacetype": 1
      }
    ],
    "id": 25362
  },
  {
    "type": 17,
    "icao": "SDCP",
    "lat": -22.73666667,
    "lon": -46.74638889,
    "communications": [],
    "elevation": 791,
    "tower": false,
    "name": "[H] Fazenda Sant'anna",
    "runways": [
      {
        "type": 102,
        "width": 24.1,
        "surfaceType": 3,
        "numberStart": "H1",
        "numberEnd": null,
        "latStart": -22.73666667,
        "lonStart": -46.74638889,
        "latEnd": null,
        "lonEnd": null,
        "length": 24.1
      }
    ],
    "id": 25387
  },
  {
    "type": 1,
    "icao": "SDCT",
    "lat": -22.23079403,
    "lon": -46.976525185,
    "communications": [],
    "elevation": 2237,
    "tower": false,
    "name": "Fazenda Santo Antonio do Oricanga",
    "runways": [
      {
        "type": 100,
        "width": 20.12,
        "surfaceType": null,
        "numberStart": "01",
        "numberEnd": "19",
        "latStart": -22.22856789,
        "lonStart": -46.97687687,
        "latEnd": -22.23302017,
        "lonEnd": -46.9761735,
        "length": 0,
        "surfacetype": 4
      }
    ],
    "id": 25390
  },
  {
    "type": 1,
    "icao": "SDFT",
    "lat": -22.414444445,
    "lon": -46.80888882,
    "communications": [],
    "elevation": 2151,
    "tower": false,
    "name": "Virgulino de Oliveira",
    "runways": [
      {
        "type": 100,
        "width": 22.86,
        "surfaceType": null,
        "numberStart": "15",
        "numberEnd": "33",
        "latStart": -22.41299828,
        "lonStart": -46.81075314,
        "latEnd": -22.41589061,
        "lonEnd": -46.8070245,
        "length": 0,
        "surfacetype": 1
      }
    ],
    "id": 25462
  },
  {
    "type": 17,
    "icao": "SDGI",
    "lat": -22.92277778,
    "lon": -46.90694444,
    "communications": [],
    "elevation": 700,
    "tower": false,
    "name": "[H] Fazenda Guariroba",
    "runways": [
      {
        "type": 102,
        "width": 24.1,
        "surfaceType": 2,
        "numberStart": "H1",
        "numberEnd": null,
        "latStart": -22.92277778,
        "lonStart": -46.90694444,
        "latEnd": null,
        "lonEnd": null,
        "length": 24.1
      }
    ],
    "id": 25477
  },
  {
    "type": 1,
    "icao": "SDHE",
    "lat": -22.4925,
    "lon": -46.843611135,
    "communications": [],
    "elevation": 2493,
    "tower": false,
    "name": "Fazenda Herdade",
    "runways": [
      {
        "type": 100,
        "width": 29.87,
        "surfaceType": null,
        "numberStart": "05",
        "numberEnd": "23",
        "latStart": -22.49464325,
        "lonStart": -46.84495036,
        "latEnd": -22.49035675,
        "lonEnd": -46.84227191,
        "length": 0,
        "surfacetype": 4
      }
    ],
    "id": 25499
  },
  {
    "type": 1,
    "icao": "SDIB",
    "lat": -22.158081,
    "lon": -46.7752805,
    "communications": [],
    "elevation": 3018,
    "tower": false,
    "name": "IRMAOS RIBEIRO",
    "runways": [
      {
        "type": 100,
        "width": 12.19,
        "surfaceType": null,
        "numberStart": "03",
        "numberEnd": "21",
        "latStart": -22.164606,
        "lonStart": -46.776722,
        "latEnd": -22.151556,
        "lonEnd": -46.773839,
        "length": 0,
        "surfacetype": 1
      }
    ],
    "id": 25521
  },
  {
    "type": 17,
    "icao": "SDJB",
    "lat": -22.97305556,
    "lon": -46.7,
    "communications": [],
    "elevation": 2524,
    "tower": false,
    "name": "[H] Quinta da Baroneza II",
    "runways": [
      {
        "type": 102,
        "width": 21,
        "surfaceType": 2,
        "numberStart": "H1",
        "numberEnd": null,
        "latStart": -22.97305556,
        "lonStart": -46.7,
        "latEnd": null,
        "lonEnd": null,
        "length": 21
      }
    ],
    "id": 25544
  },
  {
    "type": 1,
    "icao": "SDJV",
    "lat": -22.01722222,
    "lon": -46.84083333,
    "communications": [],
    "elevation": 2500,
    "tower": false,
    "name": "Sao Joao da Boa Vista",
    "runways": [
      {
        "type": 100,
        "width": 29.87,
        "surfaceType": null,
        "numberStart": "04",
        "numberEnd": "22",
        "latStart": -22.02266834,
        "lonStart": -46.84274373,
        "latEnd": -22.0117761,
        "lonEnd": -46.83892293,
        "length": 0,
        "surfacetype": 1
      }
    ],
    "id": 25563
  },
  {
    "type": 1,
    "icao": "SDMJ",
    "lat": -22.41,
    "lon": -46.90527778,
    "communications": [],
    "elevation": 2274,
    "tower": false,
    "name": "Mogi-Mirim",
    "runways": [
      {
        "type": 100,
        "width": 29.87,
        "surfaceType": null,
        "numberStart": "12",
        "numberEnd": "30",
        "latStart": -22.40880494,
        "lonStart": -46.91247316,
        "latEnd": -22.41119506,
        "lonEnd": -46.8980824,
        "length": 0,
        "surfacetype": 4
      }
    ],
    "id": 25626
  },
  {
    "type": 17,
    "icao": "SDOH",
    "lat": -22.26583333,
    "lon": -46.94138889,
    "communications": [],
    "elevation": 889,
    "tower": false,
    "name": "[H] Cimed",
    "runways": [
      {
        "type": 102,
        "width": 20.1,
        "surfaceType": 2,
        "numberStart": "H1",
        "numberEnd": null,
        "latStart": -22.26583333,
        "lonStart": -46.94138889,
        "latEnd": null,
        "lonEnd": null,
        "length": 20.1
      }
    ],
    "id": 25673
  },
  {
    "type": 17,
    "icao": "SDQO",
    "lat": -22.91722222,
    "lon": -46.84555556,
    "communications": [],
    "elevation": 766,
    "tower": false,
    "name": "[H] Fazenda Sao Quirino",
    "runways": [
      {
        "type": 102,
        "width": 19.5,
        "surfaceType": 2,
        "numberStart": "H1",
        "numberEnd": null,
        "latStart": -22.91722222,
        "lonStart": -46.84555556,
        "latEnd": null,
        "lonEnd": null,
        "length": 19.5
      }
    ],
    "id": 25732
  },
  {
    "type": 17,
    "icao": "SDYE",
    "lat": -22.94111111,
    "lon": -46.70083333,
    "communications": [],
    "elevation": 798,
    "tower": false,
    "name": "[H] Hotel Fazenda Dona Carolina",
    "runways": [
      {
        "type": 102,
        "width": 24.1,
        "surfaceType": 3,
        "numberStart": "H1",
        "numberEnd": null,
        "latStart": -22.94111111,
        "lonStart": -46.70083333,
        "latEnd": null,
        "lonEnd": null,
        "length": 24.1
      }
    ],
    "id": 25924
  },
  {
    "type": 17,
    "icao": "SDYP",
    "lat": -22.98611111,
    "lon": -46.33444444,
    "communications": [],
    "elevation": 878,
    "tower": false,
    "name": "[H] Piracaia",
    "runways": [
      {
        "type": 102,
        "width": 20.1,
        "surfaceType": 2,
        "numberStart": "H1",
        "numberEnd": null,
        "latStart": -22.98611111,
        "lonStart": -46.33444444,
        "latEnd": null,
        "lonEnd": null,
        "length": 20.1
      }
    ],
    "id": 25935
  },
  {
    "type": 17,
    "icao": "SICU",
    "lat": -22.97833333,
    "lon": -46.86833333,
    "communications": [],
    "elevation": 800,
    "tower": false,
    "name": "[H] Chamonix",
    "runways": [
      {
        "type": 102,
        "width": 20.1,
        "surfaceType": 3,
        "numberStart": "H1",
        "numberEnd": null,
        "latStart": -22.97833333,
        "lonStart": -46.86833333,
        "latEnd": null,
        "lonEnd": null,
        "length": 20.1
      }
    ],
    "id": 26129
  },
  {
    "type": 17,
    "icao": "SIIP",
    "lat": -22.97722222,
    "lon": -46.70388889,
    "communications": [],
    "elevation": 756,
    "tower": false,
    "name": "[H] Quinta da Baroneza",
    "runways": [
      {
        "type": 102,
        "width": 21,
        "surfaceType": 3,
        "numberStart": "H1",
        "numberEnd": null,
        "latStart": -22.97722222,
        "lonStart": -46.70388889,
        "latEnd": null,
        "lonEnd": null,
        "length": 21
      }
    ],
    "id": 26278
  },
  {
    "type": 17,
    "icao": "SIUI",
    "lat": -22.36111111,
    "lon": -46.975,
    "communications": [],
    "elevation": 1921,
    "tower": false,
    "name": "[H] Internacional Paper Mogi Guacu",
    "runways": [
      {
        "type": 102,
        "width": 20.1,
        "surfaceType": 2,
        "numberStart": "H1",
        "numberEnd": null,
        "latStart": -22.36111111,
        "lonStart": -46.975,
        "latEnd": null,
        "lonEnd": null,
        "length": 20.1
      }
    ],
    "id": 26577
  },
  {
    "type": 17,
    "icao": "SJAP",
    "lat": -22.915,
    "lon": -46.98416667,
    "communications": [],
    "elevation": 698,
    "tower": false,
    "name": "[H] Fazenda Mrajan",
    "runways": [
      {
        "type": 102,
        "width": 20.1,
        "surfaceType": 3,
        "numberStart": "H1",
        "numberEnd": null,
        "latStart": -22.915,
        "lonStart": -46.98416667,
        "latEnd": null,
        "lonEnd": null,
        "length": 20.1
      }
    ],
    "id": 26733
  },
  {
    "type": 17,
    "icao": "SJAT",
    "lat": -22.88805556,
    "lon": -46.87166667,
    "communications": [],
    "elevation": 2766,
    "tower": false,
    "name": "[H] Monte Moria",
    "runways": [
      {
        "type": 102,
        "width": 24.1,
        "surfaceType": 2,
        "numberStart": "H1",
        "numberEnd": null,
        "latStart": -22.88805556,
        "lonStart": -46.87166667,
        "latEnd": null,
        "lonEnd": null,
        "length": 24.1
      }
    ],
    "id": 26737
  },
  {
    "type": 17,
    "icao": "SJCV",
    "lat": -22.86444444,
    "lon": -46.03638889,
    "communications": [],
    "elevation": 1528,
    "tower": false,
    "name": "[H] Trend Bank",
    "runways": [
      {
        "type": 102,
        "width": 18,
        "surfaceType": 2,
        "numberStart": "H1",
        "numberEnd": null,
        "latStart": -22.86444444,
        "lonStart": -46.03638889,
        "latEnd": null,
        "lonEnd": null,
        "length": 18
      }
    ],
    "id": 26788
  },
  {
    "type": 17,
    "icao": "SJOQ",
    "lat": -22.46777778,
    "lon": -46.7175,
    "communications": [],
    "elevation": 666,
    "tower": false,
    "name": "[H] Cristalia",
    "runways": [
      {
        "type": 102,
        "width": 20.1,
        "surfaceType": 2,
        "numberStart": "H1",
        "numberEnd": null,
        "latStart": -22.46777778,
        "lonStart": -46.7175,
        "latEnd": null,
        "lonEnd": null,
        "length": 20.1
      }
    ],
    "id": 27088
  },
  {
    "type": 17,
    "icao": "SJUZ",
    "lat": -22.92083333,
    "lon": -46.79194444,
    "communications": [],
    "elevation": 916,
    "tower": false,
    "name": "[H] Santo Aleixo",
    "runways": [
      {
        "type": 102,
        "width": 24.1,
        "surfaceType": 2,
        "numberStart": "H1",
        "numberEnd": null,
        "latStart": -22.92083333,
        "lonStart": -46.79194444,
        "latEnd": null,
        "lonEnd": null,
        "length": 24.1
      }
    ],
    "id": 27248
  },
  {
    "type": 17,
    "icao": "SNLP",
    "lat": -22.99444444,
    "lon": -46.39083333,
    "communications": [],
    "elevation": 868,
    "tower": false,
    "name": "[H] Santa Fe",
    "runways": [
      {
        "type": 102,
        "width": 21,
        "surfaceType": 2,
        "numberStart": "H1",
        "numberEnd": null,
        "latStart": -22.99444444,
        "lonStart": -46.39083333,
        "latEnd": null,
        "lonEnd": null,
        "length": 21
      }
    ],
    "id": 27853
  },
  {
    "type": 17,
    "icao": "SNOR",
    "lat": -22.59694444,
    "lon": -46.85361111,
    "communications": [],
    "elevation": 693,
    "tower": false,
    "name": "[H] Fazenda Sesmaria",
    "runways": [
      {
        "type": 102,
        "width": 21,
        "surfaceType": 3,
        "numberStart": "H1",
        "numberEnd": null,
        "latStart": -22.59694444,
        "lonStart": -46.85361111,
        "latEnd": null,
        "lonEnd": null,
        "length": 21
      }
    ],
    "id": 27927
  },
  {
    "type": 17,
    "icao": "SSMQ",
    "lat": -22.69,
    "lon": -46.68055556,
    "communications": [],
    "elevation": 2454,
    "tower": false,
    "name": "[H] Chacara Monte Alegre",
    "runways": [
      {
        "type": 102,
        "width": 20.1,
        "surfaceType": 2,
        "numberStart": "H1",
        "numberEnd": null,
        "latStart": -22.69,
        "lonStart": -46.68055556,
        "latEnd": null,
        "lonEnd": null,
        "length": 20.1
      }
    ],
    "id": 28622
  },
  {
    "type": 17,
    "icao": "SSTR",
    "lat": -22.48666667,
    "lon": -46.98777778,
    "communications": [],
    "elevation": 2165,
    "tower": false,
    "name": "[H] Aurora",
    "runways": [
      {
        "type": 102,
        "width": 21,
        "surfaceType": 2,
        "numberStart": "H1",
        "numberEnd": null,
        "latStart": -22.48666667,
        "lonStart": -46.98777778,
        "latEnd": null,
        "lonEnd": null,
        "length": 21
      }
    ],
    "id": 28787
  },
  {
    "type": 17,
    "icao": "SWQB",
    "lat": -22.97722222,
    "lon": -46.39166667,
    "communications": [],
    "elevation": 865,
    "tower": false,
    "name": "[H] HAHN",
    "runways": [
      {
        "type": 102,
        "width": 22.9,
        "surfaceType": 2,
        "numberStart": "H1",
        "numberEnd": null,
        "latStart": -22.97722222,
        "lonStart": -46.39166667,
        "latEnd": null,
        "lonEnd": null,
        "length": 22.9
      }
    ],
    "id": 29410
  }
]