[
  {
    "type": 1,
    "icao": "U45",
    "lat": 43.955120185,
    "lon": -115.27205910500001,
    "communications": [],
    "elevation": 5726,
    "tower": false,
    "name": "Graham USFS",
    "runways": [
      {
        "type": 100,
        "width": 19,
        "surfaceType": null,
        "numberStart": "18",
        "numberEnd": "36",
        "latStart": 43.9591015,
        "lonStart": -115.27059497,
        "latEnd": 43.95113887,
        "lonEnd": -115.27352324,
        "length": 0,
        "surfacetype": 4
      }
    ],
    "id": 5046
  },
  {
    "type": 1,
    "icao": "U76",
    "lat": 43.1312525,
    "lon": -115.7295945,
    "communications": [
      {
        "type": 51,
        "frequency": 12280,
        "name": "CTAF/UNICOM"
      },
      {
        "type": 55,
        "frequency": 12480,
        "name": "APP/DEP"
      },
      {
        "type": 55,
        "frequency": 11805,
        "name": "APP/DEP"
      }
    ],
    "elevation": 3164,
    "tower": false,
    "name": "MOUNTAIN HOME MUNI",
    "runways": [
      {
        "type": 100,
        "width": 22.86,
        "surfaceType": null,
        "numberStart": "10",
        "numberEnd": "28",
        "latStart": 43.134311,
        "lonStart": -115.737975,
        "latEnd": 43.128194,
        "lonEnd": -115.721214,
        "length": 0,
        "surfacetype": 1
      }
    ],
    "id": 5053
  },
  {
    "type": 1,
    "icao": "1U9",
    "lat": 43.46239555,
    "lon": -115.3092475,
    "communications": [],
    "elevation": 4232,
    "tower": false,
    "name": "Pine",
    "runways": [
      {
        "type": 100,
        "width": 38.1,
        "surfaceType": null,
        "numberStart": "16",
        "numberEnd": "34",
        "latStart": 43.46554565,
        "lonStart": -115.30947495,
        "latEnd": 43.45924545,
        "lonEnd": -115.30902005,
        "length": 0,
        "surfacetype": 3
      }
    ],
    "id": 6794
  },
  {
    "type": 1,
    "icao": "2U0",
    "lat": 43.498505,
    "lon": -115.54814639,
    "communications": [],
    "elevation": 4958,
    "tower": false,
    "name": "Smith Prairie",
    "runways": [
      {
        "type": 100,
        "width": 45.72,
        "surfaceType": null,
        "numberStart": "05",
        "numberEnd": "23",
        "latStart": 43.49561123,
        "lonStart": -115.55754448,
        "latEnd": 43.50139877,
        "lonEnd": -115.5387483,
        "length": 0,
        "surfacetype": 3
      }
    ],
    "id": 7350
  },
  {
    "type": 1,
    "icao": "52U",
    "lat": 43.82489777,
    "lon": -115.33175667,
    "communications": [],
    "elevation": 4494,
    "tower": false,
    "name": "Weatherby USFS",
    "runways": [
      {
        "type": 100,
        "width": 18.29,
        "surfaceType": null,
        "numberStart": "03",
        "numberEnd": "21",
        "latStart": 43.82283999,
        "lonStart": -115.33481533,
        "latEnd": 43.82695555,
        "lonEnd": -115.32869801,
        "length": 0,
        "surfacetype": 3
      }
    ],
    "id": 12589
  },
  {
    "type": 1,
    "icao": "55H",
    "lat": 43.81351083,
    "lon": -115.13508167,
    "communications": [],
    "elevation": 5500,
    "tower": false,
    "name": "Atlanta",
    "runways": [
      {
        "type": 100,
        "width": 22.86,
        "surfaceType": null,
        "numberStart": "16",
        "numberEnd": "34",
        "latStart": 43.8171403,
        "lonStart": -115.13534527,
        "latEnd": 43.80988136,
        "lonEnd": -115.13481807,
        "length": 0,
        "surfacetype": 4
      }
    ],
    "id": 12678
  },
  {
    "type": 1,
    "icao": "KMUO",
    "lat": 43.03897475,
    "lon": -115.8693505,
    "communications": [
      {
        "type": 52,
        "frequency": 12710,
        "name": "CLNC DEL"
      },
      {
        "type": 53,
        "frequency": 12050,
        "name": "GND"
      },
      {
        "type": 54,
        "frequency": 13385,
        "name": "TWR"
      },
      {
        "type": 55,
        "frequency": 12480,
        "name": "APP"
      }
    ],
    "elevation": 2996,
    "tower": true,
    "name": "MOUNTAIN HOME AFB",
    "runways": [
      {
        "type": 100,
        "width": 60.96,
        "surfaceType": null,
        "numberStart": "12",
        "numberEnd": "30",
        "latStart": 43.056561,
        "lonStart": -115.890369,
        "latEnd": 43.03045,
        "lonEnd": -115.854533,
        "length": 0,
        "surfacetype": 1
      },
      {
        "type": 100,
        "width": 152.4,
        "surfaceType": null,
        "numberStart": "07",
        "numberEnd": "25",
        "latStart": 43.034444,
        "lonStart": -115.885,
        "latEnd": 43.034444,
        "lonEnd": -115.8475,
        "length": 0,
        "surfacetype": 1
      }
    ],
    "id": 19525
  },
  {
    "type": 1,
    "icao": "U95",
    "lat": 43.28739805,
    "lon": -115.08007056,
    "communications": [],
    "elevation": 5071,
    "tower": false,
    "name": "Tracy Ranch",
    "runways": [
      {
        "type": 100,
        "width": 33.53,
        "surfaceType": null,
        "numberStart": "07",
        "numberEnd": "25",
        "latStart": 43.28716118,
        "lonStart": -115.08627961,
        "latEnd": 43.28763492,
        "lonEnd": -115.07386151,
        "length": 0,
        "surfacetype": 3
      }
    ],
    "id": 30210
  },
  {
    "type": 1,
    "icao": "U98",
    "lat": 43.820726379999996,
    "lon": -115.85094278,
    "communications": [],
    "elevation": 3920,
    "tower": false,
    "name": "Idaho City USFS",
    "runways": [
      {
        "type": 100,
        "width": 15.24,
        "surfaceType": null,
        "numberStart": "03",
        "numberEnd": "21",
        "latStart": 43.81754618,
        "lonStart": -115.85566947,
        "latEnd": 43.82390658,
        "lonEnd": -115.84621609,
        "length": 0,
        "surfacetype": 5
      }
    ],
    "id": 30212
  }
]