[
  {
    "type": 1,
    "icao": "22I",
    "lat": 39.3281225,
    "lon": -82.44181800000001,
    "communications": [
      {
        "type": 51,
        "frequency": 12280,
        "name": "CTAF/UNICOM"
      }
    ],
    "elevation": 958,
    "tower": false,
    "name": "VINTON CO",
    "runways": [
      {
        "type": 100,
        "width": 22.86,
        "surfaceType": null,
        "numberStart": "09",
        "numberEnd": "27",
        "latStart": 39.327114,
        "lonStart": -82.448497,
        "latEnd": 39.329131,
        "lonEnd": -82.435139,
        "length": 0,
        "surfacetype": 1
      }
    ],
    "id": 354
  },
  {
    "type": 1,
    "icao": "KCMH",
    "lat": 39.997515112500004,
    "lon": -82.892289225,
    "communications": [
      {
        "type": 50,
        "frequency": 12460,
        "name": "ATIS"
      },
      {
        "type": 51,
        "frequency": 12295,
        "name": "UNICOM"
      },
      {
        "type": 52,
        "frequency": 12630,
        "name": "CLNC DEL"
      },
      {
        "type": 53,
        "frequency": 12190,
        "name": "GND"
      },
      {
        "type": 54,
        "frequency": 13270,
        "name": "TWR"
      },
      {
        "type": 55,
        "frequency": 11820,
        "name": "COLUMBUS APP/DEP"
      },
      {
        "type": 55,
        "frequency": 11915,
        "name": "COLUMBUS APP/DEP"
      },
      {
        "type": 55,
        "frequency": 11965,
        "name": "COLUMBUS APP/DEP"
      },
      {
        "type": 55,
        "frequency": 12595,
        "name": "COLUMBUS APP/DEP"
      }
    ],
    "elevation": 814,
    "tower": true,
    "name": "PORT COLUMBUS INTL",
    "runways": [
      {
        "type": 100,
        "width": 45.72,
        "surfaceType": null,
        "numberStart": "10R",
        "numberEnd": "28L",
        "latStart": 39.99365115,
        "lonStart": -82.9091785,
        "latEnd": 39.9916144,
        "lonEnd": -82.8731825,
        "length": 0,
        "surfacetype": 1
      },
      {
        "type": 100,
        "width": 45.72,
        "surfaceType": null,
        "numberStart": "10L",
        "numberEnd": "28R",
        "latStart": 40.0032028,
        "lonStart": -82.9076375,
        "latEnd": 40.0015921,
        "lonEnd": -82.8791584,
        "length": 0,
        "surfacetype": 1
      }
    ],
    "id": 2505
  },
  {
    "type": 1,
    "icao": "KCYO",
    "lat": 39.516009499999996,
    "lon": -82.9821415,
    "communications": [
      {
        "type": 51,
        "frequency": 12270,
        "name": "CTAF/UNICOM"
      },
      {
        "type": 55,
        "frequency": 13230,
        "name": "COLUMBUS APP/DEP"
      }
    ],
    "elevation": 684,
    "tower": false,
    "name": "PICKAWAY CO MEM",
    "runways": [
      {
        "type": 100,
        "width": 22.86,
        "surfaceType": null,
        "numberStart": "01",
        "numberEnd": "19",
        "latStart": 39.510047,
        "lonStart": -82.982558,
        "latEnd": 39.521972,
        "lonEnd": -82.981725,
        "length": 0,
        "surfacetype": 1
      }
    ],
    "id": 2539
  },
  {
    "type": 1,
    "icao": "KEOP",
    "lat": 39.1669335,
    "lon": -82.928175,
    "communications": [
      {
        "type": 51,
        "frequency": 12280,
        "name": "CTAF/UNICOM"
      }
    ],
    "elevation": 660,
    "tower": false,
    "name": "PIKE CO",
    "runways": [
      {
        "type": 100,
        "width": 22.86,
        "surfaceType": null,
        "numberStart": "07",
        "numberEnd": "25",
        "latStart": 39.163789,
        "lonStart": -82.935814,
        "latEnd": 39.170078,
        "lonEnd": -82.920536,
        "length": 0,
        "surfacetype": 1
      }
    ],
    "id": 2629
  },
  {
    "type": 1,
    "icao": "KLCK",
    "lat": 39.81181127,
    "lon": -82.931987136,
    "communications": [
      {
        "type": 50,
        "frequency": 13275,
        "name": "AWOS 3"
      },
      {
        "type": 51,
        "frequency": 12295,
        "name": "UNICOM"
      },
      {
        "type": 53,
        "frequency": 12185,
        "name": "GND"
      },
      {
        "type": 54,
        "frequency": 12005,
        "name": "RICK TWR"
      },
      {
        "type": 55,
        "frequency": 11915,
        "name": "COLUMBUS APP"
      },
      {
        "type": 56,
        "frequency": 12380,
        "name": "COLUMBUS DEP"
      },
      {
        "type": 56,
        "frequency": 13230,
        "name": "COLUMBUS DEP"
      }
    ],
    "elevation": 744,
    "tower": true,
    "name": "RICKENBACKER INTL",
    "runways": [
      {
        "type": 100,
        "width": 60.96,
        "surfaceType": null,
        "numberStart": "05R",
        "numberEnd": "23L",
        "latStart": 39.801067,
        "lonStart": -82.941978,
        "latEnd": 39.824431,
        "lonEnd": -82.911356,
        "length": 0,
        "surfacetype": 1
      },
      {
        "type": 100,
        "width": 45.72,
        "surfaceType": null,
        "numberStart": "05L",
        "numberEnd": "23R",
        "latStart": 39.803314,
        "lonStart": -82.944094,
        "latEnd": 39.826358,
        "lonEnd": -82.913886,
        "length": 0,
        "surfacetype": 1
      },
      {
        "type": 102,
        "width": 22.86,
        "surfaceType": 2,
        "numberStart": "H11",
        "numberEnd": null,
        "latStart": 39.80388635,
        "lonStart": -82.94862168,
        "latEnd": null,
        "lonEnd": null,
        "length": 22.86
      }
    ],
    "id": 2877
  },
  {
    "type": 1,
    "icao": "KLHQ",
    "lat": 39.75563878,
    "lon": -82.65709801,
    "communications": [
      {
        "type": 50,
        "frequency": 11837,
        "name": "ASOS"
      },
      {
        "type": 51,
        "frequency": 12272,
        "name": "CTAF"
      },
      {
        "type": 55,
        "frequency": 13230,
        "name": "COLUMBUS APP/DEP"
      }
    ],
    "elevation": 868,
    "tower": false,
    "name": "FAIRFIELD CO",
    "runways": [
      {
        "type": 100,
        "width": 22.86,
        "surfaceType": null,
        "numberStart": "10",
        "numberEnd": "28",
        "latStart": 39.756122,
        "lonStart": -82.66597429,
        "latEnd": 39.75515556,
        "lonEnd": -82.64822173,
        "length": 0,
        "surfacetype": 1
      }
    ],
    "id": 2890
  },
  {
    "type": 1,
    "icao": "2I6",
    "lat": 39.95423361,
    "lon": -82.18319889,
    "communications": [],
    "elevation": 1070,
    "tower": false,
    "name": "Porter",
    "runways": [
      {
        "type": 100,
        "width": 22.86,
        "surfaceType": null,
        "numberStart": "09",
        "numberEnd": "27",
        "latStart": 39.95394689,
        "lonStart": -82.1867576,
        "latEnd": 39.95452033,
        "lonEnd": -82.17964018,
        "length": 0,
        "surfacetype": 3
      }
    ],
    "id": 6983
  },
  {
    "type": 1,
    "icao": "2OH3",
    "lat": 39.921731109999996,
    "lon": -82.45904417,
    "communications": [],
    "elevation": 905,
    "tower": false,
    "name": "Roberts Fld",
    "runways": [
      {
        "type": 100,
        "width": 18.29,
        "surfaceType": null,
        "numberStart": "09",
        "numberEnd": "27",
        "latStart": 39.92149204,
        "lonStart": -82.46260717,
        "latEnd": 39.92197018,
        "lonEnd": -82.45548117,
        "length": 0,
        "surfacetype": 3
      }
    ],
    "id": 7212
  },
  {
    "type": 17,
    "icao": "2OI6",
    "lat": 39.97034194,
    "lon": -82.96240362,
    "communications": [],
    "elevation": 1020,
    "tower": false,
    "name": "[H] Park Medical Center",
    "runways": [
      {
        "type": 102,
        "width": 25.9,
        "surfaceType": 2,
        "numberStart": "H1",
        "numberEnd": null,
        "latStart": 39.97034194,
        "lonStart": -82.96240362,
        "latEnd": null,
        "lonEnd": null,
        "length": 25.9
      }
    ],
    "id": 7223
  },
  {
    "type": 17,
    "icao": "2OI9",
    "lat": 39.83950777,
    "lon": -82.90767862,
    "communications": [],
    "elevation": 725,
    "tower": false,
    "name": "[H] Comprix",
    "runways": [
      {
        "type": 102,
        "width": 30.5,
        "surfaceType": 3,
        "numberStart": "H1",
        "numberEnd": null,
        "latStart": 39.83950777,
        "lonStart": -82.90767862,
        "latEnd": null,
        "lonEnd": null,
        "length": 30.5
      }
    ],
    "id": 7225
  },
  {
    "type": 1,
    "icao": "3I9",
    "lat": 39.96170708,
    "lon": -82.540657635,
    "communications": [],
    "elevation": 914,
    "tower": false,
    "name": "Buckeye Executive",
    "runways": [
      {
        "type": 100,
        "width": 7.62,
        "surfaceType": null,
        "numberStart": "01",
        "numberEnd": "19",
        "latStart": 39.9579175,
        "lonStart": -82.54089416,
        "latEnd": 39.96549666,
        "lonEnd": -82.54042111,
        "length": 0,
        "surfacetype": 1
      }
    ],
    "id": 7549
  },
  {
    "type": 17,
    "icao": "4OH2",
    "lat": 39.97423388,
    "lon": -82.01819195,
    "communications": [],
    "elevation": 783,
    "tower": false,
    "name": "[H] Bethesda Hospital Helistop",
    "runways": [
      {
        "type": 102,
        "width": 12.2,
        "surfaceType": 1,
        "numberStart": "H1",
        "numberEnd": null,
        "latStart": 39.97423388,
        "lonStart": -82.01819195,
        "latEnd": null,
        "lonEnd": null,
        "length": 12.2
      }
    ],
    "id": 8294
  },
  {
    "type": 1,
    "icao": "4OI9",
    "lat": 39.10368277,
    "lon": -82.61071889,
    "communications": [],
    "elevation": 740,
    "tower": false,
    "name": "Baisden",
    "runways": [
      {
        "type": 100,
        "width": 30.48,
        "surfaceType": null,
        "numberStart": "16",
        "numberEnd": "34",
        "latStart": 39.10567156,
        "lonStart": -82.61191397,
        "latEnd": 39.10169398,
        "lonEnd": -82.60952381,
        "length": 0,
        "surfacetype": 5
      }
    ],
    "id": 8308
  },
  {
    "type": 17,
    "icao": "5OH5",
    "lat": 39.05563194,
    "lon": -82.24153806,
    "communications": [],
    "elevation": 620,
    "tower": false,
    "name": "[H] Meigs Mine 1",
    "runways": [
      {
        "type": 102,
        "width": 18.3,
        "surfaceType": 4,
        "numberStart": "H1",
        "numberEnd": null,
        "latStart": 39.05563194,
        "lonStart": -82.24153806,
        "latEnd": null,
        "lonEnd": null,
        "length": 18.3
      }
    ],
    "id": 8809
  },
  {
    "type": 17,
    "icao": "5OH8",
    "lat": 39.95534194,
    "lon": -82.99712723,
    "communications": [],
    "elevation": 830,
    "tower": false,
    "name": "[H] Joseph Skilken & Co",
    "runways": [
      {
        "type": 102,
        "width": 12.2,
        "surfaceType": 1,
        "numberStart": "H1",
        "numberEnd": null,
        "latStart": 39.95534194,
        "lonStart": -82.99712723,
        "latEnd": null,
        "lonEnd": null,
        "length": 12.2
      }
    ],
    "id": 8812
  },
  {
    "type": 17,
    "icao": "7OH4",
    "lat": 39.12507472,
    "lon": -82.28320612,
    "communications": [],
    "elevation": 715,
    "tower": false,
    "name": "[H] Meigs Mine 2",
    "runways": [
      {
        "type": 102,
        "width": 18.3,
        "surfaceType": 2,
        "numberStart": "H1",
        "numberEnd": null,
        "latStart": 39.12507472,
        "lonStart": -82.28320612,
        "latEnd": null,
        "lonEnd": null,
        "length": 18.3
      }
    ],
    "id": 9793
  },
  {
    "type": 1,
    "icao": "8OI5",
    "lat": 39.881731939999995,
    "lon": -82.41459806,
    "communications": [],
    "elevation": 1115,
    "tower": false,
    "name": "Clum",
    "runways": [
      {
        "type": 100,
        "width": 24.38,
        "surfaceType": null,
        "numberStart": "01",
        "numberEnd": "19",
        "latStart": 39.87954591,
        "lonStart": -82.41484729,
        "latEnd": 39.88391797,
        "lonEnd": -82.41434883,
        "length": 0,
        "surfacetype": 3
      }
    ],
    "id": 10268
  },
  {
    "type": 1,
    "icao": "9I6",
    "lat": 39.84478611,
    "lon": -82.57960612,
    "communications": [],
    "elevation": 876,
    "tower": false,
    "name": "Industry Air Park",
    "runways": [
      {
        "type": 100,
        "width": 18.29,
        "surfaceType": null,
        "numberStart": "18",
        "numberEnd": "36",
        "latStart": 39.8482701,
        "lonStart": -82.58000312,
        "latEnd": 39.84130212,
        "lonEnd": -82.57920912,
        "length": 0,
        "surfacetype": 3
      }
    ],
    "id": 10527
  },
  {
    "type": 1,
    "icao": "9I9",
    "lat": 39.64312111,
    "lon": -82.46682278,
    "communications": [],
    "elevation": 779,
    "tower": false,
    "name": "Hide-a-Way Hills Resort",
    "runways": [
      {
        "type": 100,
        "width": 30.48,
        "surfaceType": null,
        "numberStart": "11",
        "numberEnd": "29",
        "latStart": 39.64393754,
        "lonStart": -82.47077968,
        "latEnd": 39.64230468,
        "lonEnd": -82.46286588,
        "length": 0,
        "surfacetype": 3
      }
    ],
    "id": 10530
  },
  {
    "type": 1,
    "icao": "9OI3",
    "lat": 39.898611110000004,
    "lon": -82.11027778,
    "communications": [],
    "elevation": 1000,
    "tower": false,
    "name": "Johns Landing",
    "runways": [
      {
        "type": 100,
        "width": 22.86,
        "surfaceType": null,
        "numberStart": "09",
        "numberEnd": "27",
        "latStart": 39.89819537,
        "lonStart": -82.11543371,
        "latEnd": 39.89902685,
        "lonEnd": -82.10512185,
        "length": 0,
        "surfacetype": 3
      }
    ],
    "id": 10705
  },
  {
    "type": 17,
    "icao": "28OI",
    "lat": 39.98061944,
    "lon": -82.84156501,
    "communications": [],
    "elevation": 841,
    "tower": false,
    "name": "[H] Mount Carmel East Hospital",
    "runways": [
      {
        "type": 102,
        "width": 15.2,
        "surfaceType": 1,
        "numberStart": "H1",
        "numberEnd": null,
        "latStart": 39.98061944,
        "lonStart": -82.84156501,
        "latEnd": null,
        "lonEnd": null,
        "length": 15.2
      }
    ],
    "id": 11640
  },
  {
    "type": 17,
    "icao": "54I",
    "lat": 39.53034805,
    "lon": -82.03333723,
    "communications": [],
    "elevation": 818,
    "tower": false,
    "name": "[H] Burr Oak Lodge",
    "runways": [
      {
        "type": 102,
        "width": 22.9,
        "surfaceType": 3,
        "numberStart": "H1",
        "numberEnd": null,
        "latStart": 39.53034805,
        "lonStart": -82.03333723,
        "latEnd": null,
        "lonEnd": null,
        "length": 22.9
      }
    ],
    "id": 12642
  },
  {
    "type": 17,
    "icao": "83OI",
    "lat": 39.95450805,
    "lon": -82.52738056,
    "communications": [],
    "elevation": 898,
    "tower": false,
    "name": "[H] M P W",
    "runways": [
      {
        "type": 102,
        "width": 15.2,
        "surfaceType": 2,
        "numberStart": "H1",
        "numberEnd": null,
        "latStart": 39.95450805,
        "lonStart": -82.52738056,
        "latEnd": null,
        "lonEnd": null,
        "length": 15.2
      }
    ],
    "id": 13797
  },
  {
    "type": 17,
    "icao": "84OI",
    "lat": 39.12507194,
    "lon": -82.53821556,
    "communications": [],
    "elevation": 714,
    "tower": false,
    "name": "[H] Grant Lifeflight 2",
    "runways": [
      {
        "type": 102,
        "width": 6.1,
        "surfaceType": 2,
        "numberStart": "H1",
        "numberEnd": null,
        "latStart": 39.12507194,
        "lonStart": -82.53821556,
        "latEnd": null,
        "lonEnd": null,
        "length": 6.1
      }
    ],
    "id": 13832
  },
  {
    "type": 17,
    "icao": "97OH",
    "lat": 39.04146138,
    "lon": -82.62794223,
    "communications": [],
    "elevation": 706,
    "tower": false,
    "name": "[H] Jackson",
    "runways": [
      {
        "type": 102,
        "width": 7.3,
        "surfaceType": 2,
        "numberStart": "H1",
        "numberEnd": null,
        "latStart": 39.04146138,
        "lonStart": -82.62794223,
        "latEnd": null,
        "lonEnd": null,
        "length": 7.3
      }
    ],
    "id": 14272
  },
  {
    "type": 1,
    "icao": "I84",
    "lat": 39.73701277,
    "lon": -82.09847612,
    "communications": [],
    "elevation": 776,
    "tower": false,
    "name": "Crooksville",
    "runways": [
      {
        "type": 100,
        "width": 30.48,
        "surfaceType": null,
        "numberStart": "18",
        "numberEnd": "36",
        "latStart": 39.74026449,
        "lonStart": -82.09892056,
        "latEnd": 39.73376105,
        "lonEnd": -82.09803168,
        "length": 0,
        "surfacetype": 3
      }
    ],
    "id": 18128
  },
  {
    "type": 1,
    "icao": "I86",
    "lat": 39.6915915,
    "lon": -82.1977875,
    "communications": [
      {
        "type": 51,
        "frequency": 12280,
        "name": "CTAF/UNICOM"
      }
    ],
    "elevation": 1051,
    "tower": false,
    "name": "PERRY CO",
    "runways": [
      {
        "type": 100,
        "width": 22.86,
        "surfaceType": null,
        "numberStart": "08",
        "numberEnd": "26",
        "latStart": 39.690119,
        "lonStart": -82.203703,
        "latEnd": 39.693064,
        "lonEnd": -82.191872,
        "length": 0,
        "surfacetype": 1
      }
    ],
    "id": 18130
  },
  {
    "type": 1,
    "icao": "KUNI",
    "lat": 39.211892000000006,
    "lon": -82.229254,
    "communications": [
      {
        "type": 50,
        "frequency": 12832,
        "name": "AWOS 3"
      },
      {
        "type": 51,
        "frequency": 12307,
        "name": "CTAF/UNICOM"
      },
      {
        "type": 52,
        "frequency": 12095,
        "name": "CLNC DEL"
      },
      {
        "type": 55,
        "frequency": 12095,
        "name": "HUNTINGTON APP/DEP"
      }
    ],
    "elevation": 766,
    "tower": false,
    "name": "Ohio University Snyder Field",
    "runways": [
      {
        "type": 100,
        "width": 29.87,
        "surfaceType": null,
        "numberStart": "07",
        "numberEnd": "25",
        "latStart": 39.208131,
        "lonStart": -82.237872,
        "latEnd": 39.215653,
        "lonEnd": -82.220636,
        "length": 0,
        "surfacetype": 1
      }
    ],
    "id": 19933
  },
  {
    "type": 1,
    "icao": "OH11",
    "lat": 39.11055555,
    "lon": -82.09222223,
    "communications": [],
    "elevation": 930,
    "tower": false,
    "name": "Arnold",
    "runways": [
      {
        "type": 100,
        "width": 15.24,
        "surfaceType": null,
        "numberStart": "17",
        "numberEnd": "35",
        "latStart": 39.11319227,
        "lonStart": -82.09319663,
        "latEnd": 39.10791883,
        "lonEnd": -82.09124783,
        "length": 0,
        "surfacetype": 3
      }
    ],
    "id": 23224
  },
  {
    "type": 17,
    "icao": "OH23",
    "lat": 39.32673944,
    "lon": -82.11431139,
    "communications": [],
    "elevation": 720,
    "tower": false,
    "name": "[H] O Bleness Memorial Hospital",
    "runways": [
      {
        "type": 102,
        "width": 12.2,
        "surfaceType": 2,
        "numberStart": "H1",
        "numberEnd": null,
        "latStart": 39.32673944,
        "lonStart": -82.11431139,
        "latEnd": null,
        "lonEnd": null,
        "length": 12.2
      }
    ],
    "id": 23234
  },
  {
    "type": 1,
    "icao": "OH35",
    "lat": 39.42839694,
    "lon": -82.82267334,
    "communications": [],
    "elevation": 900,
    "tower": false,
    "name": "Mission Field",
    "runways": [
      {
        "type": 100,
        "width": 15.24,
        "surfaceType": null,
        "numberStart": "12",
        "numberEnd": "30",
        "latStart": 39.42978802,
        "lonStart": -82.82653547,
        "latEnd": 39.42700586,
        "lonEnd": -82.81881121,
        "length": 0,
        "surfacetype": 3
      }
    ],
    "id": 23244
  },
  {
    "type": 1,
    "icao": "OH36",
    "lat": 39.88450805,
    "lon": -82.58905112,
    "communications": [],
    "elevation": 930,
    "tower": false,
    "name": "Miller Farm Landing Strip",
    "runways": [
      {
        "type": 100,
        "width": 15.24,
        "surfaceType": null,
        "numberStart": "09",
        "numberEnd": "27",
        "latStart": 39.88411957,
        "lonStart": -82.59483785,
        "latEnd": 39.88489653,
        "lonEnd": -82.58326439,
        "length": 0,
        "surfacetype": 3
      }
    ],
    "id": 23245
  },
  {
    "type": 1,
    "icao": "OH37",
    "lat": 39.011738879999996,
    "lon": -82.78850362,
    "communications": [],
    "elevation": 690,
    "tower": false,
    "name": "Glade",
    "runways": [
      {
        "type": 100,
        "width": 12.19,
        "surfaceType": null,
        "numberStart": "13",
        "numberEnd": "31",
        "latStart": 39.01252553,
        "lonStart": -82.78994948,
        "latEnd": 39.01095223,
        "lonEnd": -82.78705776,
        "length": 0,
        "surfacetype": 3
      }
    ],
    "id": 23246
  },
  {
    "type": 1,
    "icao": "OH43",
    "lat": 39.83339694,
    "lon": -82.73322556,
    "communications": [],
    "elevation": 799,
    "tower": false,
    "name": "Anderson",
    "runways": [
      {
        "type": 100,
        "width": 30.48,
        "surfaceType": null,
        "numberStart": "09",
        "numberEnd": "27",
        "latStart": 39.83311006,
        "lonStart": -82.73749566,
        "latEnd": 39.83368382,
        "lonEnd": -82.72895546,
        "length": 0,
        "surfacetype": 3
      }
    ],
    "id": 23251
  },
  {
    "type": 17,
    "icao": "OH46",
    "lat": 39.39561888,
    "lon": -82.96934639,
    "communications": [],
    "elevation": 745,
    "tower": false,
    "name": "[H] Medical Center Hospital",
    "runways": [
      {
        "type": 102,
        "width": 6.1,
        "surfaceType": 1,
        "numberStart": "H1",
        "numberEnd": null,
        "latStart": 39.39561888,
        "lonStart": -82.96934639,
        "latEnd": null,
        "lonEnd": null,
        "length": 6.1
      }
    ],
    "id": 23254
  },
  {
    "type": 17,
    "icao": "OH47",
    "lat": 39.32423111,
    "lon": -82.95198389,
    "communications": [],
    "elevation": 619,
    "tower": false,
    "name": "[H] District 9",
    "runways": [
      {
        "type": 102,
        "width": 22.9,
        "surfaceType": 1,
        "numberStart": "H1",
        "numberEnd": null,
        "latStart": 39.32423111,
        "lonStart": -82.95198389,
        "latEnd": null,
        "lonEnd": null,
        "length": 22.9
      }
    ],
    "id": 23255
  },
  {
    "type": 17,
    "icao": "OH53",
    "lat": 39.96256416,
    "lon": -82.99934973,
    "communications": [],
    "elevation": 1354,
    "tower": false,
    "name": "[H] Ohio Bldg Authority",
    "runways": [
      {
        "type": 102,
        "width": 16.8,
        "surfaceType": 1,
        "numberStart": "H1",
        "numberEnd": null,
        "latStart": 39.96256416,
        "lonStart": -82.99934973,
        "latEnd": null,
        "lonEnd": null,
        "length": 16.8
      }
    ],
    "id": 23261
  },
  {
    "type": 1,
    "icao": "OH61",
    "lat": 39.63534111,
    "lon": -82.73794751,
    "communications": [],
    "elevation": 899,
    "tower": false,
    "name": "Amanda",
    "runways": [
      {
        "type": 100,
        "width": 27.43,
        "surfaceType": null,
        "numberStart": "18",
        "numberEnd": "36",
        "latStart": 39.63848353,
        "lonStart": -82.7383045,
        "latEnd": 39.63219869,
        "lonEnd": -82.73759052,
        "length": 0,
        "surfacetype": 3
      }
    ],
    "id": 23269
  },
  {
    "type": 1,
    "icao": "OH86",
    "lat": 39.64839805,
    "lon": -82.53988167,
    "communications": [],
    "elevation": 800,
    "tower": false,
    "name": "Deeds Field",
    "runways": [
      {
        "type": 100,
        "width": 15.24,
        "surfaceType": null,
        "numberStart": "10",
        "numberEnd": "28",
        "latStart": 39.64868477,
        "lonStart": -82.54342458,
        "latEnd": 39.64811133,
        "lonEnd": -82.53633876,
        "length": 0,
        "surfacetype": 3
      }
    ],
    "id": 23293
  },
  {
    "type": 1,
    "icao": "OI01",
    "lat": 39.51367777,
    "lon": -82.44904417000001,
    "communications": [],
    "elevation": 750,
    "tower": false,
    "name": "Lazy-W",
    "runways": [
      {
        "type": 100,
        "width": 15.24,
        "surfaceType": null,
        "numberStart": "09",
        "numberEnd": "27",
        "latStart": 39.51346261,
        "lonStart": -82.45223195,
        "latEnd": 39.51389293,
        "lonEnd": -82.44585639,
        "length": 0,
        "surfacetype": 3
      }
    ],
    "id": 23305
  },
  {
    "type": 17,
    "icao": "OI63",
    "lat": 39.55978527,
    "lon": -82.77517139,
    "communications": [],
    "elevation": 950,
    "tower": false,
    "name": "[H] Mildon",
    "runways": [
      {
        "type": 102,
        "width": 22.9,
        "surfaceType": 3,
        "numberStart": "H1",
        "numberEnd": null,
        "latStart": 39.55978527,
        "lonStart": -82.77517139,
        "latEnd": null,
        "lonEnd": null,
        "length": 22.9
      }
    ],
    "id": 23357
  },
  {
    "type": 17,
    "icao": "OI95",
    "lat": 39.95367527,
    "lon": -82.98129334,
    "communications": [],
    "elevation": 785,
    "tower": false,
    "name": "[H] Childrens Hospital",
    "runways": [
      {
        "type": 102,
        "width": 6.1,
        "surfaceType": 2,
        "numberStart": "H1",
        "numberEnd": null,
        "latStart": 39.95367527,
        "lonStart": -82.98129334,
        "latEnd": null,
        "lonEnd": null,
        "length": 6.1
      }
    ],
    "id": 23381
  },
  {
    "type": 17,
    "icao": "OI96",
    "lat": 39.93506361,
    "lon": -82.83184195,
    "communications": [],
    "elevation": 796,
    "tower": false,
    "name": "[H] National",
    "runways": [
      {
        "type": 102,
        "width": 9.1,
        "surfaceType": 1,
        "numberStart": "H1",
        "numberEnd": null,
        "latStart": 39.93506361,
        "lonStart": -82.83184195,
        "latEnd": null,
        "lonEnd": null,
        "length": 9.1
      }
    ],
    "id": 23382
  },
  {
    "type": 16,
    "icao": "WV35",
    "lat": 39.02230027,
    "lon": -82.02347362,
    "communications": [],
    "elevation": 538,
    "tower": false,
    "name": "[S] Pomeroy-Mason",
    "runways": [
      {
        "type": 101,
        "width": 152.4,
        "surfaceType": null,
        "numberStart": "09",
        "numberEnd": "27",
        "latStart": 39.0217026,
        "lonStart": -82.03226671,
        "latEnd": 39.02289794,
        "lonEnd": -82.01468053,
        "length": 0
      }
    ],
    "id": 31974
  }
]