[
  {
    "type": 1,
    "icao": "DAAS",
    "lat": 36.178129,
    "lon": 5.324493,
    "communications": [],
    "elevation": 3359,
    "tower": false,
    "name": "Ain Arnat",
    "runways": [
      {
        "type": 100,
        "width": 38.1,
        "surfaceType": null,
        "numberStart": "09",
        "numberEnd": "27",
        "latStart": 36.17790232,
        "lonStart": 5.31376855,
        "latEnd": 36.17835568,
        "lonEnd": 5.33521745,
        "length": 0,
        "surfacetype": 1
      }
    ],
    "id": 731
  },
  {
    "type": 1,
    "icao": "DAAV",
    "lat": 36.7951345,
    "lon": 5.873607,
    "communications": [
      {
        "type": 54,
        "frequency": 11970,
        "name": "TWR"
      }
    ],
    "elevation": 36,
    "tower": true,
    "name": "JIJEL",
    "runways": [
      {
        "type": 100,
        "width": 45.11,
        "surfaceType": null,
        "numberStart": "17",
        "numberEnd": "35",
        "latStart": 36.805833,
        "lonStart": 5.871503,
        "latEnd": 36.784436,
        "lonEnd": 5.875711,
        "length": 0,
        "surfacetype": 1
      }
    ],
    "id": 12748
  },
  {
    "type": 1,
    "icao": "DAAE",
    "lat": 36.7118055,
    "lon": 5.0698615,
    "communications": [
      {
        "type": 54,
        "frequency": 11890,
        "name": "BEJAIA TWR"
      },
      {
        "type": 54,
        "frequency": 11970,
        "name": "BEJAIA TWR"
      }
    ],
    "elevation": 20,
    "tower": true,
    "name": "SOUMMAM",
    "runways": [
      {
        "type": 100,
        "width": 45.11,
        "surfaceType": null,
        "numberStart": "08",
        "numberEnd": "26",
        "latStart": 36.71,
        "lonStart": 5.056667,
        "latEnd": 36.713611,
        "lonEnd": 5.083056,
        "length": 0,
        "surfacetype": 1
      }
    ],
    "id": 22380
  }
]