[
  {
    "type": 1,
    "icao": "SCAI",
    "lat": -38.431575,
    "lon": -55.180051000000006,
    "communications": [],
    "elevation": 1666,
    "tower": true,
    "name": "CuracautC-n",
    "runways": [
      {
        "type": 100,
        "width": 18.29,
        "surfaceType": null,
        "numberStart": "10",
        "numberEnd": "28",
        "latStart": -38.430534,
        "lonStart": -71.927486,
        "latEnd": -38.432616,
        "lonEnd": -71.918905,
        "length": 0,
        "surfacetype": 5
      }
    ],
    "id": 5585
  },
  {
    "type": 1,
    "icao": "SCQP",
    "lat": -38.92590139,
    "lon": -55.78557361,
    "communications": [
      {
        "type": 55,
        "frequency": 11920,
        "name": "TEMUCO RADAR"
      },
      {
        "type": 54,
        "frequency": 11840,
        "name": "TOWER"
      },
      {
        "type": 53,
        "frequency": 12160,
        "name": "GROUND"
      }
    ],
    "elevation": 320,
    "tower": true,
    "name": "La AraucanC-a",
    "runways": [
      {
        "type": 100,
        "width": 45,
        "surfaceType": null,
        "numberStart": "01",
        "numberEnd": "19",
        "latStart": -38.9364,
        "lonStart": -72.65574444,
        "latEnd": -38.91540278,
        "lonEnd": -72.64743056,
        "length": 0,
        "surfacetype": 1
      }
    ],
    "id": 14693
  },
  {
    "type": 1,
    "icao": "SCQC",
    "lat": -38.334388875,
    "lon": -55.460793249999995,
    "communications": [],
    "elevation": 823,
    "tower": true,
    "name": "La Colmena",
    "runways": [
      {
        "type": 100,
        "width": 29.87,
        "surfaceType": null,
        "numberStart": "03",
        "numberEnd": "21",
        "latStart": -38.33720276,
        "lonStart": -72.59001151,
        "latEnd": -38.33157499,
        "lonEnd": -72.58420189,
        "length": 0,
        "surfacetype": 3
      }
    ],
    "id": 14699
  },
  {
    "type": 1,
    "icao": "SCQK",
    "lat": -38.362085515000004,
    "lon": -55.927205955000005,
    "communications": [],
    "elevation": 220,
    "tower": true,
    "name": "Lequecahue",
    "runways": [
      {
        "type": 100,
        "width": 17.98,
        "surfaceType": null,
        "numberStart": "18",
        "numberEnd": "36",
        "latStart": -38.35884595,
        "lonStart": -73.48908683,
        "latEnd": -38.36532508,
        "lonEnd": -73.49024813,
        "length": 0,
        "surfacetype": 1
      }
    ],
    "id": 15180
  },
  {
    "type": 1,
    "icao": "SCTC",
    "lat": -38.766818,
    "lon": -55.704969725,
    "communications": [
      {
        "type": 53,
        "frequency": 12190,
        "name": "GND"
      },
      {
        "type": 54,
        "frequency": 11850,
        "name": "TWR"
      },
      {
        "type": 55,
        "frequency": 12450,
        "name": "APP"
      }
    ],
    "elevation": 304,
    "tower": true,
    "name": "Maquehue",
    "runways": [
      {
        "type": 100,
        "width": 44.81,
        "surfaceType": null,
        "numberStart": "06",
        "numberEnd": "24",
        "latStart": -38.76979778,
        "lonStart": -72.64610123,
        "latEnd": -38.76383822,
        "lonEnd": -72.62809452,
        "length": 0,
        "surfacetype": 1
      }
    ],
    "id": 16635
  },
  {
    "type": 1,
    "icao": "SCVO",
    "lat": -38.2309675,
    "lon": -55.359513359999994,
    "communications": [],
    "elevation": 978,
    "tower": false,
    "name": "MarC-a Ester",
    "runways": [
      {
        "type": 100,
        "width": 20.12,
        "surfaceType": null,
        "numberStart": "06",
        "numberEnd": "24",
        "latStart": -38.23172467,
        "lonStart": -72.48881639,
        "latEnd": -38.23021033,
        "lonEnd": -72.48162169,
        "length": 0,
        "surfacetype": 3
      }
    ],
    "id": 16772
  },
  {
    "type": 1,
    "icao": "SCML",
    "lat": -38.8591785,
    "lon": -55.33818947500001,
    "communications": [],
    "elevation": 1388,
    "tower": false,
    "name": "Melipeuco",
    "runways": [
      {
        "type": 100,
        "width": 17.98,
        "surfaceType": null,
        "numberStart": "06",
        "numberEnd": "24",
        "latStart": -38.86103303,
        "lonStart": -71.81905498,
        "latEnd": -38.85732397,
        "lonEnd": -71.80852529,
        "length": 0,
        "surfacetype": 3
      }
    ],
    "id": 17038
  },
  {
    "type": 1,
    "icao": "SA9E",
    "lat": -38.95169432,
    "lon": -55.142659335000005,
    "communications": [
      {
        "type": 54,
        "frequency": 11820,
        "name": "ATC traffic"
      }
    ],
    "elevation": 3815,
    "tower": true,
    "name": "Moquehue",
    "runways": [
      {
        "type": 100,
        "width": 17.98,
        "surfaceType": null,
        "numberStart": "06",
        "numberEnd": "24",
        "latStart": -38.95294767,
        "lonStart": -71.3348777,
        "latEnd": -38.95044097,
        "lonEnd": -71.32648092,
        "length": 0,
        "surfacetype": 3
      }
    ],
    "id": 17484
  },
  {
    "type": 1,
    "icao": "SCTR",
    "lat": -38.27123848,
    "lon": -55.465333065,
    "communications": [],
    "elevation": 812,
    "tower": false,
    "name": "TraiguC)n",
    "runways": [
      {
        "type": 100,
        "width": 17.98,
        "surfaceType": null,
        "numberStart": "18",
        "numberEnd": "36",
        "latStart": -38.27469698,
        "lonStart": -72.66288615,
        "latEnd": -38.26777998,
        "lonEnd": -72.66033939,
        "length": 0,
        "surfacetype": 1
      }
    ],
    "id": 25525
  },
  {
    "type": 1,
    "icao": "SCTO",
    "lat": -38.244612384999996,
    "lon": -55.294787585,
    "communications": [
      {
        "type": 54,
        "frequency": 11820,
        "name": "MULT"
      }
    ],
    "elevation": 1147,
    "tower": true,
    "name": "Victoria",
    "runways": [
      {
        "type": 100,
        "width": 17.98,
        "surfaceType": null,
        "numberStart": "01",
        "numberEnd": "19",
        "latStart": -38.24939649,
        "lonStart": -72.34974689,
        "latEnd": -38.23982828,
        "lonEnd": -72.34693441,
        "length": 0,
        "surfacetype": 1
      }
    ],
    "id": 26309
  }
]