[
  {
    "type": 1,
    "icao": "RJNG",
    "lat": 35.3940765,
    "lon": 136.8696665,
    "communications": [
      {
        "type": 54,
        "frequency": 12010,
        "name": "TWR"
      },
      {
        "type": 54,
        "frequency": 12200,
        "name": "TWR"
      },
      {
        "type": 55,
        "frequency": 12030,
        "name": "NAGOYA APP"
      },
      {
        "type": 56,
        "frequency": 12070,
        "name": "NAGOYA DEP"
      }
    ],
    "elevation": 128,
    "tower": true,
    "name": "GIFU",
    "runways": [
      {
        "type": 100,
        "width": 45.72,
        "surfaceType": null,
        "numberStart": "10",
        "numberEnd": "28",
        "latStart": 35.394553,
        "lonStart": 136.854875,
        "latEnd": 35.3936,
        "lonEnd": 136.884458,
        "length": 0,
        "surfacetype": 2
      }
    ],
    "id": 9997
  },
  {
    "type": 1,
    "icao": "RJNA",
    "lat": 35.255493,
    "lon": 136.9243885,
    "communications": [
      {
        "type": 52,
        "frequency": 12175,
        "name": "CLNC DEL"
      },
      {
        "type": 53,
        "frequency": 12170,
        "name": "GND"
      },
      {
        "type": 54,
        "frequency": 12270,
        "name": "TWR"
      },
      {
        "type": 54,
        "frequency": 12620,
        "name": "TWR"
      },
      {
        "type": 54,
        "frequency": 11870,
        "name": "TWR"
      },
      {
        "type": 55,
        "frequency": 12105,
        "name": "CENTRAIR APP"
      },
      {
        "type": 55,
        "frequency": 11975,
        "name": "CENTRAIR APP"
      },
      {
        "type": 55,
        "frequency": 11925,
        "name": "CENTRAIR TCA"
      },
      {
        "type": 55,
        "frequency": 12175,
        "name": "CENTRAIR TCA"
      },
      {
        "type": 56,
        "frequency": 12122,
        "name": "CENTRAIR DEP"
      }
    ],
    "elevation": 52,
    "tower": true,
    "name": "NAGOYA",
    "runways": [
      {
        "type": 100,
        "width": 45.72,
        "surfaceType": null,
        "numberStart": "16",
        "numberEnd": "34",
        "latStart": 35.266439,
        "lonStart": 136.917419,
        "latEnd": 35.244547,
        "lonEnd": 136.931358,
        "length": 0,
        "surfacetype": 1
      }
    ],
    "id": 17802
  }
]