[
  {
    "type": 1,
    "icao": "RJDA",
    "lat": 32.482501,
    "lon": 130.15886799999998,
    "communications": [
      {
        "type": 54,
        "frequency": 13077,
        "name": "AMASKA FS"
      }
    ],
    "elevation": 339,
    "tower": false,
    "name": "AMAKUSA",
    "runways": [
      {
        "type": 100,
        "width": 30.18,
        "surfaceType": null,
        "numberStart": "13",
        "numberEnd": "31",
        "latStart": 32.485058,
        "lonStart": 130.154486,
        "latEnd": 32.479944,
        "lonEnd": 130.16325,
        "length": 0,
        "surfacetype": 1
      }
    ],
    "id": 257
  },
  {
    "type": 1,
    "icao": "RJFT",
    "lat": 32.837317999999996,
    "lon": 130.8550515,
    "communications": [
      {
        "type": 50,
        "frequency": 12880,
        "name": "ATIS"
      },
      {
        "type": 53,
        "frequency": 12180,
        "name": "GND"
      },
      {
        "type": 54,
        "frequency": 12290,
        "name": "TWR"
      },
      {
        "type": 54,
        "frequency": 12620,
        "name": "TWR"
      },
      {
        "type": 54,
        "frequency": 11870,
        "name": "TWR"
      },
      {
        "type": 55,
        "frequency": 12290,
        "name": "RAD"
      },
      {
        "type": 55,
        "frequency": 12385,
        "name": "TCA"
      },
      {
        "type": 55,
        "frequency": 11890,
        "name": "FUKUOKA CON"
      },
      {
        "type": 55,
        "frequency": 13290,
        "name": "FUKUOKA CON"
      },
      {
        "type": 55,
        "frequency": 12290,
        "name": "APP"
      },
      {
        "type": 55,
        "frequency": 11900,
        "name": "APP"
      },
      {
        "type": 55,
        "frequency": 12650,
        "name": "APP"
      },
      {
        "type": 56,
        "frequency": 12290,
        "name": "DEP"
      }
    ],
    "elevation": 642,
    "tower": true,
    "name": "KUMAMOTO",
    "runways": [
      {
        "type": 100,
        "width": 45.72,
        "surfaceType": null,
        "numberStart": "07",
        "numberEnd": "25",
        "latStart": 32.831514,
        "lonStart": 130.840581,
        "latEnd": 32.843122,
        "lonEnd": 130.869522,
        "length": 0,
        "surfacetype": 1
      }
    ],
    "id": 13492
  }
]