[
  {
    "type": 1,
    "icao": "1RL",
    "lat": 48.977119115,
    "lon": -123.079230085,
    "communications": [
      {
        "type": 50,
        "frequency": 12190,
        "name": "ATIS Boundary Bay CZBB"
      },
      {
        "type": 51,
        "frequency": 12280,
        "name": "Unicom/CTAF"
      }
    ],
    "elevation": 9,
    "tower": true,
    "name": "Point Roberts Airpark",
    "runways": [
      {
        "type": 100,
        "width": 38.1,
        "surfaceType": null,
        "numberStart": "15",
        "numberEnd": "33",
        "latStart": 48.98020246,
        "lonStart": -123.07931342,
        "latEnd": 48.97403577,
        "lonEnd": -123.07914675,
        "length": 0,
        "surfacetype": 3
      }
    ],
    "id": 61
  },
  {
    "type": 1,
    "icao": "2WA3",
    "lat": 48.683847215,
    "lon": -123.22224070499999,
    "communications": [],
    "elevation": 200,
    "tower": false,
    "name": "Stuart Island West",
    "runways": [
      {
        "type": 100,
        "width": 14.94,
        "surfaceType": null,
        "numberStart": "09",
        "numberEnd": "27",
        "latStart": 48.68429088,
        "lonStart": -123.22488093,
        "latEnd": 48.68340355,
        "lonEnd": -123.21960048,
        "length": 0,
        "surfacetype": 4
      }
    ],
    "id": 106
  },
  {
    "type": 1,
    "icao": "7WA0",
    "lat": 48.09737615,
    "lon": -123.64184103,
    "communications": [],
    "elevation": 830,
    "tower": false,
    "name": "Big Andy",
    "runways": [
      {
        "type": 100,
        "width": 15.24,
        "surfaceType": null,
        "numberStart": "07",
        "numberEnd": "25",
        "latStart": 48.09734101,
        "lonStart": -123.64448119,
        "latEnd": 48.09741129,
        "lonEnd": -123.63920087,
        "length": 0,
        "surfacetype": 3
      }
    ],
    "id": 264
  },
  {
    "type": 17,
    "icao": "7WA1",
    "lat": 48.09702262,
    "lon": -123.48215343,
    "communications": [],
    "elevation": 600,
    "tower": false,
    "name": "[H] Eclipse",
    "runways": [
      {
        "type": 102,
        "width": 11.1,
        "surfaceType": 1,
        "numberStart": "H1",
        "numberEnd": null,
        "latStart": 48.09702262,
        "lonStart": -123.48215343,
        "latEnd": null,
        "lonEnd": null,
        "length": 25.1
      }
    ],
    "id": 265
  },
  {
    "type": 1,
    "icao": "7WA5",
    "lat": 48.673375750000005,
    "lon": -123.175286775,
    "communications": [],
    "elevation": 8,
    "tower": false,
    "name": "Stuart Island Airpark",
    "runways": [
      {
        "type": 100,
        "width": 16.76,
        "surfaceType": null,
        "numberStart": "09",
        "numberEnd": "27",
        "latStart": 48.67425645,
        "lonStart": -123.17922697,
        "latEnd": 48.67249505,
        "lonEnd": -123.17134658,
        "length": 0,
        "surfacetype": 3
      }
    ],
    "id": 266
  },
  {
    "type": 1,
    "icao": "61WA",
    "lat": 48.47274653,
    "lon": -123.014054015,
    "communications": [],
    "elevation": 48,
    "tower": false,
    "name": "Burden Field - Rabbit Run",
    "runways": [
      {
        "type": 100,
        "width": 30.48,
        "surfaceType": null,
        "numberStart": "09",
        "numberEnd": "27",
        "latStart": 48.47276361,
        "lonStart": -123.01881544,
        "latEnd": 48.47272945,
        "lonEnd": -123.00929259,
        "length": 0,
        "surfacetype": 3
      }
    ],
    "id": 443
  },
  {
    "type": 1,
    "icao": "62WA",
    "lat": 48.105385365000004,
    "lon": -123.10709320000001,
    "communications": [],
    "elevation": 129,
    "tower": false,
    "name": "Davis Field",
    "runways": [
      {
        "type": 100,
        "width": 21.82,
        "surfaceType": null,
        "numberStart": "07",
        "numberEnd": "25",
        "latStart": 48.10541846,
        "lonStart": -123.11043001,
        "latEnd": 48.10535227,
        "lonEnd": -123.10375639,
        "length": 0,
        "surfacetype": 3
      }
    ],
    "id": 444
  },
  {
    "type": 1,
    "icao": "90WA",
    "lat": 48.711157505,
    "lon": -123.017797945,
    "communications": [],
    "elevation": 140,
    "tower": false,
    "name": "Waldronaire",
    "runways": [
      {
        "type": 100,
        "width": 41.54,
        "surfaceType": null,
        "numberStart": "14",
        "numberEnd": "32",
        "latStart": 48.71401794,
        "lonStart": -123.0197298,
        "latEnd": 48.70829707,
        "lonEnd": -123.01586609,
        "length": 0,
        "surfacetype": 3
      }
    ],
    "id": 484
  },
  {
    "type": 1,
    "icao": "CAM3",
    "lat": 48.75477698,
    "lon": -123.709682835,
    "communications": [],
    "elevation": 312,
    "tower": false,
    "name": "Duncan",
    "runways": [
      {
        "type": 100,
        "width": 18.9,
        "surfaceType": null,
        "numberStart": "13",
        "numberEnd": "31",
        "latStart": 48.75675117,
        "lonStart": -123.71130447,
        "latEnd": 48.75280279,
        "lonEnd": -123.7080612,
        "length": 0,
        "surfacetype": 1
      }
    ],
    "id": 644
  },
  {
    "type": 1,
    "icao": "CYYJ",
    "lat": 48.647516849999995,
    "lon": -123.42890619375001,
    "communications": [
      {
        "type": 50,
        "frequency": 11880,
        "name": "CYYJ ATIS"
      },
      {
        "type": 51,
        "frequency": 11970,
        "name": "VICTORIA MULT"
      },
      {
        "type": 52,
        "frequency": 12640,
        "name": "VICTORIA CLD"
      },
      {
        "type": 53,
        "frequency": 12190,
        "name": "VICTORIA GND"
      },
      {
        "type": 54,
        "frequency": 11970,
        "name": "VICTORIA TWR"
      },
      {
        "type": 54,
        "frequency": 11910,
        "name": "VICTORIA TWR"
      },
      {
        "type": 55,
        "frequency": 12780,
        "name": "VICTORIA APP"
      },
      {
        "type": 55,
        "frequency": 13385,
        "name": "VICTORIA APP"
      }
    ],
    "elevation": 208,
    "tower": true,
    "name": "Victoria International",
    "runways": [
      {
        "type": 100,
        "width": 61,
        "surfaceType": null,
        "numberStart": "09",
        "numberEnd": "27",
        "latStart": 48.65184914,
        "lonStart": -123.43962238,
        "latEnd": 48.64650914,
        "lonEnd": -123.41175638,
        "length": 0,
        "surfacetype": 1
      },
      {
        "type": 100,
        "width": 61.01,
        "surfaceType": null,
        "numberStart": "14",
        "numberEnd": "32",
        "latStart": 48.65319288,
        "lonStart": -123.43380144,
        "latEnd": 48.64104088,
        "lonEnd": -123.42416945,
        "length": 0,
        "surfacetype": 1
      },
      {
        "type": 100,
        "width": 61.01,
        "surfaceType": null,
        "numberStart": "03",
        "numberEnd": "21",
        "latStart": 48.64234614,
        "lonStart": -123.43533988,
        "latEnd": 48.65226214,
        "lonEnd": -123.42087189,
        "length": 0,
        "surfacetype": 1
      },
      {
        "type": 102,
        "width": 15,
        "surfaceType": 1,
        "numberStart": "H1",
        "numberEnd": null,
        "latStart": 48.64601069,
        "lonStart": -123.43328817,
        "latEnd": null,
        "lonEnd": null,
        "length": 15
      },
      {
        "type": 102,
        "width": 15,
        "surfaceType": 1,
        "numberStart": "H2",
        "numberEnd": null,
        "latStart": 48.64692379,
        "lonStart": -123.43239996,
        "latEnd": null,
        "lonEnd": null,
        "length": 15
      }
    ],
    "id": 871
  },
  {
    "type": 1,
    "icao": "KCLM",
    "lat": 48.12082925,
    "lon": -123.5000702675,
    "communications": [
      {
        "type": 50,
        "frequency": 13517,
        "name": "ASOS"
      },
      {
        "type": 51,
        "frequency": 12297,
        "name": "CTAF/UNICOM"
      },
      {
        "type": 52,
        "frequency": 12415,
        "name": "CLNC DEL"
      },
      {
        "type": 55,
        "frequency": 11820,
        "name": "WHIDBEY APP/DEP"
      },
      {
        "type": 56,
        "frequency": 11820,
        "name": "WHIDBEY APP/DEP"
      }
    ],
    "elevation": 291,
    "tower": false,
    "name": "WILLIAM R FAIRCHILD INTL",
    "runways": [
      {
        "type": 100,
        "width": 46.02,
        "surfaceType": null,
        "numberStart": "08",
        "numberEnd": "26",
        "latStart": 48.12104357,
        "lonStart": -123.51156044,
        "latEnd": 48.11664843,
        "lonEnd": -123.48632663,
        "length": 0,
        "surfacetype": 1
      },
      {
        "type": 100,
        "width": 14.94,
        "surfaceType": null,
        "numberStart": "13",
        "numberEnd": "31",
        "latStart": 48.126567,
        "lonStart": -123.504761,
        "latEnd": 48.119058,
        "lonEnd": -123.497633,
        "length": 0,
        "surfacetype": 1
      }
    ],
    "id": 2498
  },
  {
    "type": 1,
    "icao": "KFHR",
    "lat": 48.521966500000005,
    "lon": -123.0243681,
    "communications": [
      {
        "type": 50,
        "frequency": 13567,
        "name": "ASOS"
      },
      {
        "type": 51,
        "frequency": 12825,
        "name": "CTAF"
      },
      {
        "type": 55,
        "frequency": 11820,
        "name": "WHIDBEY APP/DEP"
      }
    ],
    "elevation": 112,
    "tower": false,
    "name": "FRIDAY HARBOR",
    "runways": [
      {
        "type": 100,
        "width": 22.86,
        "surfaceType": null,
        "numberStart": "16",
        "numberEnd": "34",
        "latStart": 48.526622,
        "lonStart": -123.0247296,
        "latEnd": 48.517311,
        "lonEnd": -123.0240066,
        "length": 0,
        "surfacetype": 1
      }
    ],
    "id": 2663
  },
  {
    "type": 1,
    "icao": "KNOW",
    "lat": 48.140980549999995,
    "lon": -123.41210642333334,
    "communications": [
      {
        "type": 51,
        "frequency": 12297,
        "name": "CTAF"
      },
      {
        "type": 55,
        "frequency": 11820,
        "name": "WHIDBEY APP"
      }
    ],
    "elevation": 13,
    "tower": false,
    "name": "PORT ANGELES CGAS",
    "runways": [
      {
        "type": 100,
        "width": 46.02,
        "surfaceType": null,
        "numberStart": "08",
        "numberEnd": "26",
        "latStart": 48.141675,
        "lonStart": -123.423153,
        "latEnd": 48.140911,
        "lonEnd": -123.404756,
        "length": 0,
        "surfacetype": 1
      },
      {
        "type": 102,
        "width": 25,
        "surfaceType": 2,
        "numberStart": "H1",
        "numberEnd": null,
        "latStart": 48.14035565,
        "lonStart": -123.40841027,
        "latEnd": null,
        "lonEnd": null,
        "length": 25
      }
    ],
    "id": 3037
  },
  {
    "type": 1,
    "icao": "W28",
    "lat": 48.0979062,
    "lon": -123.187926645,
    "communications": [
      {
        "type": 50,
        "frequency": 12270,
        "name": "AWOS"
      }
    ],
    "elevation": 144,
    "tower": true,
    "name": "Sequim Valley",
    "runways": [
      {
        "type": 100,
        "width": 11.89,
        "surfaceType": null,
        "numberStart": "09R",
        "numberEnd": "27L",
        "latStart": 48.0993324,
        "lonStart": -123.194811,
        "latEnd": 48.09648,
        "lonEnd": -123.18104229,
        "length": 0,
        "surfacetype": 1
      }
    ],
    "id": 5219
  },
  {
    "type": 1,
    "icao": "WA59",
    "lat": 48.125579404999996,
    "lon": -123.15121183,
    "communications": [],
    "elevation": 49,
    "tower": false,
    "name": "Rakes Glen",
    "runways": [
      {
        "type": 100,
        "width": 7.32,
        "surfaceType": null,
        "numberStart": "09",
        "numberEnd": "27",
        "latStart": 48.12557673,
        "lonStart": -123.15450587,
        "latEnd": 48.12558208,
        "lonEnd": -123.14791779,
        "length": 0,
        "surfacetype": 1
      }
    ],
    "id": 5237
  },
  {
    "type": 1,
    "icao": "WN21",
    "lat": 48.07822553,
    "lon": -123.40048045,
    "communications": [],
    "elevation": 649,
    "tower": false,
    "name": "Lawson Airpark",
    "runways": [
      {
        "type": 100,
        "width": 21.34,
        "surfaceType": null,
        "numberStart": "04",
        "numberEnd": "22",
        "latStart": 48.07654578,
        "lonStart": -123.40287839,
        "latEnd": 48.07990528,
        "lonEnd": -123.39808251,
        "length": 0,
        "surfacetype": 3
      }
    ],
    "id": 5276
  },
  {
    "type": 1,
    "icao": "WN23",
    "lat": 48.101705210000006,
    "lon": -123.179638275,
    "communications": [],
    "elevation": 149,
    "tower": false,
    "name": "Grand View International",
    "runways": [
      {
        "type": 100,
        "width": 17.98,
        "surfaceType": null,
        "numberStart": "07",
        "numberEnd": "25",
        "latStart": 48.10171076,
        "lonStart": -123.18357412,
        "latEnd": 48.10169966,
        "lonEnd": -123.17570243,
        "length": 0,
        "surfacetype": 3
      }
    ],
    "id": 5277
  },
  {
    "type": 1,
    "icao": "WN29",
    "lat": 48.130263975000005,
    "lon": -123.205887365,
    "communications": [],
    "elevation": 100,
    "tower": false,
    "name": "Blue Ribbon",
    "runways": [
      {
        "type": 100,
        "width": 18.29,
        "surfaceType": null,
        "numberStart": "07",
        "numberEnd": "25",
        "latStart": 48.13027069,
        "lonStart": -123.21047345,
        "latEnd": 48.13025726,
        "lonEnd": -123.20130128,
        "length": 0,
        "surfacetype": 3
      }
    ],
    "id": 5278
  },
  {
    "type": 17,
    "icao": "WN37",
    "lat": 48.11117657,
    "lon": -123.32422421,
    "communications": [],
    "elevation": 200,
    "tower": false,
    "name": "[H] Thompson",
    "runways": [
      {
        "type": 102,
        "width": 49.01,
        "surfaceType": 3,
        "numberStart": "H1",
        "numberEnd": null,
        "latStart": 48.11117657,
        "lonStart": -123.32422421,
        "latEnd": null,
        "lonEnd": null,
        "length": 100.8
      }
    ],
    "id": 5279
  },
  {
    "type": 1,
    "icao": "WN49",
    "lat": 48.121998815,
    "lon": -123.08757360000001,
    "communications": [],
    "elevation": 20,
    "tower": false,
    "name": "Flying S Airfield",
    "runways": [
      {
        "type": 100,
        "width": 22.86,
        "surfaceType": null,
        "numberStart": "17",
        "numberEnd": "35",
        "latStart": 48.12536463,
        "lonStart": -123.08547479,
        "latEnd": 48.118633,
        "lonEnd": -123.08967241,
        "length": 0,
        "surfacetype": 3
      }
    ],
    "id": 5282
  },
  {
    "type": 1,
    "icao": "WN60",
    "lat": 48.140733315000006,
    "lon": -123.187957495,
    "communications": [],
    "elevation": 109,
    "tower": false,
    "name": "Swanton",
    "runways": [
      {
        "type": 100,
        "width": 18.29,
        "surfaceType": null,
        "numberStart": "09",
        "numberEnd": "27",
        "latStart": 48.14073307,
        "lonStart": -123.18909899,
        "latEnd": 48.14073356,
        "lonEnd": -123.186816,
        "length": 0,
        "surfacetype": 3
      }
    ],
    "id": 5284
  },
  {
    "type": 16,
    "icao": "CYWH",
    "lat": 48.4240595,
    "lon": -123.38848049999999,
    "communications": [
      {
        "type": 51,
        "frequency": 12220,
        "name": "RDO"
      },
      {
        "type": 51,
        "frequency": 12670,
        "name": "RDO"
      }
    ],
    "elevation": 0,
    "tower": false,
    "name": "[S] Victoria Harbour",
    "runways": [
      {
        "type": 101,
        "width": 76.2,
        "surfaceType": null,
        "numberStart": "01",
        "numberEnd": "19",
        "latStart": 48.41941581,
        "lonStart": -123.39512024,
        "latEnd": 48.42673819,
        "lonEnd": -123.38767776,
        "length": 0
      },
      {
        "type": 101,
        "width": 76.2,
        "surfaceType": null,
        "numberStart": "07",
        "numberEnd": "25",
        "latStart": 48.425042,
        "lonStart": -123.39221692,
        "latEnd": 48.425042,
        "lonEnd": -123.37890708,
        "length": 0
      }
    ],
    "id": 15828
  },
  {
    "type": 1,
    "icao": "WA09",
    "lat": 48.611374999999995,
    "lon": -123.137146,
    "communications": [],
    "elevation": 100,
    "tower": false,
    "name": "ROCHE HARBOR",
    "runways": [
      {
        "type": 100,
        "width": 10.97,
        "surfaceType": null,
        "numberStart": "07",
        "numberEnd": "25",
        "latStart": 48.611157,
        "lonStart": -123.145655,
        "latEnd": 48.611593,
        "lonEnd": -123.128637,
        "length": 0,
        "surfacetype": 1
      }
    ],
    "id": 31303
  },
  {
    "type": 16,
    "icao": "WA39",
    "lat": 48.60815472,
    "lon": -123.15963139,
    "communications": [],
    "elevation": 0,
    "tower": false,
    "name": "[S] Roche Harbor",
    "runways": [
      {
        "type": 101,
        "width": 304.8,
        "surfaceType": null,
        "numberStart": "05",
        "numberEnd": "23",
        "latStart": 48.60536554,
        "lonStart": -123.1691059,
        "latEnd": 48.6109439,
        "lonEnd": -123.15015688,
        "length": 0
      },
      {
        "type": 101,
        "width": 152.4,
        "surfaceType": null,
        "numberStart": "14",
        "numberEnd": "32",
        "latStart": 48.61128702,
        "lonStart": -123.16174055,
        "latEnd": 48.60502242,
        "lonEnd": -123.15752223,
        "length": 0
      }
    ],
    "id": 31317
  }
]