[
  {
    "type": 17,
    "icao": "44TA",
    "lat": 33.12472222,
    "lon": -96.52194445,
    "communications": [],
    "elevation": 520,
    "tower": false,
    "name": "[H] Aero Crafter Inc",
    "runways": [
      {
        "type": 102,
        "width": 6.1,
        "surfaceType": 3,
        "numberStart": "H1",
        "numberEnd": null,
        "latStart": 33.12472222,
        "lonStart": -96.52194445,
        "latEnd": null,
        "lonEnd": null,
        "length": 6.1
      }
    ],
    "id": 28023
  },
  {
    "type": 17,
    "icao": "35TA",
    "lat": 33.04345444,
    "lon": -96.83722389,
    "communications": [],
    "elevation": 667,
    "tower": false,
    "name": "[H] Childrens Presbyterian Health Ctr of N",
    "runways": [
      {
        "type": 102,
        "width": 12.2,
        "surfaceType": 2,
        "numberStart": "H1",
        "numberEnd": null,
        "latStart": 33.04345444,
        "lonStart": -96.83722389,
        "latEnd": null,
        "lonEnd": null,
        "length": 12.2
      }
    ],
    "id": 28937
  },
  {
    "type": 17,
    "icao": "8TA2",
    "lat": 33.65038361,
    "lon": -96.60943639,
    "communications": [],
    "elevation": 725,
    "tower": false,
    "name": "[H] Department of Public Safety",
    "runways": [
      {
        "type": 102,
        "width": 14.6,
        "surfaceType": 2,
        "numberStart": "H1",
        "numberEnd": null,
        "latStart": 33.65038361,
        "lonStart": -96.60943639,
        "latEnd": null,
        "lonEnd": null,
        "length": 15.2
      }
    ],
    "id": 29324
  },
  {
    "type": 17,
    "icao": "49TS",
    "lat": 33.0723425,
    "lon": -96.80888917,
    "communications": [],
    "elevation": 695,
    "tower": false,
    "name": "[H] E D S",
    "runways": [
      {
        "type": 102,
        "width": 6.1,
        "surfaceType": 2,
        "numberStart": "H1",
        "numberEnd": null,
        "latStart": 33.0723425,
        "lonStart": -96.80888917,
        "latEnd": null,
        "lonEnd": null,
        "length": 6.1
      }
    ],
    "id": 29433
  },
  {
    "type": 17,
    "icao": "6TS5",
    "lat": 33.07355277,
    "lon": -96.81470084,
    "communications": [],
    "elevation": 720,
    "tower": false,
    "name": "[H] Eds Administration Nr 1",
    "runways": [
      {
        "type": 102,
        "width": 9.1,
        "surfaceType": 2,
        "numberStart": "H1",
        "numberEnd": null,
        "latStart": 33.07355277,
        "lonStart": -96.81470084,
        "latEnd": null,
        "lonEnd": null,
        "length": 9.1
      }
    ],
    "id": 29500
  },
  {
    "type": 17,
    "icao": "TX59",
    "lat": 33.07329194,
    "lon": -96.14748834,
    "communications": [],
    "elevation": 720,
    "tower": false,
    "name": "[H] Eds Administration Nr 2",
    "runways": [
      {
        "type": 102,
        "width": 9.1,
        "surfaceType": 2,
        "numberStart": "H1",
        "numberEnd": null,
        "latStart": 33.07329194,
        "lonStart": -96.14748834,
        "latEnd": null,
        "lonEnd": null,
        "length": 9.1
      }
    ],
    "id": 29501
  },
  {
    "type": 17,
    "icao": "1TS4",
    "lat": 33.06845361,
    "lon": -96.80138917,
    "communications": [],
    "elevation": 660,
    "tower": false,
    "name": "[H] Eds Hangar",
    "runways": [
      {
        "type": 102,
        "width": 30.5,
        "surfaceType": 3,
        "numberStart": "H1",
        "numberEnd": null,
        "latStart": 33.06845361,
        "lonStart": -96.80138917,
        "latEnd": null,
        "lonEnd": null,
        "length": 30.5
      }
    ],
    "id": 29502
  },
  {
    "type": 17,
    "icao": "TX84",
    "lat": 33.09055555,
    "lon": -96.56694445,
    "communications": [],
    "elevation": 548,
    "tower": false,
    "name": "[H] Gmf Ranch",
    "runways": [
      {
        "type": 102,
        "width": 30.5,
        "surfaceType": 2,
        "numberStart": "H1",
        "numberEnd": null,
        "latStart": 33.09055555,
        "lonStart": -96.56694445,
        "latEnd": null,
        "lonEnd": null,
        "length": 30.5
      }
    ],
    "id": 29944
  },
  {
    "type": 17,
    "icao": "9TS4",
    "lat": 33.00678666,
    "lon": -96.50693306,
    "communications": [],
    "elevation": 520,
    "tower": false,
    "name": "[H] Ladue Ranch",
    "runways": [
      {
        "type": 102,
        "width": 86.6,
        "surfaceType": 3,
        "numberStart": "H1",
        "numberEnd": null,
        "latStart": 33.00678666,
        "lonStart": -96.50693306,
        "latEnd": null,
        "lonEnd": null,
        "length": 100.3
      }
    ],
    "id": 30803
  },
  {
    "type": 17,
    "icao": "6TS9",
    "lat": 33.02373222,
    "lon": -96.76694389,
    "communications": [],
    "elevation": 700,
    "tower": false,
    "name": "[H] MCP",
    "runways": [
      {
        "type": 102,
        "width": 9.1,
        "surfaceType": 2,
        "numberStart": "H1",
        "numberEnd": null,
        "latStart": 33.02373222,
        "lonStart": -96.76694389,
        "latEnd": null,
        "lonEnd": null,
        "length": 9.1
      }
    ],
    "id": 31002
  },
  {
    "type": 17,
    "icao": "1TA6",
    "lat": 33.70093888,
    "lon": -96.91361667,
    "communications": [],
    "elevation": 735,
    "tower": false,
    "name": "[H] Morningstar Ranch",
    "runways": [
      {
        "type": 102,
        "width": 3,
        "surfaceType": 2,
        "numberStart": "H1",
        "numberEnd": null,
        "latStart": 33.70093888,
        "lonStart": -96.91361667,
        "latEnd": null,
        "lonEnd": null,
        "length": 3
      }
    ],
    "id": 31448
  },
  {
    "type": 17,
    "icao": "07TX",
    "lat": 33.18400472,
    "lon": -96.44804056,
    "communications": [],
    "elevation": 660,
    "tower": false,
    "name": "[H] Pecks",
    "runways": [
      {
        "type": 102,
        "width": 15.2,
        "surfaceType": 3,
        "numberStart": "H1",
        "numberEnd": null,
        "latStart": 33.18400472,
        "lonStart": -96.44804056,
        "latEnd": null,
        "lonEnd": null,
        "length": 121.9
      }
    ],
    "id": 31948
  },
  {
    "type": 17,
    "icao": "TE20",
    "lat": 33.02261972,
    "lon": -96.53693417,
    "communications": [],
    "elevation": 548,
    "tower": false,
    "name": "[H] Putman",
    "runways": [
      {
        "type": 102,
        "width": 30.5,
        "surfaceType": 3,
        "numberStart": "H1",
        "numberEnd": null,
        "latStart": 33.02261972,
        "lonStart": -96.53693417,
        "latEnd": null,
        "lonEnd": null,
        "length": 30.5
      },
      {
        "type": 102,
        "width": 30.5,
        "surfaceType": 3,
        "numberStart": "H2",
        "numberEnd": null,
        "latStart": 33.02261972,
        "lonStart": -96.53693417,
        "latEnd": null,
        "lonEnd": null,
        "length": 30.5
      }
    ],
    "id": 32192
  },
  {
    "type": 17,
    "icao": "TS84",
    "lat": 33.76625,
    "lon": -96.55011112,
    "communications": [],
    "elevation": 765,
    "tower": false,
    "name": "[H] Texoma Medical Center",
    "runways": [
      {
        "type": 102,
        "width": 15.2,
        "surfaceType": 2,
        "numberStart": "H1",
        "numberEnd": null,
        "latStart": 33.76625,
        "lonStart": -96.55011112,
        "latEnd": null,
        "lonEnd": null,
        "length": 15.2
      }
    ],
    "id": 33273
  },
  {
    "type": 17,
    "icao": "27TS",
    "lat": 33.01817527,
    "lon": -96.50693306,
    "communications": [],
    "elevation": 523,
    "tower": false,
    "name": "[H] Walden Ranch",
    "runways": [
      {
        "type": 102,
        "width": 9.1,
        "surfaceType": 2,
        "numberStart": "H1",
        "numberEnd": null,
        "latStart": 33.01817527,
        "lonStart": -96.50693306,
        "latEnd": null,
        "lonEnd": null,
        "length": 15.2
      }
    ],
    "id": 33703
  },
  {
    "type": 17,
    "icao": "51TS",
    "lat": 33.63760611,
    "lon": -96.62415862,
    "communications": [],
    "elevation": 788,
    "tower": false,
    "name": "[H] Wilson N Jones Memorial Hospital",
    "runways": [
      {
        "type": 102,
        "width": 9.1,
        "surfaceType": 2,
        "numberStart": "H1",
        "numberEnd": null,
        "latStart": 33.63760611,
        "lonStart": -96.62415862,
        "latEnd": null,
        "lonEnd": null,
        "length": 9.1
      }
    ],
    "id": 33870
  }
]