[
  {
    "type": 1,
    "icao": "YDMR",
    "lat": -15.623707555,
    "lon": 131.64862802,
    "communications": [
      {
        "type": 51,
        "frequency": 12670,
        "name": "CTAF"
      }
    ],
    "elevation": 732,
    "tower": false,
    "name": "Delamere Station",
    "runways": [
      {
        "type": 100,
        "width": 36.88,
        "surfaceType": null,
        "numberStart": "08",
        "numberEnd": "26",
        "latStart": -15.62159911,
        "lonStart": 131.64089804,
        "latEnd": -15.625816,
        "lonEnd": 131.656358,
        "length": 0,
        "surfacetype": 4
      }
    ],
    "id": 33153
  },
  {
    "type": 1,
    "icao": "YDWF",
    "lat": -15.746747355,
    "lon": 131.918119375,
    "communications": [
      {
        "type": 54,
        "frequency": 11970,
        "name": "Tindal TWR"
      }
    ],
    "elevation": 730,
    "tower": true,
    "name": "Delamere Range Facility",
    "runways": [
      {
        "type": 100,
        "width": 29.87,
        "surfaceType": null,
        "numberStart": "09",
        "numberEnd": "27",
        "latStart": -15.74680371,
        "lonStart": 131.91252775,
        "latEnd": -15.746691,
        "lonEnd": 131.923711,
        "length": 0,
        "surfacetype": 4
      }
    ],
    "id": 33188
  },
  {
    "type": 1,
    "icao": "YISV",
    "lat": -15.380030569999999,
    "lon": 131.27222054499998,
    "communications": [],
    "elevation": 741,
    "tower": false,
    "name": "INNESVALE",
    "runways": [
      {
        "type": 100,
        "width": 49.99,
        "surfaceType": null,
        "numberStart": "10",
        "numberEnd": "28",
        "latStart": -15.37846514,
        "lonStart": 131.26672309,
        "latEnd": -15.381596,
        "lonEnd": 131.277718,
        "length": 0,
        "surfacetype": 4
      }
    ],
    "id": 33504
  },
  {
    "type": 1,
    "icao": "YWLO",
    "lat": -15.29230388,
    "lon": 131.579458235,
    "communications": [],
    "elevation": 558,
    "tower": false,
    "name": "WILLEROO",
    "runways": [
      {
        "type": 100,
        "width": 49.99,
        "surfaceType": null,
        "numberStart": "17",
        "numberEnd": "35",
        "latStart": -15.28608376,
        "lonStart": 131.57944147,
        "latEnd": -15.298524,
        "lonEnd": 131.579475,
        "length": 0,
        "surfacetype": 4
      }
    ],
    "id": 34745
  }
]