[
  {
    "type": 1,
    "icao": "WADD",
    "lat": -8.748292753333333,
    "lon": 94.51505569,
    "communications": [
      {
        "type": 50,
        "frequency": 12620,
        "name": "ATIS"
      },
      {
        "type": 53,
        "frequency": 11890,
        "name": "NGURAH GND"
      },
      {
        "type": 54,
        "frequency": 11810,
        "name": "NGURAH TWR"
      },
      {
        "type": 54,
        "frequency": 11850,
        "name": "NGURAH TWR"
      },
      {
        "type": 55,
        "frequency": 11930,
        "name": "DIRECTOR"
      },
      {
        "type": 55,
        "frequency": 11970,
        "name": "DIRECTOR"
      }
    ],
    "elevation": 14,
    "tower": true,
    "name": "Denpasar Ngurah Rai International",
    "runways": [
      {
        "type": 100,
        "width": 45.11,
        "surfaceType": null,
        "numberStart": "09",
        "numberEnd": "27",
        "latStart": -8.74894034,
        "lonStart": 115.15347202,
        "latEnd": -8.74786734,
        "lonEnd": 115.18056302,
        "length": 0,
        "surfacetype": 1
      },
      {
        "type": 102,
        "width": 9.1,
        "surfaceType": 15,
        "numberStart": "H1",
        "numberEnd": null,
        "latStart": -8.74565763,
        "lonStart": 115.1767448,
        "latEnd": null,
        "lonEnd": null,
        "length": 9.1
      },
      {
        "type": 102,
        "width": 9.1,
        "surfaceType": 15,
        "numberStart": "H2",
        "numberEnd": null,
        "latStart": -8.74581706,
        "lonStart": 115.17674766,
        "latEnd": null,
        "lonEnd": null,
        "length": 9.1
      },
      {
        "type": 102,
        "width": 9.1,
        "surfaceType": 2,
        "numberStart": "H3",
        "numberEnd": null,
        "latStart": -8.75063958,
        "lonStart": 115.16561519,
        "latEnd": null,
        "lonEnd": null,
        "length": 9.1
      },
      {
        "type": 102,
        "width": 9.1,
        "surfaceType": 2,
        "numberStart": "H4",
        "numberEnd": null,
        "latStart": -8.75083457,
        "lonStart": 115.16562181,
        "latEnd": null,
        "lonEnd": null,
        "length": 9.1
      }
    ],
    "id": 6187
  }
]