[
  {
    "type": 1,
    "icao": "XBAD",
    "lat": 51.548667429999995,
    "lon": 24.619408144999998,
    "communications": [],
    "elevation": 495,
    "tower": false,
    "name": "Badminton",
    "runways": [
      {
        "type": 100,
        "width": 27.13,
        "surfaceType": null,
        "numberStart": "07",
        "numberEnd": "25",
        "latStart": 51.54672307,
        "lonStart": -2.3117955,
        "latEnd": 51.55061179,
        "lonEnd": -2.29348033,
        "length": 0,
        "surfacetype": 3
      }
    ],
    "id": 2057
  },
  {
    "type": 1,
    "icao": "EGDM",
    "lat": 51.15323089500001,
    "lon": 24.700288251666667,
    "communications": [
      {
        "type": 53,
        "frequency": 13075,
        "name": "Boscombe Ground"
      },
      {
        "type": 54,
        "frequency": 13075,
        "name": "Boscombe Tower"
      },
      {
        "type": 55,
        "frequency": 12670,
        "name": "Boscombe Zone"
      },
      {
        "type": 55,
        "frequency": 13000,
        "name": "Boscombe Approach"
      }
    ],
    "elevation": 407,
    "tower": true,
    "name": "Boscombe Down",
    "runways": [
      {
        "type": 100,
        "width": 45.11,
        "surfaceType": null,
        "numberStart": "05",
        "numberEnd": "23",
        "latStart": 51.14413916,
        "lonStart": -1.7685516,
        "latEnd": 51.16230565,
        "lonEnd": -1.73392816,
        "length": 0,
        "surfacetype": 1
      },
      {
        "type": 100,
        "width": 11.89,
        "surfaceType": null,
        "numberStart": "05L",
        "numberEnd": "23R",
        "latStart": 51.15075532,
        "lonStart": -1.758936,
        "latEnd": 51.15536805,
        "lonEnd": -1.75012095,
        "length": 0,
        "surfacetype": 1
      },
      {
        "type": 100,
        "width": 45.11,
        "surfaceType": null,
        "numberStart": "17",
        "numberEnd": "35",
        "latStart": 51.16159737,
        "lonStart": -1.73367641,
        "latEnd": 51.14521982,
        "lonEnd": -1.72745353,
        "length": 0,
        "surfacetype": 1
      }
    ],
    "id": 3030
  },
  {
    "type": 1,
    "icao": "EGTG",
    "lat": 51.5194266,
    "lon": 24.455777310000002,
    "communications": [
      {
        "type": 54,
        "frequency": 13235,
        "name": "Filton Tower"
      },
      {
        "type": 55,
        "frequency": 12272,
        "name": "Filton Approach"
      },
      {
        "type": 55,
        "frequency": 12795,
        "name": "Filton Director"
      }
    ],
    "elevation": 225,
    "tower": true,
    "name": "Bristol Filton",
    "runways": [
      {
        "type": 100,
        "width": 91.14,
        "surfaceType": null,
        "numberStart": "09",
        "numberEnd": "27",
        "latStart": 51.51937087,
        "lonStart": -2.60792771,
        "latEnd": 51.51948233,
        "lonEnd": -2.57279867,
        "length": 0,
        "surfacetype": 2
      }
    ],
    "id": 3213
  },
  {
    "type": 1,
    "icao": "EGGD",
    "lat": 51.38265771499999,
    "lon": 24.32486233,
    "communications": [
      {
        "type": 50,
        "frequency": 12602,
        "name": "EGGD ATIS"
      },
      {
        "type": 54,
        "frequency": 13385,
        "name": "BRISTOL TWR"
      },
      {
        "type": 55,
        "frequency": 12855,
        "name": "BRISTOL APP"
      },
      {
        "type": 55,
        "frequency": 13607,
        "name": "BRISTOL APP"
      }
    ],
    "elevation": 622,
    "tower": true,
    "name": "Bristol International",
    "runways": [
      {
        "type": 100,
        "width": 45.11,
        "surfaceType": null,
        "numberStart": "09",
        "numberEnd": "27",
        "latStart": 51.38209016,
        "lonStart": -2.73350061,
        "latEnd": 51.38322527,
        "lonEnd": -2.70433477,
        "length": 0,
        "surfacetype": 1
      }
    ],
    "id": 3214
  },
  {
    "type": 1,
    "icao": "EGFF",
    "lat": 51.396564749999996,
    "lon": 24.01658676,
    "communications": [
      {
        "type": 50,
        "frequency": 13247,
        "name": "Cardiff Information"
      },
      {
        "type": 53,
        "frequency": 12585,
        "name": "Cardiff Radar"
      },
      {
        "type": 54,
        "frequency": 13310,
        "name": "Cardiff Tower"
      },
      {
        "type": 55,
        "frequency": 11915,
        "name": "Cardiff Approach"
      }
    ],
    "elevation": 220,
    "tower": true,
    "name": "Cardiff",
    "runways": [
      {
        "type": 100,
        "width": 39.93,
        "surfaceType": null,
        "numberStart": "12",
        "numberEnd": "30",
        "latStart": 51.40140811,
        "lonStart": -3.35854787,
        "latEnd": 51.39172139,
        "lonEnd": -3.32785582,
        "length": 0,
        "surfacetype": 1
      }
    ],
    "id": 4536
  },
  {
    "type": 1,
    "icao": "EG18",
    "lat": 51.136713575,
    "lon": 24.858046895,
    "communications": [],
    "elevation": 291,
    "tower": false,
    "name": "Chilbolton",
    "runways": [
      {
        "type": 100,
        "width": 17.98,
        "surfaceType": null,
        "numberStart": "06",
        "numberEnd": "24",
        "latStart": 51.1353444,
        "lonStart": -1.42198896,
        "latEnd": 51.13808275,
        "lonEnd": -1.41643256,
        "length": 0,
        "surfacetype": 3
      }
    ],
    "id": 4913
  },
  {
    "type": 1,
    "icao": "EG20",
    "lat": 51.390130847500004,
    "lon": 24.8270962175,
    "communications": [],
    "elevation": 623,
    "tower": false,
    "name": "Clench Common",
    "runways": [
      {
        "type": 100,
        "width": 17.98,
        "surfaceType": null,
        "numberStart": "05",
        "numberEnd": "23",
        "latStart": 51.38936795,
        "lonStart": -1.73659415,
        "latEnd": 51.39116054,
        "lonEnd": -1.73050191,
        "length": 0,
        "surfacetype": 3
      },
      {
        "type": 100,
        "width": 17.98,
        "surfaceType": null,
        "numberStart": "14",
        "numberEnd": "32",
        "latStart": 51.3915003,
        "lonStart": -1.73467612,
        "latEnd": 51.3884946,
        "lonEnd": -1.73159445,
        "length": 0,
        "surfacetype": 3
      }
    ],
    "id": 5081
  },
  {
    "type": 1,
    "icao": "EG21",
    "lat": 51.341407265,
    "lon": 24.407764065000002,
    "communications": [],
    "elevation": 600,
    "tower": false,
    "name": "Clutton Hill Farm",
    "runways": [
      {
        "type": 100,
        "width": 25.91,
        "surfaceType": null,
        "numberStart": "07",
        "numberEnd": "25",
        "latStart": 51.34043543,
        "lonStart": -2.52685097,
        "latEnd": 51.3423791,
        "lonEnd": -2.52043468,
        "length": 0,
        "surfacetype": 3
      }
    ],
    "id": 5124
  },
  {
    "type": 1,
    "icao": "EDDL",
    "lat": 51.287268034,
    "lon": 24.570467238,
    "communications": [
      {
        "type": 50,
        "frequency": 12377,
        "name": "Duesseldorf ATIS"
      },
      {
        "type": 52,
        "frequency": 12177,
        "name": "Duesseldorf delivery"
      },
      {
        "type": 53,
        "frequency": 12190,
        "name": "Duesseldorf ground"
      },
      {
        "type": 54,
        "frequency": 11830,
        "name": "Duesseldorf tower"
      },
      {
        "type": 55,
        "frequency": 11940,
        "name": "Duesseldorf director"
      }
    ],
    "elevation": 145,
    "tower": true,
    "name": "Duesseldorf Intl",
    "runways": [
      {
        "type": 100,
        "width": 45.11,
        "surfaceType": null,
        "numberStart": "05R",
        "numberEnd": "23L",
        "latStart": 51.27962131,
        "lonStart": 6.7520365,
        "latEnd": 51.29592631,
        "lonEnd": 6.7862545,
        "length": 0,
        "surfacetype": 2
      },
      {
        "type": 100,
        "width": 45.11,
        "surfaceType": null,
        "numberStart": "05L",
        "numberEnd": "23R",
        "latStart": 51.28367031,
        "lonStart": 6.7486745,
        "latEnd": 51.29838131,
        "lonEnd": 6.7795555,
        "length": 0,
        "surfacetype": 2
      },
      {
        "type": 102,
        "width": 42.4,
        "surfaceType": 15,
        "numberStart": "H7",
        "numberEnd": null,
        "latStart": 51.27874093,
        "lonStart": 6.75731757,
        "latEnd": null,
        "lonEnd": null,
        "length": 44.9
      }
    ],
    "id": 6529
  },
  {
    "type": 1,
    "icao": "EDLE",
    "lat": 51.402811678,
    "lon": 24.722940496,
    "communications": [
      {
        "type": 54,
        "frequency": 11975,
        "name": "Essen Muelheim Info"
      }
    ],
    "elevation": 423,
    "tower": true,
    "name": "Essen-Muelheim",
    "runways": [
      {
        "type": 100,
        "width": 45.11,
        "surfaceType": null,
        "numberStart": "07",
        "numberEnd": "25",
        "latStart": 51.40016,
        "lonStart": 6.928696,
        "latEnd": 51.40582,
        "lonEnd": 6.949541,
        "length": 0,
        "surfacetype": 1
      },
      {
        "type": 100,
        "width": 30,
        "surfaceType": null,
        "numberStart": "06",
        "numberEnd": "24",
        "latStart": 51.39980957,
        "lonStart": 6.93665132,
        "latEnd": 51.40272401,
        "lonEnd": 6.94812758,
        "length": 0,
        "surfacetype": 3
      },
      {
        "type": 102,
        "width": 12.1,
        "surfaceType": 15,
        "numberStart": "H2",
        "numberEnd": null,
        "latStart": 51.40554481,
        "lonStart": 6.94081115,
        "latEnd": null,
        "lonEnd": null,
        "length": 14
      }
    ],
    "id": 7281
  },
  {
    "type": 1,
    "icao": "EG43",
    "lat": 51.460559724999996,
    "lon": 24.57697822,
    "communications": [],
    "elevation": 600,
    "tower": false,
    "name": "Garston Farm",
    "runways": [
      {
        "type": 100,
        "width": 17.98,
        "surfaceType": null,
        "numberStart": "09",
        "numberEnd": "27",
        "latStart": 51.4599437,
        "lonStart": -2.30721931,
        "latEnd": 51.46117575,
        "lonEnd": -2.29574658,
        "length": 0,
        "surfacetype": 3
      }
    ],
    "id": 10332
  },
  {
    "type": 1,
    "icao": "EGBJ",
    "lat": 51.892883205,
    "lon": 24.86215132625,
    "communications": [
      {
        "type": 50,
        "frequency": 12747,
        "name": "ATIS"
      },
      {
        "type": 54,
        "frequency": 12290,
        "name": "Gloucester TWR"
      },
      {
        "type": 55,
        "frequency": 12097,
        "name": "RADAR"
      },
      {
        "type": 55,
        "frequency": 12855,
        "name": "Gloucester APP"
      }
    ],
    "elevation": 101,
    "tower": true,
    "name": "Gloucester",
    "runways": [
      {
        "type": 100,
        "width": 36.88,
        "surfaceType": null,
        "numberStart": "09",
        "numberEnd": "27",
        "latStart": 51.89341911,
        "lonStart": -2.17733823,
        "latEnd": 51.89480617,
        "lonEnd": -2.15687707,
        "length": 0,
        "surfacetype": 1
      },
      {
        "type": 100,
        "width": 34.14,
        "surfaceType": null,
        "numberStart": "04",
        "numberEnd": "22",
        "latStart": 51.88860596,
        "lonStart": -2.16813373,
        "latEnd": 51.8958674,
        "lonEnd": -2.16003037,
        "length": 0,
        "surfacetype": 1
      },
      {
        "type": 100,
        "width": 17.98,
        "surfaceType": null,
        "numberStart": "18",
        "numberEnd": "36",
        "latStart": 51.896775,
        "lonStart": -2.166272,
        "latEnd": 51.889636,
        "lonEnd": -2.165042,
        "length": 0,
        "surfacetype": 1
      },
      {
        "type": 100,
        "width": 18.9,
        "surfaceType": null,
        "numberStart": "04R",
        "numberEnd": "22L",
        "latStart": 51.890853,
        "lonStart": -2.164458,
        "latEnd": 51.893103,
        "lonEnd": -2.161933,
        "length": 0,
        "surfacetype": 3
      }
    ],
    "id": 10544
  },
  {
    "type": 1,
    "icao": "EDLF",
    "lat": 51.334021572,
    "lon": 24.348255444,
    "communications": [
      {
        "type": 54,
        "frequency": 12362,
        "name": "Grefrath Info"
      }
    ],
    "elevation": 104,
    "tower": true,
    "name": "Grefrath-Niershorst",
    "runways": [
      {
        "type": 100,
        "width": 40,
        "surfaceType": null,
        "numberStart": "07",
        "numberEnd": "25",
        "latStart": 51.332723,
        "lonStart": 6.35514637,
        "latEnd": 51.335377,
        "lonEnd": 6.36447191,
        "length": 0,
        "surfacetype": 3
      },
      {
        "type": 100,
        "width": 30,
        "surfaceType": null,
        "numberStart": "06",
        "numberEnd": "24",
        "latStart": 51.33229891,
        "lonStart": 6.35613253,
        "latEnd": 51.33454717,
        "lonEnd": 6.36405219,
        "length": 0,
        "surfacetype": 3
      },
      {
        "type": 102,
        "width": 16.8,
        "surfaceType": 15,
        "numberStart": "H37",
        "numberEnd": null,
        "latStart": 51.33516178,
        "lonStart": 6.36007415,
        "latEnd": null,
        "lonEnd": null,
        "length": 17.1
      }
    ],
    "id": 10784
  },
  {
    "type": 1,
    "icao": "EGDV",
    "lat": 51.52864474,
    "lon": 24.6915408225,
    "communications": [],
    "elevation": 328,
    "tower": true,
    "name": "Hullavington",
    "runways": [
      {
        "type": 100,
        "width": 42.06,
        "surfaceType": null,
        "numberStart": "05",
        "numberEnd": "23",
        "latStart": 51.52583148,
        "lonStart": -2.14302566,
        "latEnd": 51.5333,
        "lonEnd": -2.13167301,
        "length": 0,
        "surfacetype": 1
      },
      {
        "type": 100,
        "width": 43.89,
        "surfaceType": null,
        "numberStart": "14",
        "numberEnd": "32",
        "latStart": 51.53053148,
        "lonStart": -2.14902705,
        "latEnd": 51.524916,
        "lonEnd": -2.13769899,
        "length": 0,
        "surfacetype": 1
      }
    ],
    "id": 12179
  },
  {
    "type": 1,
    "icao": "EGBP",
    "lat": 51.6684904975,
    "lon": 24.8025265275,
    "communications": [
      {
        "type": 54,
        "frequency": 11890,
        "name": "INFO"
      }
    ],
    "elevation": 433,
    "tower": true,
    "name": "Kemble",
    "runways": [
      {
        "type": 100,
        "width": 45.11,
        "surfaceType": null,
        "numberStart": "08",
        "numberEnd": "26",
        "latStart": 51.666582,
        "lonStart": -2.071081,
        "latEnd": 51.669594,
        "lonEnd": -2.042431,
        "length": 0,
        "surfacetype": 1
      },
      {
        "type": 100,
        "width": 18.9,
        "surfaceType": null,
        "numberStart": "08R",
        "numberEnd": "26L",
        "latStart": 51.66856371,
        "lonStart": -2.05762917,
        "latEnd": 51.66922228,
        "lonEnd": -2.05102413,
        "length": 0,
        "surfacetype": 3
      }
    ],
    "id": 13733
  },
  {
    "type": 1,
    "icao": "EGDN",
    "lat": 51.24669924666666,
    "lon": 24.742514914999997,
    "communications": [],
    "elevation": 455,
    "tower": false,
    "name": "Netheravon",
    "runways": [
      {
        "type": 100,
        "width": 11.89,
        "surfaceType": null,
        "numberStart": "11",
        "numberEnd": "29",
        "latStart": 51.24978141,
        "lonStart": -1.76292814,
        "latEnd": 51.24647118,
        "lonEnd": -1.74722888,
        "length": 0,
        "surfacetype": 3
      },
      {
        "type": 100,
        "width": 11.89,
        "surfaceType": null,
        "numberStart": "04",
        "numberEnd": "22",
        "latStart": 51.24667883,
        "lonStart": -1.75677094,
        "latEnd": 51.25133414,
        "lonEnd": -1.75046486,
        "length": 0,
        "surfacetype": 3
      },
      {
        "type": 100,
        "width": 10.06,
        "surfaceType": null,
        "numberStart": "05",
        "numberEnd": "23",
        "latStart": 51.240814,
        "lonStart": -1.76813267,
        "latEnd": 51.24511592,
        "lonEnd": -1.75804985,
        "length": 0,
        "surfacetype": 3
      }
    ],
    "id": 18214
  },
  {
    "type": 1,
    "icao": "EDUO",
    "lat": 51.5431495,
    "lon": 24.909718780000002,
    "communications": [
      {
        "type": 51,
        "frequency": 12230,
        "name": "START"
      }
    ],
    "elevation": 738,
    "tower": false,
    "name": "OBERRISSDORF",
    "runways": [
      {
        "type": 100,
        "width": 24.99,
        "surfaceType": null,
        "numberStart": "14",
        "numberEnd": "32",
        "latStart": 51.54536007,
        "lonStart": 11.59170191,
        "latEnd": 51.54158843,
        "lonEnd": 11.59791642,
        "length": 0,
        "surfacetype": 3
      },
      {
        "type": 102,
        "width": 24.99,
        "surfaceType": 2,
        "numberStart": "H1",
        "numberEnd": null,
        "latStart": 51.5425,
        "lonStart": 11.595866,
        "latEnd": null,
        "lonEnd": null,
        "length": 24.99
      }
    ],
    "id": 18598
  },
  {
    "type": 1,
    "icao": "EGTW",
    "lat": 51.63194561,
    "lon": 24.809736895,
    "communications": [],
    "elevation": 250,
    "tower": false,
    "name": "Oaksey Park",
    "runways": [
      {
        "type": 100,
        "width": 24.08,
        "surfaceType": null,
        "numberStart": "04",
        "numberEnd": "22",
        "latStart": 51.63537045,
        "lonStart": -2.00904698,
        "latEnd": 51.62852077,
        "lonEnd": -2.01765945,
        "length": 0,
        "surfacetype": 3
      }
    ],
    "id": 18783
  },
  {
    "type": 1,
    "icao": "EGLS",
    "lat": 51.098936475,
    "lon": 24.656212025000002,
    "communications": [
      {
        "type": 54,
        "frequency": 12320,
        "name": "Old Sarum Radio"
      }
    ],
    "elevation": 285,
    "tower": true,
    "name": "Old Sarum",
    "runways": [
      {
        "type": 100,
        "width": 49.99,
        "surfaceType": null,
        "numberStart": "06",
        "numberEnd": "24",
        "latStart": 51.09690109,
        "lonStart": -1.78854781,
        "latEnd": 51.10097186,
        "lonEnd": -1.77942977,
        "length": 0,
        "surfacetype": 3
      }
    ],
    "id": 18903
  },
  {
    "type": 1,
    "icao": "EGHP",
    "lat": 51.195332865,
    "lon": 24.979903935000003,
    "communications": [],
    "elevation": 550,
    "tower": false,
    "name": "Popham",
    "runways": [
      {
        "type": 100,
        "width": 17.98,
        "surfaceType": null,
        "numberStart": "08",
        "numberEnd": "26",
        "latStart": 51.19241047,
        "lonStart": -1.24198625,
        "latEnd": 51.19368499,
        "lonEnd": -1.23423395,
        "length": 0,
        "surfacetype": 3
      },
      {
        "type": 100,
        "width": 22.86,
        "surfaceType": null,
        "numberStart": "03",
        "numberEnd": "21",
        "latStart": 51.194382,
        "lonStart": -1.232937,
        "latEnd": 51.200854,
        "lonEnd": -1.226948,
        "length": 0,
        "surfacetype": 3
      }
    ],
    "id": 20363
  },
  {
    "type": 1,
    "icao": "EGUO",
    "lat": 51.4416698475,
    "lon": 24.578385375000003,
    "communications": [
      {
        "type": 54,
        "frequency": 12007,
        "name": "Colerne Tower"
      },
      {
        "type": 55,
        "frequency": 12007,
        "name": "Colerne Approach"
      }
    ],
    "elevation": 593,
    "tower": true,
    "name": "RAF Colerne",
    "runways": [
      {
        "type": 100,
        "width": 46.02,
        "surfaceType": null,
        "numberStart": "07",
        "numberEnd": "25",
        "latStart": 51.43762146,
        "lonStart": -2.29104532,
        "latEnd": 51.44439648,
        "lonEnd": -2.26774325,
        "length": 0,
        "surfacetype": 1
      },
      {
        "type": 100,
        "width": 43.89,
        "surfaceType": null,
        "numberStart": "01",
        "numberEnd": "19",
        "latStart": 51.43737738,
        "lonStart": -2.28709373,
        "latEnd": 51.44728407,
        "lonEnd": -2.28569147,
        "length": 0,
        "surfacetype": 1
      }
    ],
    "id": 20764
  },
  {
    "type": 1,
    "icao": "EGVA",
    "lat": 51.683499999999995,
    "lon": 24.93600009,
    "communications": [
      {
        "type": 54,
        "frequency": 11915,
        "name": "Fairford Tower"
      },
      {
        "type": 55,
        "frequency": 13375,
        "name": "Brize Director"
      },
      {
        "type": 55,
        "frequency": 11900,
        "name": "Brize Radar"
      },
      {
        "type": 55,
        "frequency": 12210,
        "name": "Brize Radar"
      },
      {
        "type": 55,
        "frequency": 12725,
        "name": "Brize Radar"
      }
    ],
    "elevation": 286,
    "tower": true,
    "name": "RAF Fairford",
    "runways": [
      {
        "type": 100,
        "width": 60.96,
        "surfaceType": null,
        "numberStart": "09",
        "numberEnd": "27",
        "latStart": 51.68299983,
        "lonStart": -1.81199999,
        "latEnd": 51.68400017,
        "lonEnd": -1.76799904,
        "length": 0,
        "surfacetype": 1
      }
    ],
    "id": 20771
  },
  {
    "type": 1,
    "icao": "EGDL",
    "lat": 51.5053925,
    "lon": 24.75175717,
    "communications": [
      {
        "type": 53,
        "frequency": 12947,
        "name": "GND"
      },
      {
        "type": 54,
        "frequency": 11922,
        "name": "TWR"
      },
      {
        "type": 55,
        "frequency": 11842,
        "name": "APP"
      },
      {
        "type": 55,
        "frequency": 13515,
        "name": "CAC"
      }
    ],
    "elevation": 513,
    "tower": true,
    "name": "RAF Lyneham",
    "runways": [
      {
        "type": 100,
        "width": 46.02,
        "surfaceType": null,
        "numberStart": "06",
        "numberEnd": "24",
        "latStart": 51.50218246,
        "lonStart": -2.01095615,
        "latEnd": 51.51283154,
        "lonEnd": -1.98114187,
        "length": 0,
        "surfacetype": 1
      },
      {
        "type": 100,
        "width": 46.02,
        "surfaceType": null,
        "numberStart": "18",
        "numberEnd": "36",
        "latStart": 51.51145314,
        "lonStart": -1.98994957,
        "latEnd": 51.49510286,
        "lonEnd": -1.98762843,
        "length": 0,
        "surfacetype": 1
      }
    ],
    "id": 20782
  },
  {
    "type": 1,
    "icao": "EGDY",
    "lat": 51.008601445000004,
    "lon": 24.1794561375,
    "communications": [
      {
        "type": 54,
        "frequency": 12210,
        "name": "TWR"
      },
      {
        "type": 55,
        "frequency": 12735,
        "name": "RADAR"
      }
    ],
    "elevation": 75,
    "tower": true,
    "name": "RNAS Yeovilton",
    "runways": [
      {
        "type": 100,
        "width": 46.02,
        "surfaceType": null,
        "numberStart": "09",
        "numberEnd": "27",
        "latStart": 51.00703231,
        "lonStart": -2.66172162,
        "latEnd": 51.00953809,
        "lonEnd": -2.62899867,
        "length": 0,
        "surfacetype": 2
      },
      {
        "type": 100,
        "width": 46.02,
        "surfaceType": null,
        "numberStart": "04",
        "numberEnd": "22",
        "latStart": 51.00365113,
        "lonStart": -2.64417617,
        "latEnd": 51.01418425,
        "lonEnd": -2.63158022,
        "length": 0,
        "surfacetype": 2
      }
    ],
    "id": 20977
  },
  {
    "type": 1,
    "icao": "EDBS",
    "lat": 51.19821297000001,
    "lon": 24.52722607,
    "communications": [
      {
        "type": 54,
        "frequency": 12400,
        "name": "SC6mmerda Info"
      }
    ],
    "elevation": 451,
    "tower": true,
    "name": "SC6mmerda-Dermsdorf",
    "runways": [
      {
        "type": 100,
        "width": 40,
        "surfaceType": null,
        "numberStart": "07",
        "numberEnd": "25",
        "latStart": 51.19706058,
        "lonStart": 11.18543486,
        "latEnd": 51.19971617,
        "lonEnd": 11.19802429,
        "length": 0,
        "surfacetype": 3
      },
      {
        "type": 102,
        "width": 28,
        "surfaceType": 3,
        "numberStart": "H1",
        "numberEnd": null,
        "latStart": 51.19786216,
        "lonStart": 11.19652718,
        "latEnd": null,
        "lonEnd": null,
        "length": 28
      }
    ],
    "id": 24512
  },
  {
    "type": 1,
    "icao": "EGHO",
    "lat": 51.210558715,
    "lon": 24.8032352325,
    "communications": [
      {
        "type": 54,
        "frequency": 13045,
        "name": "Thruxton Radio"
      }
    ],
    "elevation": 330,
    "tower": true,
    "name": "Thruxton",
    "runways": [
      {
        "type": 100,
        "width": 22.86,
        "surfaceType": null,
        "numberStart": "07",
        "numberEnd": "25",
        "latStart": 51.20925334,
        "lonStart": -1.60429059,
        "latEnd": 51.21267552,
        "lonEnd": -1.59149658,
        "length": 0,
        "surfacetype": 1
      },
      {
        "type": 100,
        "width": 31.09,
        "surfaceType": null,
        "numberStart": "13",
        "numberEnd": "31",
        "latStart": 51.212003,
        "lonStart": -1.603747,
        "latEnd": 51.208303,
        "lonEnd": -1.594622,
        "length": 0,
        "surfacetype": 3
      }
    ],
    "id": 25327
  },
  {
    "type": 1,
    "icao": "EGDJ",
    "lat": 51.286761165,
    "lon": 24.75137499,
    "communications": [],
    "elevation": 544,
    "tower": false,
    "name": "Upavon",
    "runways": [
      {
        "type": 100,
        "width": 17.98,
        "surfaceType": null,
        "numberStart": "4",
        "numberEnd": "22",
        "latStart": 51.28401339,
        "lonStart": -1.78675896,
        "latEnd": 51.28950894,
        "lonEnd": -1.77705343,
        "length": 0,
        "surfacetype": 3
      }
    ],
    "id": 25955
  },
  {
    "type": 17,
    "icao": "EGFC",
    "lat": 51.467494475,
    "lon": 24.165249120000002,
    "communications": [],
    "elevation": 24,
    "tower": false,
    "name": "[H] Cardiff Tremorfa Heliport [H]",
    "runways": [
      {
        "type": 100,
        "width": 39.93,
        "surfaceType": null,
        "numberStart": "02",
        "numberEnd": "20",
        "latStart": 51.46622826,
        "lonStart": -3.13826245,
        "latEnd": 51.46876069,
        "lonEnd": -3.13689372,
        "length": 0,
        "surfacetype": 3
      }
    ],
    "id": 28781
  },
  {
    "type": 17,
    "icao": "EGBC",
    "lat": 51.92560442,
    "lon": 24.934624435,
    "communications": [],
    "elevation": 194,
    "tower": false,
    "name": "[H] Cheltenham Racecourse [H]",
    "runways": [
      {
        "type": 100,
        "width": 29.87,
        "surfaceType": null,
        "numberStart": "14",
        "numberEnd": "32",
        "latStart": 51.92629692,
        "lonStart": -2.05566305,
        "latEnd": 51.92491192,
        "lonEnd": -2.05316705,
        "length": 0,
        "surfacetype": 3
      }
    ],
    "id": 28901
  }
]