[
  {
    "type": 17,
    "icao": "3CA0",
    "lat": 35.70412194,
    "lon": -119.37650334,
    "communications": [],
    "elevation": 262,
    "tower": false,
    "name": "[H] Burroughs",
    "runways": [
      {
        "type": 102,
        "width": 6.1,
        "surfaceType": 2,
        "numberStart": "H1",
        "numberEnd": null,
        "latStart": 35.70412194,
        "lonStart": -119.37650334,
        "latEnd": null,
        "lonEnd": null,
        "length": 6.1
      }
    ],
    "id": 28655
  },
  {
    "type": 17,
    "icao": "CL60",
    "lat": 35.39106916,
    "lon": -119.00621195,
    "communications": [],
    "elevation": 500,
    "tower": false,
    "name": "[H] Memorial Hospital",
    "runways": [
      {
        "type": 102,
        "width": 12.2,
        "surfaceType": 2,
        "numberStart": "H1",
        "numberEnd": null,
        "latStart": 35.39106916,
        "lonStart": -119.00621195,
        "latEnd": null,
        "lonEnd": null,
        "length": 12.2
      }
    ],
    "id": 31233
  },
  {
    "type": 17,
    "icao": "4L9",
    "lat": 35.38356944,
    "lon": -119.01982334,
    "communications": [],
    "elevation": 463,
    "tower": false,
    "name": "[H] San Joaquin Community Hospital",
    "runways": [
      {
        "type": 102,
        "width": 12.2,
        "surfaceType": 1,
        "numberStart": "H1",
        "numberEnd": null,
        "latStart": 35.38356944,
        "lonStart": -119.01982334,
        "latEnd": null,
        "lonEnd": null,
        "length": 12.2
      }
    ],
    "id": 32543
  },
  {
    "type": 17,
    "icao": "5CA6",
    "lat": 35.79106444,
    "lon": -119.23010862,
    "communications": [],
    "elevation": 333,
    "tower": false,
    "name": "[H] San Joaquin Helicopters",
    "runways": [
      {
        "type": 102,
        "width": 44.5,
        "surfaceType": 2,
        "numberStart": "H1",
        "numberEnd": null,
        "latStart": 35.79106444,
        "lonStart": -119.23010862,
        "latEnd": null,
        "lonEnd": null,
        "length": 65.5
      }
    ],
    "id": 32545
  },
  {
    "type": 17,
    "icao": "5CA5",
    "lat": 35.79300888,
    "lon": -119.18399584,
    "communications": [],
    "elevation": 398,
    "tower": false,
    "name": "[H] San Joaquin Sprayers Inc",
    "runways": [
      {
        "type": 102,
        "width": 4.3,
        "surfaceType": 2,
        "numberStart": "H1",
        "numberEnd": null,
        "latStart": 35.79300888,
        "lonStart": -119.18399584,
        "latEnd": null,
        "lonEnd": null,
        "length": 4.3
      }
    ],
    "id": 32546
  },
  {
    "type": 17,
    "icao": "07CA",
    "lat": 35.13885583,
    "lon": -119.45095195,
    "communications": [],
    "elevation": 850,
    "tower": false,
    "name": "[H] West Side Hospital",
    "runways": [
      {
        "type": 102,
        "width": 12.2,
        "surfaceType": 2,
        "numberStart": "H1",
        "numberEnd": null,
        "latStart": 35.13885583,
        "lonStart": -119.45095195,
        "latEnd": null,
        "lonEnd": null,
        "length": 12.2
      }
    ],
    "id": 33801
  }
]