[
  {
    "type": 1,
    "icao": "2CN4",
    "lat": 35.664625375,
    "lon": -119.89351949499999,
    "communications": [],
    "elevation": 617,
    "tower": false,
    "name": "Paramount Farms",
    "runways": [
      {
        "type": 100,
        "width": 18,
        "surfaceType": null,
        "numberStart": "13",
        "numberEnd": "31",
        "latStart": 35.67040069,
        "lonStart": -119.89800958,
        "latEnd": 35.65885006,
        "lonEnd": -119.88902941,
        "length": 0,
        "surfacetype": 1
      }
    ],
    "id": 78
  },
  {
    "type": 1,
    "icao": "38CA",
    "lat": 35.688952125,
    "lon": -119.4883798,
    "communications": [
      {
        "type": 51,
        "frequency": 12280,
        "name": "UNICOM"
      }
    ],
    "elevation": 225,
    "tower": false,
    "name": "CASHEN",
    "runways": [
      {
        "type": 100,
        "width": 30.48,
        "surfaceType": null,
        "numberStart": "14",
        "numberEnd": "32",
        "latStart": 35.6942408,
        "lonStart": -119.49017344,
        "latEnd": 35.68366345,
        "lonEnd": -119.48658616,
        "length": 0,
        "surfacetype": 1
      }
    ],
    "id": 383
  },
  {
    "type": 1,
    "icao": "KBFL",
    "lat": 35.433201756,
    "lon": -119.055949156,
    "communications": [
      {
        "type": 50,
        "frequency": 11860,
        "name": "ATIS"
      },
      {
        "type": 51,
        "frequency": 11810,
        "name": "CTAF"
      },
      {
        "type": 51,
        "frequency": 12295,
        "name": "UNICOM"
      },
      {
        "type": 53,
        "frequency": 12170,
        "name": "GND"
      },
      {
        "type": 54,
        "frequency": 11810,
        "name": "BAKERSFIELD TWR"
      },
      {
        "type": 55,
        "frequency": 11880,
        "name": "BAKERSFIELD APP"
      },
      {
        "type": 55,
        "frequency": 11890,
        "name": "BAKERSFIELD APP"
      },
      {
        "type": 56,
        "frequency": 12645,
        "name": "BAKERSFIELD DEP"
      }
    ],
    "elevation": 506,
    "tower": true,
    "name": "Meadows Field",
    "runways": [
      {
        "type": 100,
        "width": 46.02,
        "surfaceType": null,
        "numberStart": "12L",
        "numberEnd": "30R",
        "latStart": 35.44634722,
        "lonStart": -119.07127531,
        "latEnd": 35.425128,
        "lonEnd": -119.04563907,
        "length": 0,
        "surfacetype": 1
      },
      {
        "type": 100,
        "width": 29.87,
        "surfaceType": null,
        "numberStart": "12R",
        "numberEnd": "30L",
        "latStart": 35.43876481,
        "lonStart": -119.06565404,
        "latEnd": 35.42370525,
        "lonEnd": -119.04746587,
        "length": 0,
        "surfacetype": 1
      },
      {
        "type": 102,
        "width": 6.6,
        "surfaceType": 2,
        "numberStart": "H1",
        "numberEnd": null,
        "latStart": 35.4320635,
        "lonStart": -119.04971149,
        "latEnd": null,
        "lonEnd": null,
        "length": 6.9
      }
    ],
    "id": 2405
  },
  {
    "type": 1,
    "icao": "KDLO",
    "lat": 35.745565125,
    "lon": -119.23651420499999,
    "communications": [
      {
        "type": 50,
        "frequency": 11955,
        "name": "AWOS 3"
      },
      {
        "type": 51,
        "frequency": 12280,
        "name": "CTAF/UNICOM"
      },
      {
        "type": 55,
        "frequency": 11890,
        "name": "BAKERSFIELD APP/DEP"
      }
    ],
    "elevation": 312,
    "tower": false,
    "name": "Delano Municipal",
    "runways": [
      {
        "type": 100,
        "width": 22.86,
        "surfaceType": null,
        "numberStart": "14",
        "numberEnd": "32",
        "latStart": 35.75279878,
        "lonStart": -119.24000045,
        "latEnd": 35.73833147,
        "lonEnd": -119.23302796,
        "length": 0,
        "surfacetype": 1
      }
    ],
    "id": 2571
  },
  {
    "type": 1,
    "icao": "KMIT",
    "lat": 35.50741187333333,
    "lon": -119.19149320499999,
    "communications": [
      {
        "type": 51,
        "frequency": 12290,
        "name": "CTAF"
      },
      {
        "type": 55,
        "frequency": 12645,
        "name": "BAKERSFIELD APP/DEP"
      }
    ],
    "elevation": 420,
    "tower": false,
    "name": "SHAFTER MINTER FLD",
    "runways": [
      {
        "type": 100,
        "width": 30,
        "surfaceType": null,
        "numberStart": "12",
        "numberEnd": "30",
        "latStart": 35.510675,
        "lonStart": -119.201022,
        "latEnd": 35.502186,
        "lonEnd": -119.190028,
        "length": 0,
        "surfacetype": 1
      },
      {
        "type": 100,
        "width": 18,
        "surfaceType": null,
        "numberStart": "08",
        "numberEnd": "26",
        "latStart": 35.51057248,
        "lonStart": -119.19914473,
        "latEnd": 35.5105628,
        "lonEnd": -119.18678299,
        "length": 0,
        "surfacetype": 1
      },
      {
        "type": 100,
        "width": 30.48,
        "surfaceType": null,
        "numberStart": "17",
        "numberEnd": "35",
        "latStart": 35.50931657,
        "lonStart": -119.18598808,
        "latEnd": 35.50115839,
        "lonEnd": -119.18599343,
        "length": 0,
        "surfacetype": 2
      }
    ],
    "id": 2969
  },
  {
    "type": 1,
    "icao": "L17",
    "lat": 35.141930245,
    "lon": -119.44034434,
    "communications": [
      {
        "type": 51,
        "frequency": 12280,
        "name": "CTAF/UNICOM"
      }
    ],
    "elevation": 875,
    "tower": false,
    "name": "TAFT KERN CO",
    "runways": [
      {
        "type": 100,
        "width": 18.29,
        "surfaceType": null,
        "numberStart": "07",
        "numberEnd": "25",
        "latStart": 35.14083836,
        "lonStart": -119.44322543,
        "latEnd": 35.14247051,
        "lonEnd": -119.43246532,
        "length": 0,
        "surfacetype": 1
      },
      {
        "type": 100,
        "width": 18.42,
        "surfaceType": null,
        "numberStart": "03",
        "numberEnd": "21",
        "latStart": 35.1407991,
        "lonStart": -119.4446663,
        "latEnd": 35.14361301,
        "lonEnd": -119.44102031,
        "length": 0,
        "surfacetype": 4
      }
    ],
    "id": 3431
  },
  {
    "type": 1,
    "icao": "L19",
    "lat": 35.619849505000005,
    "lon": -119.353713165,
    "communications": [
      {
        "type": 51,
        "frequency": 12280,
        "name": "CTAF/UNICOM"
      }
    ],
    "elevation": 312,
    "tower": false,
    "name": "WASCO KERN COUNTY",
    "runways": [
      {
        "type": 100,
        "width": 18.29,
        "surfaceType": null,
        "numberStart": "12",
        "numberEnd": "30",
        "latStart": 35.62315761,
        "lonStart": -119.35771255,
        "latEnd": 35.6165414,
        "lonEnd": -119.34971378,
        "length": 0,
        "surfacetype": 1
      }
    ],
    "id": 3433
  },
  {
    "type": 1,
    "icao": "L62",
    "lat": 35.35346293,
    "lon": -119.47973888,
    "communications": [
      {
        "type": 51,
        "frequency": 12290,
        "name": "CTAF"
      }
    ],
    "elevation": 326,
    "tower": false,
    "name": "ELK HILLS BUTTONWILLOW",
    "runways": [
      {
        "type": 100,
        "width": 15.4,
        "surfaceType": null,
        "numberStart": "11",
        "numberEnd": "29",
        "latStart": 35.35638252,
        "lonStart": -119.48384018,
        "latEnd": 35.35054334,
        "lonEnd": -119.47563758,
        "length": 0,
        "surfacetype": 1
      }
    ],
    "id": 3444
  },
  {
    "type": 1,
    "icao": "L73",
    "lat": 35.596524360000004,
    "lon": -119.128186845,
    "communications": [
      {
        "type": 51,
        "frequency": 12290,
        "name": "CTAF"
      }
    ],
    "elevation": 634,
    "tower": false,
    "name": "POSO KERN COUNTY",
    "runways": [
      {
        "type": 100,
        "width": 21,
        "surfaceType": null,
        "numberStart": "16",
        "numberEnd": "34",
        "latStart": 35.60064059,
        "lonStart": -119.12821465,
        "latEnd": 35.59240813,
        "lonEnd": -119.12815904,
        "length": 0,
        "surfacetype": 1
      }
    ],
    "id": 3449
  },
  {
    "type": 1,
    "icao": "L84",
    "lat": 35.624854005,
    "lon": -119.686075535,
    "communications": [
      {
        "type": 51,
        "frequency": 12290,
        "name": "CTAF"
      }
    ],
    "elevation": 273,
    "tower": false,
    "name": "LOST HILLS KERN COUNTY",
    "runways": [
      {
        "type": 100,
        "width": 18.29,
        "surfaceType": null,
        "numberStart": "15",
        "numberEnd": "33",
        "latStart": 35.62889068,
        "lonStart": -119.68723785,
        "latEnd": 35.62081733,
        "lonEnd": -119.68491322,
        "length": 0,
        "surfacetype": 1
      }
    ],
    "id": 3453
  },
  {
    "type": 1,
    "icao": "1CA1",
    "lat": 35.467917,
    "lon": -119.7218055,
    "communications": [
      {
        "type": 51,
        "frequency": 12290,
        "name": "CTAF"
      }
    ],
    "elevation": 575,
    "tower": false,
    "name": "BELRIDGE STRIP",
    "runways": [
      {
        "type": 100,
        "width": 25.91,
        "surfaceType": null,
        "numberStart": "11",
        "numberEnd": "29",
        "latStart": 35.472778,
        "lonStart": -119.729161,
        "latEnd": 35.463056,
        "lonEnd": -119.71445,
        "length": 0,
        "surfacetype": 1
      }
    ],
    "id": 6323
  },
  {
    "type": 17,
    "icao": "3CA0",
    "lat": 35.70412194,
    "lon": -119.37650334,
    "communications": [],
    "elevation": 262,
    "tower": false,
    "name": "[H] Burroughs",
    "runways": [
      {
        "type": 102,
        "width": 6.1,
        "surfaceType": 2,
        "numberStart": "H1",
        "numberEnd": null,
        "latStart": 35.70412194,
        "lonStart": -119.37650334,
        "latEnd": null,
        "lonEnd": null,
        "length": 6.1
      }
    ],
    "id": 7462
  },
  {
    "type": 1,
    "icao": "4L8",
    "lat": 35.263294720000005,
    "lon": -119.04565889,
    "communications": [],
    "elevation": 346,
    "tower": false,
    "name": "Costerisan Farms",
    "runways": [
      {
        "type": 100,
        "width": 15.24,
        "surfaceType": null,
        "numberStart": "18",
        "numberEnd": "36",
        "latStart": 35.2666216,
        "lonStart": -119.044643,
        "latEnd": 35.25996784,
        "lonEnd": -119.04667478,
        "length": 0,
        "surfacetype": 3
      }
    ],
    "id": 8154
  },
  {
    "type": 17,
    "icao": "4L9",
    "lat": 35.38356944,
    "lon": -119.01982334,
    "communications": [],
    "elevation": 463,
    "tower": false,
    "name": "[H] San Joaquin Community Hospital",
    "runways": [
      {
        "type": 102,
        "width": 12.2,
        "surfaceType": 1,
        "numberStart": "H1",
        "numberEnd": null,
        "latStart": 35.38356944,
        "lonStart": -119.01982334,
        "latEnd": null,
        "lonEnd": null,
        "length": 12.2
      }
    ],
    "id": 8155
  },
  {
    "type": 17,
    "icao": "5CA5",
    "lat": 35.79300888,
    "lon": -119.18399584,
    "communications": [],
    "elevation": 398,
    "tower": false,
    "name": "[H] San Joaquin Sprayers Inc",
    "runways": [
      {
        "type": 102,
        "width": 4.3,
        "surfaceType": 2,
        "numberStart": "H1",
        "numberEnd": null,
        "latStart": 35.79300888,
        "lonStart": -119.18399584,
        "latEnd": null,
        "lonEnd": null,
        "length": 4.3
      }
    ],
    "id": 8520
  },
  {
    "type": 17,
    "icao": "5CA6",
    "lat": 35.79106444,
    "lon": -119.23010862,
    "communications": [],
    "elevation": 333,
    "tower": false,
    "name": "[H] San Joaquin Helicopters",
    "runways": [
      {
        "type": 102,
        "width": 44.5,
        "surfaceType": 2,
        "numberStart": "H1",
        "numberEnd": null,
        "latStart": 35.79106444,
        "lonStart": -119.23010862,
        "latEnd": null,
        "lonEnd": null,
        "length": 65.5
      }
    ],
    "id": 8521
  },
  {
    "type": 1,
    "icao": "6CL0",
    "lat": 35.52611111,
    "lon": -119.10166667,
    "communications": [],
    "elevation": 640,
    "tower": false,
    "name": "Majors",
    "runways": [
      {
        "type": 100,
        "width": 45.72,
        "surfaceType": null,
        "numberStart": "12",
        "numberEnd": "30",
        "latStart": 35.5270809,
        "lonStart": -119.10285828,
        "latEnd": 35.52514132,
        "lonEnd": -119.10047506,
        "length": 0,
        "surfacetype": 4
      }
    ],
    "id": 9028
  },
  {
    "type": 17,
    "icao": "07CA",
    "lat": 35.13885583,
    "lon": -119.45095195,
    "communications": [],
    "elevation": 850,
    "tower": false,
    "name": "[H] West Side Hospital",
    "runways": [
      {
        "type": 102,
        "width": 12.2,
        "surfaceType": 2,
        "numberStart": "H1",
        "numberEnd": null,
        "latStart": 35.13885583,
        "lonStart": -119.45095195,
        "latEnd": null,
        "lonEnd": null,
        "length": 12.2
      }
    ],
    "id": 9527
  },
  {
    "type": 1,
    "icao": "10CL",
    "lat": 35.368015830000004,
    "lon": -119.19482973000001,
    "communications": [],
    "elevation": 347,
    "tower": false,
    "name": "Joe Gottlieb Field",
    "runways": [
      {
        "type": 100,
        "width": 12.19,
        "surfaceType": null,
        "numberStart": "09",
        "numberEnd": "27",
        "latStart": 35.36877896,
        "lonStart": -119.19858315,
        "latEnd": 35.3672527,
        "lonEnd": -119.19107631,
        "length": 0,
        "surfacetype": 1
      }
    ],
    "id": 10882
  },
  {
    "type": 1,
    "icao": "CA64",
    "lat": 35.68690222,
    "lon": -119.59984528,
    "communications": [],
    "elevation": 220,
    "tower": false,
    "name": "Gilbreath Bros Duck Club",
    "runways": [
      {
        "type": 100,
        "width": 22.86,
        "surfaceType": null,
        "numberStart": "14",
        "numberEnd": "32",
        "latStart": 35.68998733,
        "lonStart": -119.60161649,
        "latEnd": 35.68381711,
        "lonEnd": -119.59807407,
        "length": 0,
        "surfacetype": 4
      }
    ],
    "id": 15049
  },
  {
    "type": 17,
    "icao": "CL60",
    "lat": 35.39106916,
    "lon": -119.00621195,
    "communications": [],
    "elevation": 500,
    "tower": false,
    "name": "[H] Memorial Hospital",
    "runways": [
      {
        "type": 102,
        "width": 12.2,
        "surfaceType": 2,
        "numberStart": "H1",
        "numberEnd": null,
        "latStart": 35.39106916,
        "lonStart": -119.00621195,
        "latEnd": null,
        "lonEnd": null,
        "length": 12.2
      }
    ],
    "id": 15412
  }
]