[
  {
    "type": 17,
    "icao": "8OH0",
    "lat": 41.88033055,
    "lon": -80.79369723,
    "communications": [],
    "elevation": 640,
    "tower": false,
    "name": "[H] Ashtabula Co Med Ctr",
    "runways": [
      {
        "type": 102,
        "width": 12.2,
        "surfaceType": 2,
        "numberStart": "H1",
        "numberEnd": null,
        "latStart": 41.88033055,
        "lonStart": -80.79369723,
        "latEnd": null,
        "lonEnd": null,
        "length": 12.2
      }
    ],
    "id": 28199
  },
  {
    "type": 17,
    "icao": "9II7",
    "lat": 41.36999999,
    "lon": -80.03416667,
    "communications": [],
    "elevation": 899,
    "tower": false,
    "name": "[H] Dekalb Memorial Hospital",
    "runways": [
      {
        "type": 102,
        "width": 9.1,
        "surfaceType": 2,
        "numberStart": "H1",
        "numberEnd": null,
        "latStart": 41.36999999,
        "lonStart": -80.03416667,
        "latEnd": null,
        "lonEnd": null,
        "length": 9.1
      }
    ],
    "id": 29298
  },
  {
    "type": 17,
    "icao": "1PS1",
    "lat": 41.24005611,
    "lon": -80.46479139,
    "communications": [],
    "elevation": 1165,
    "tower": false,
    "name": "[H] Hermitage Central Fire Station",
    "runways": [
      {
        "type": 102,
        "width": 18.3,
        "surfaceType": 1,
        "numberStart": "H1",
        "numberEnd": null,
        "latStart": 41.24005611,
        "lonStart": -80.46479139,
        "latEnd": null,
        "lonEnd": null,
        "length": 18.3
      }
    ],
    "id": 30226
  },
  {
    "type": 17,
    "icao": "4D5",
    "lat": 41.23005611,
    "lon": -80.55729473,
    "communications": [],
    "elevation": 1140,
    "tower": false,
    "name": "[H] Kirila",
    "runways": [
      {
        "type": 102,
        "width": 91.4,
        "surfaceType": 3,
        "numberStart": "H1",
        "numberEnd": null,
        "latStart": 41.23005611,
        "lonStart": -80.55729473,
        "latEnd": null,
        "lonEnd": null,
        "length": 91.4
      }
    ],
    "id": 30733
  },
  {
    "type": 17,
    "icao": "67OI",
    "lat": 41.09922472,
    "lon": -80.65035278,
    "communications": [],
    "elevation": 1140,
    "tower": false,
    "name": "[H] Northside & Tod Childrens Hospital",
    "runways": [
      {
        "type": 102,
        "width": 9.1,
        "surfaceType": 2,
        "numberStart": "H1",
        "numberEnd": null,
        "latStart": 41.09922472,
        "lonStart": -80.65035278,
        "latEnd": null,
        "lonEnd": null,
        "length": 9.1
      }
    ],
    "id": 31671
  },
  {
    "type": 17,
    "icao": "06O1",
    "lat": 41.11478027,
    "lon": -80.65701973,
    "communications": [],
    "elevation": 1020,
    "tower": false,
    "name": "[H] Saint Elizabeth Medical Center",
    "runways": [
      {
        "type": 102,
        "width": 12.2,
        "surfaceType": 2,
        "numberStart": "H1",
        "numberEnd": null,
        "latStart": 41.11478027,
        "lonStart": -80.65701973,
        "latEnd": null,
        "lonEnd": null,
        "length": 12.2
      }
    ],
    "id": 32518
  },
  {
    "type": 17,
    "icao": "PA94",
    "lat": 41.23255583,
    "lon": -80.49645917,
    "communications": [],
    "elevation": 979,
    "tower": false,
    "name": "[H] Sharon General Hospital",
    "runways": [
      {
        "type": 102,
        "width": 19.8,
        "surfaceType": 2,
        "numberStart": "H1",
        "numberEnd": null,
        "latStart": 41.23255583,
        "lonStart": -80.49645917,
        "latEnd": null,
        "lonEnd": null,
        "length": 19.8
      }
    ],
    "id": 32663
  },
  {
    "type": 17,
    "icao": "PS41",
    "lat": 41.21061194,
    "lon": -80.46923584,
    "communications": [],
    "elevation": 1100,
    "tower": false,
    "name": "[H] Shenango Valley Medical Center",
    "runways": [
      {
        "type": 102,
        "width": 15.2,
        "surfaceType": 1,
        "numberStart": "H1",
        "numberEnd": null,
        "latStart": 41.21061194,
        "lonStart": -80.46923584,
        "latEnd": null,
        "lonEnd": null,
        "length": 15.2
      }
    ],
    "id": 32680
  },
  {
    "type": 17,
    "icao": "PN27",
    "lat": 41.27477916,
    "lon": -80.27728612,
    "communications": [],
    "elevation": 1310,
    "tower": false,
    "name": "[H] Station 219",
    "runways": [
      {
        "type": 102,
        "width": 6.1,
        "surfaceType": 2,
        "numberStart": "H1",
        "numberEnd": null,
        "latStart": 41.27477916,
        "lonStart": -80.27728612,
        "latEnd": null,
        "lonEnd": null,
        "length": 6.1
      }
    ],
    "id": 33058
  },
  {
    "type": 17,
    "icao": "PN51",
    "lat": 41.66672111,
    "lon": -80.41645584,
    "communications": [],
    "elevation": 1040,
    "tower": false,
    "name": "[H] Summers Psnl Use",
    "runways": [
      {
        "type": 102,
        "width": 9.8,
        "surfaceType": 3,
        "numberStart": "H1",
        "numberEnd": null,
        "latStart": 41.66672111,
        "lonStart": -80.41645584,
        "latEnd": null,
        "lonEnd": null,
        "length": 9.8
      }
    ],
    "id": 33125
  }
]