[
  {
    "type": 1,
    "icao": "MMVR",
    "lat": 19.13997395,
    "lon": -96.18670260000002,
    "communications": [
      {
        "type": 50,
        "frequency": 12780,
        "name": "ATIS"
      },
      {
        "type": 54,
        "frequency": 11850,
        "name": "VERACRUZ TWR"
      },
      {
        "type": 55,
        "frequency": 12040,
        "name": "VERACRUZ APP"
      }
    ],
    "elevation": 89,
    "tower": true,
    "name": "General Heriberto Jara International",
    "runways": [
      {
        "type": 100,
        "width": 45.11,
        "surfaceType": null,
        "numberStart": "18",
        "numberEnd": "36",
        "latStart": 19.14957977,
        "lonStart": -96.18652891,
        "latEnd": 19.12791212,
        "lonEnd": -96.19105274,
        "length": 0,
        "surfacetype": 1
      },
      {
        "type": 102,
        "width": 18.3,
        "surfaceType": 1,
        "numberStart": "H1",
        "numberEnd": null,
        "latStart": 19.1405655,
        "lonStart": -96.18536277,
        "latEnd": null,
        "lonEnd": null,
        "length": 18.3
      },
      {
        "type": 102,
        "width": 18.3,
        "surfaceType": 1,
        "numberStart": "H2",
        "numberEnd": null,
        "latStart": 19.14079825,
        "lonStart": -96.18530714,
        "latEnd": null,
        "lonEnd": null,
        "length": 18.3
      },
      {
        "type": 102,
        "width": 18.3,
        "surfaceType": 1,
        "numberStart": "H3",
        "numberEnd": null,
        "latStart": 19.14101411,
        "lonStart": -96.18526144,
        "latEnd": null,
        "lonEnd": null,
        "length": 18.3
      }
    ],
    "id": 4124
  },
  {
    "type": 1,
    "icao": "MMJA",
    "lat": 19.475083499999997,
    "lon": -96.7975045,
    "communications": [
      {
        "type": 54,
        "frequency": 12330,
        "name": "JALAPA AFIS"
      }
    ],
    "elevation": 3127,
    "tower": false,
    "name": "LENCERO",
    "runways": [
      {
        "type": 100,
        "width": 24.99,
        "surfaceType": null,
        "numberStart": "08",
        "numberEnd": "26",
        "latStart": 19.474603,
        "lonStart": -96.805581,
        "latEnd": 19.475564,
        "lonEnd": -96.789428,
        "length": 0,
        "surfacetype": 1
      }
    ],
    "id": 21480
  }
]