[
  {
    "type": 1,
    "icao": "PANV",
    "lat": 62.6467345,
    "lon": -48.773396000000005,
    "communications": [
      {
        "type": 50,
        "frequency": 13355,
        "name": "AWOS 3"
      },
      {
        "type": 51,
        "frequency": 12270,
        "name": "CTAF/UNICOM"
      }
    ],
    "elevation": 309,
    "tower": false,
    "name": "ANVIK",
    "runways": [
      {
        "type": 100,
        "width": 22.86,
        "surfaceType": null,
        "numberStart": "17",
        "numberEnd": "35",
        "latStart": 62.650747,
        "lonStart": -160.189514,
        "latEnd": 62.642722,
        "lonEnd": -160.191803,
        "length": 0,
        "surfacetype": 5
      }
    ],
    "id": 340
  },
  {
    "type": 1,
    "icao": "FVQ",
    "lat": 62.07151508,
    "lon": -48.06654477,
    "communications": [
      {
        "type": 54,
        "frequency": 12345,
        "name": "Company"
      }
    ],
    "elevation": 591,
    "tower": true,
    "name": "Donlin Creek Mine",
    "runways": [
      {
        "type": 100,
        "width": 20.12,
        "surfaceType": null,
        "numberStart": "01",
        "numberEnd": "19",
        "latStart": 62.06965414,
        "lonStart": -158.20646556,
        "latEnd": 62.07337602,
        "lonEnd": -158.20272069,
        "length": 0,
        "surfacetype": 5
      }
    ],
    "id": 6381
  },
  {
    "type": 1,
    "icao": "KGX",
    "lat": 62.893322524999995,
    "lon": -48.5884796425,
    "communications": [
      {
        "type": 51,
        "frequency": 12290,
        "name": "CTAF"
      }
    ],
    "elevation": 130,
    "tower": false,
    "name": "Grayling",
    "runways": [
      {
        "type": 100,
        "width": 18.29,
        "surfaceType": null,
        "numberStart": "15",
        "numberEnd": "33",
        "latStart": 62.89768596,
        "lonStart": -160.06611369,
        "latEnd": 62.89143514,
        "lonEnd": -160.06369465,
        "length": 0,
        "surfacetype": 5
      },
      {
        "type": 100,
        "width": 22.86,
        "surfaceType": null,
        "numberStart": "17",
        "numberEnd": "35",
        "latStart": 62.89754702,
        "lonStart": -160.065862,
        "latEnd": 62.88662198,
        "lonEnd": -160.06669285,
        "length": 0,
        "surfacetype": 5
      }
    ],
    "id": 10731
  },
  {
    "type": 1,
    "icao": "PAHC",
    "lat": 62.188296,
    "lon": -48.794006499999995,
    "communications": [
      {
        "type": 50,
        "frequency": 11832,
        "name": "ASOS"
      },
      {
        "type": 51,
        "frequency": 12280,
        "name": "CTAF"
      }
    ],
    "elevation": 70,
    "tower": false,
    "name": "HOLY CROSS",
    "runways": [
      {
        "type": 100,
        "width": 29.87,
        "surfaceType": null,
        "numberStart": "01",
        "numberEnd": "19",
        "latStart": 62.183611,
        "lonStart": -159.780994,
        "latEnd": 62.192981,
        "lonEnd": -159.768906,
        "length": 0,
        "surfacetype": 5
      }
    ],
    "id": 11174
  },
  {
    "type": 1,
    "icao": "PAHX",
    "lat": 62.69511944,
    "lon": -48.43737564999999,
    "communications": [],
    "elevation": 70,
    "tower": false,
    "name": "Shageluk",
    "runways": [
      {
        "type": 100,
        "width": 14.94,
        "surfaceType": null,
        "numberStart": "16",
        "numberEnd": "34",
        "latStart": 62.69827387,
        "lonStart": -159.56906139,
        "latEnd": 62.69196501,
        "lonEnd": -159.56906139,
        "length": 0,
        "surfacetype": 5
      },
      {
        "type": 101,
        "width": 304.8,
        "surfaceType": null,
        "numberStart": "01",
        "numberEnd": "19",
        "latStart": 62.70105817,
        "lonStart": -159.56158693,
        "latEnd": 62.68918071,
        "lonEnd": -159.57653585,
        "length": 0
      }
    ],
    "id": 23332
  },
  {
    "type": 16,
    "icao": "K40",
    "lat": 62.65622388,
    "lon": -48.777887234999994,
    "communications": [],
    "elevation": 50,
    "tower": false,
    "name": "[S] Anvik",
    "runways": [
      {
        "type": 101,
        "width": 152.4,
        "surfaceType": null,
        "numberStart": "09",
        "numberEnd": "27",
        "latStart": 62.65716203,
        "lonStart": -160.2110602,
        "latEnd": 62.65528573,
        "lonEnd": -160.19983704,
        "length": 0
      }
    ],
    "id": 33975
  }
]