[
  {
    "type": 1,
    "icao": "AYMD",
    "lat": -5.2087183150000005,
    "lon": 145.787852735,
    "communications": [
      {
        "type": 50,
        "frequency": 12780,
        "name": "AYMD ATIS"
      },
      {
        "type": 51,
        "frequency": 12010,
        "name": "MADANG MULTICOM"
      },
      {
        "type": 51,
        "frequency": 12670,
        "name": "MADANG MULTICOM"
      },
      {
        "type": 51,
        "frequency": 12690,
        "name": "MADANG MULTICOM"
      },
      {
        "type": 53,
        "frequency": 12325,
        "name": "MADANG GND"
      },
      {
        "type": 54,
        "frequency": 11810,
        "name": "MADANG TWR"
      }
    ],
    "elevation": 10,
    "tower": true,
    "name": "Madang",
    "runways": [
      {
        "type": 100,
        "width": 32,
        "surfaceType": null,
        "numberStart": "07",
        "numberEnd": "25",
        "latStart": -5.21038022,
        "lonStart": 145.78158093,
        "latEnd": -5.20705641,
        "lonEnd": 145.79412454,
        "length": 0,
        "surfacetype": 1
      }
    ],
    "id": 14798
  },
  {
    "type": 1,
    "icao": "DPU",
    "lat": -5.85594793,
    "lon": 145.738874485,
    "communications": [
      {
        "type": 50,
        "frequency": 12770,
        "name": "DPU AWOS"
      }
    ],
    "elevation": 1193,
    "tower": false,
    "name": "Dumpu",
    "runways": [
      {
        "type": 100,
        "width": 29.87,
        "surfaceType": null,
        "numberStart": "05",
        "numberEnd": "23",
        "latStart": -5.85781986,
        "lonStart": 145.73644297,
        "latEnd": -5.854076,
        "lonEnd": 145.741306,
        "length": 0,
        "surfacetype": 3
      }
    ],
    "id": 16056
  }
]