[
  {
    "type": 1,
    "icao": "YBYL",
    "lat": -29.21821143,
    "lon": 61.694333675,
    "communications": [],
    "elevation": 397,
    "tower": false,
    "name": "BARYULGIL",
    "runways": [
      {
        "type": 100,
        "width": 21.95,
        "surfaceType": null,
        "numberStart": "16",
        "numberEnd": "34",
        "latStart": -29.21185725,
        "lonStart": 152.61323296,
        "latEnd": -29.22456561,
        "lonEnd": 152.61838279,
        "length": 0,
        "surfacetype": 1
      }
    ],
    "id": 1545
  },
  {
    "type": 1,
    "icao": "YGLI",
    "lat": -29.675100355,
    "lon": 61.001794762500005,
    "communications": [
      {
        "type": 51,
        "frequency": 12670,
        "name": "CTAF"
      }
    ],
    "elevation": 3433,
    "tower": false,
    "name": "Glen Innes",
    "runways": [
      {
        "type": 100,
        "width": 30,
        "surfaceType": null,
        "numberStart": "14",
        "numberEnd": "32",
        "latStart": -29.66749537,
        "lonStart": 151.68619228,
        "latEnd": -29.68117864,
        "lonEnd": 151.69380545,
        "length": 0,
        "surfacetype": 1
      },
      {
        "type": 100,
        "width": 30,
        "surfaceType": null,
        "numberStart": "10",
        "numberEnd": "28",
        "latStart": -29.67378872,
        "lonStart": 151.6801041,
        "latEnd": -29.67793869,
        "lonEnd": 151.69682756,
        "length": 0,
        "surfacetype": 15
      }
    ],
    "id": 10524
  },
  {
    "type": 1,
    "icao": "YGFN",
    "lat": -29.7547995,
    "lon": 61.634761,
    "communications": [
      {
        "type": 51,
        "frequency": 11240,
        "name": "ACTIVATE LIGHTS ONLY MULT"
      },
      {
        "type": 51,
        "frequency": 12670,
        "name": "GRAFTON CTAF"
      },
      {
        "type": 54,
        "frequency": 12260,
        "name": "BRISBANE CNTR"
      }
    ],
    "elevation": 107,
    "tower": false,
    "name": "Grafton",
    "runways": [
      {
        "type": 100,
        "width": 30,
        "surfaceType": null,
        "numberStart": "18",
        "numberEnd": "36",
        "latStart": -29.747118,
        "lonStart": 153.032003,
        "latEnd": -29.762481,
        "lonEnd": 153.030406,
        "length": 0,
        "surfacetype": 1
      }
    ],
    "id": 10663
  },
  {
    "type": 1,
    "icao": "YPLI",
    "lat": -29.445814759999998,
    "lon": 61.90987405999999,
    "communications": [
      {
        "type": 51,
        "frequency": 12670,
        "name": "McIntyres Field MULT"
      },
      {
        "type": 54,
        "frequency": 12260,
        "name": "BRISBANE CENTRE CNTR"
      }
    ],
    "elevation": 6,
    "tower": true,
    "name": "Palmers Island/Maclean",
    "runways": [
      {
        "type": 100,
        "width": 17.98,
        "surfaceType": null,
        "numberStart": "09",
        "numberEnd": "27",
        "latStart": -29.44514748,
        "lonStart": 153.26623016,
        "latEnd": -29.44648204,
        "lonEnd": 153.27538824,
        "length": 0,
        "surfacetype": 3
      }
    ],
    "id": 19692
  },
  {
    "type": 1,
    "icao": "YSGR",
    "lat": -29.709325999999997,
    "lon": 61.60902050000001,
    "communications": [
      {
        "type": 51,
        "frequency": 12670,
        "name": "South Grafton MULT"
      },
      {
        "type": 54,
        "frequency": 12260,
        "name": "BRISBANE CENTRE CNTR"
      }
    ],
    "elevation": 10,
    "tower": true,
    "name": "South Grafton",
    "runways": [
      {
        "type": 100,
        "width": 6.1,
        "surfaceType": null,
        "numberStart": "08",
        "numberEnd": "26",
        "latStart": -29.708992,
        "lonStart": 152.927701,
        "latEnd": -29.70966,
        "lonEnd": 152.918165,
        "length": 0,
        "surfacetype": 1
      }
    ],
    "id": 23886
  }
]