[
  {
    "type": 1,
    "icao": "CYBW",
    "lat": 51.10368135444445,
    "lon": -114.37263901444446,
    "communications": [
      {
        "type": 50,
        "frequency": 12790,
        "name": "ATIS"
      },
      {
        "type": 53,
        "frequency": 12180,
        "name": "GND"
      },
      {
        "type": 54,
        "frequency": 12070,
        "name": "TWR"
      },
      {
        "type": 56,
        "frequency": 12452,
        "name": "Departure"
      }
    ],
    "elevation": 3937,
    "tower": true,
    "name": "Calgary Springbank",
    "runways": [
      {
        "type": 100,
        "width": 30.48,
        "surfaceType": null,
        "numberStart": "08",
        "numberEnd": "26",
        "latStart": 51.10480706,
        "lonStart": -114.37895277,
        "latEnd": 51.10480633,
        "lonEnd": -114.36404767,
        "length": 0,
        "surfacetype": 1
      },
      {
        "type": 100,
        "width": 29.87,
        "surfaceType": null,
        "numberStart": "17",
        "numberEnd": "35",
        "latStart": 51.1121732,
        "lonStart": -114.37874032,
        "latEnd": 51.09847156,
        "lonEnd": -114.37874032,
        "length": 0,
        "surfacetype": 1
      },
      {
        "type": 102,
        "width": 50,
        "surfaceType": 15,
        "numberStart": "H12",
        "numberEnd": null,
        "latStart": 51.10088553,
        "lonStart": -114.37693314,
        "latEnd": null,
        "lonEnd": null,
        "length": 50
      },
      {
        "type": 102,
        "width": 50,
        "surfaceType": 15,
        "numberStart": "H13",
        "numberEnd": null,
        "latStart": 51.10399612,
        "lonStart": -114.37009117,
        "latEnd": null,
        "lonEnd": null,
        "length": 50
      },
      {
        "type": 102,
        "width": 50,
        "surfaceType": 15,
        "numberStart": "H3",
        "numberEnd": null,
        "latStart": 51.10274095,
        "lonStart": -114.36858399,
        "latEnd": null,
        "lonEnd": null,
        "length": 50
      },
      {
        "type": 102,
        "width": 50,
        "surfaceType": 15,
        "numberStart": "H2",
        "numberEnd": null,
        "latStart": 51.10262442,
        "lonStart": -114.36869584,
        "latEnd": null,
        "lonEnd": null,
        "length": 50
      },
      {
        "type": 102,
        "width": 50,
        "surfaceType": 15,
        "numberStart": "H1",
        "numberEnd": null,
        "latStart": 51.10262702,
        "lonStart": -114.36896591,
        "latEnd": null,
        "lonEnd": null,
        "length": 50
      }
    ],
    "id": 733
  },
  {
    "type": 1,
    "icao": "CYYC",
    "lat": 51.117185570000004,
    "lon": -114.01251820499999,
    "communications": [
      {
        "type": 50,
        "frequency": 12822,
        "name": "ATIS"
      },
      {
        "type": 52,
        "frequency": 12082,
        "name": "CLNC DEL"
      },
      {
        "type": 53,
        "frequency": 12190,
        "name": "GND (W)"
      },
      {
        "type": 53,
        "frequency": 12535,
        "name": "GND (E)"
      },
      {
        "type": 54,
        "frequency": 11840,
        "name": "TWR (W)"
      },
      {
        "type": 54,
        "frequency": 11887,
        "name": "TWR (E)"
      },
      {
        "type": 55,
        "frequency": 12385,
        "name": "ARR (W)"
      },
      {
        "type": 55,
        "frequency": 12590,
        "name": "ARR (E)"
      },
      {
        "type": 56,
        "frequency": 12452,
        "name": "DEP (W)"
      },
      {
        "type": 56,
        "frequency": 11980,
        "name": "DEP (E)"
      }
    ],
    "elevation": 3557,
    "tower": true,
    "name": "CALGARY INTL",
    "runways": [
      {
        "type": 100,
        "width": 60.96,
        "surfaceType": null,
        "numberStart": "17L",
        "numberEnd": "35R",
        "latStart": 51.14859278,
        "lonStart": -113.99030465,
        "latEnd": 51.1102341,
        "lonEnd": -113.99037276,
        "length": 0,
        "surfacetype": 2
      },
      {
        "type": 100,
        "width": 60.96,
        "surfaceType": null,
        "numberStart": "11",
        "numberEnd": "29",
        "latStart": 51.12672465,
        "lonStart": -114.03642475,
        "latEnd": 51.11575541,
        "lonEnd": -114.00627231,
        "length": 0,
        "surfacetype": 2
      },
      {
        "type": 100,
        "width": 45.72,
        "surfaceType": null,
        "numberStart": "08",
        "numberEnd": "26",
        "latStart": 51.10407878,
        "lonStart": -114.0305194,
        "latEnd": 51.10406651,
        "lonEnd": -114.00353238,
        "length": 0,
        "surfacetype": 2
      },
      {
        "type": 100,
        "width": 60.96,
        "surfaceType": null,
        "numberStart": "17R",
        "numberEnd": "35L",
        "latStart": 51.13137402,
        "lonStart": -114.02135167,
        "latEnd": 51.09665831,
        "lonEnd": -114.02136772,
        "length": 0,
        "surfacetype": 2
      }
    ],
    "id": 867
  },
  {
    "type": 17,
    "icao": "XCEP2",
    "lat": 51.10315988,
    "lon": -114.21493043,
    "communications": [
      {
        "type": 51,
        "frequency": 12290,
        "name": "Air/Ground Dispatch"
      }
    ],
    "elevation": 3540,
    "tower": false,
    "name": "[H] Calgary (Bow Crow) Heliport",
    "runways": [
      {
        "type": 102,
        "width": 10.1,
        "surfaceType": 15,
        "numberStart": "H1",
        "numberEnd": null,
        "latStart": 51.10315988,
        "lonStart": -114.21493043,
        "latEnd": null,
        "lonEnd": null,
        "length": 10.1
      }
    ],
    "id": 5324
  },
  {
    "type": 1,
    "icao": "CFN7",
    "lat": 51.77644325,
    "lon": -114.6774285,
    "communications": [
      {
        "type": 51,
        "frequency": 12320,
        "name": "CTAF"
      }
    ],
    "elevation": 3656,
    "tower": false,
    "name": "SUNDRE",
    "runways": [
      {
        "type": 100,
        "width": 22.86,
        "surfaceType": null,
        "numberStart": "14",
        "numberEnd": "32",
        "latStart": 51.782167,
        "lonStart": -114.679439,
        "latEnd": 51.771389,
        "lonEnd": -114.671944,
        "length": 0,
        "surfacetype": 1
      },
      {
        "type": 100,
        "width": 22.86,
        "surfaceType": null,
        "numberStart": "05",
        "numberEnd": "23",
        "latStart": 51.775275,
        "lonStart": -114.683331,
        "latEnd": 51.776942,
        "lonEnd": -114.675,
        "length": 0,
        "surfacetype": 5
      }
    ],
    "id": 15195
  },
  {
    "type": 1,
    "icao": "EA3",
    "lat": 51.71103600000001,
    "lon": -114.10934300000001,
    "communications": [
      {
        "type": 50,
        "frequency": 12270,
        "name": "ATIS"
      },
      {
        "type": 51,
        "frequency": 12320,
        "name": "CTAF"
      }
    ],
    "elevation": 3360,
    "tower": false,
    "name": "Olds Didsbury",
    "runways": [
      {
        "type": 100,
        "width": 22.86,
        "surfaceType": null,
        "numberStart": "10",
        "numberEnd": "28",
        "latStart": 51.713611,
        "lonStart": -114.114169,
        "latEnd": 51.709167,
        "lonEnd": -114.099722,
        "length": 0,
        "surfacetype": 1
      },
      {
        "type": 100,
        "width": 15.24,
        "surfaceType": null,
        "numberStart": "04",
        "numberEnd": "22",
        "latStart": 51.709422,
        "lonStart": -114.11515,
        "latEnd": 51.711944,
        "lonEnd": -114.108331,
        "length": 0,
        "surfacetype": 3
      }
    ],
    "id": 16123
  },
  {
    "type": 17,
    "icao": "EL2",
    "lat": 51.053452,
    "lon": -114.07663,
    "communications": [],
    "elevation": 3633,
    "tower": false,
    "name": "[H] Calgary City Bow River",
    "runways": [
      {
        "type": 100,
        "width": 60.96,
        "surfaceType": null,
        "numberStart": "18",
        "numberEnd": "36",
        "latStart": 51.0537263,
        "lonStart": -114.07663,
        "latEnd": 51.0531777,
        "lonEnd": -114.07663,
        "length": 0,
        "surfacetype": 1
      }
    ],
    "id": 16555
  },
  {
    "type": 17,
    "icao": "FD3",
    "lat": 51,
    "lon": -114.150002,
    "communications": [],
    "elevation": 3673,
    "tower": false,
    "name": "[H] Calgary Harvey",
    "runways": [
      {
        "type": 100,
        "width": 91.44,
        "surfaceType": null,
        "numberStart": "18",
        "numberEnd": "36",
        "latStart": 51.00041145,
        "lonStart": -114.150002,
        "latEnd": 50.99958855,
        "lonEnd": -114.150002,
        "length": 0,
        "surfacetype": 1
      }
    ],
    "id": 16992
  },
  {
    "type": 1,
    "icao": "FK6",
    "lat": 51.849998,
    "lon": -114.066673,
    "communications": [],
    "elevation": 3330,
    "tower": false,
    "name": "Olds (Netook)",
    "runways": [
      {
        "type": 100,
        "width": 30.48,
        "surfaceType": null,
        "numberStart": "14",
        "numberEnd": "32",
        "latStart": 51.85391164,
        "lonStart": -114.0693623,
        "latEnd": 51.84608436,
        "lonEnd": -114.0639837,
        "length": 0,
        "surfacetype": 3
      }
    ],
    "id": 17096
  },
  {
    "type": 1,
    "icao": "FZ5",
    "lat": 51.73333,
    "lon": -114.666656,
    "communications": [],
    "elevation": 3700,
    "tower": false,
    "name": "Sundre/Goodwins Farm",
    "runways": [
      {
        "type": 100,
        "width": 18.29,
        "surfaceType": null,
        "numberStart": "16",
        "numberEnd": "34",
        "latStart": 51.73607298,
        "lonStart": -114.666656,
        "latEnd": 51.73058702,
        "lonEnd": -114.666656,
        "length": 0,
        "surfacetype": 3
      }
    ],
    "id": 17622
  }
]