[
  {
    "type": 1,
    "icao": "FNGI",
    "lat": -17.0434655,
    "lon": 15.683823499999999,
    "communications": [
      {
        "type": 54,
        "frequency": 11870,
        "name": "AFIS"
      }
    ],
    "elevation": 3566,
    "tower": false,
    "name": "NGIVA",
    "runways": [
      {
        "type": 100,
        "width": 28.96,
        "surfaceType": null,
        "numberStart": "13",
        "numberEnd": "31",
        "latStart": -17.037306,
        "lonStart": 15.670003,
        "latEnd": -17.049625,
        "lonEnd": 15.697644,
        "length": 0,
        "surfacetype": 1
      }
    ],
    "id": 17943
  },
  {
    "type": 1,
    "icao": "FYOA",
    "lat": -17.878214,
    "lon": 15.9526,
    "communications": [
      {
        "type": 54,
        "frequency": 11970,
        "name": "TWR"
      },
      {
        "type": 55,
        "frequency": 12560,
        "name": "APP"
      }
    ],
    "elevation": 3599,
    "tower": true,
    "name": "ONDANGWA",
    "runways": [
      {
        "type": 100,
        "width": 29.87,
        "surfaceType": null,
        "numberStart": "08",
        "numberEnd": "26",
        "latStart": -17.883806,
        "lonStart": 15.939756,
        "latEnd": -17.872622,
        "lonEnd": 15.965444,
        "length": 0,
        "surfacetype": 1
      }
    ],
    "id": 18668
  },
  {
    "type": 1,
    "icao": "FYOH",
    "lat": -17.8839,
    "lon": 15.06665,
    "communications": [],
    "elevation": 3600,
    "tower": false,
    "name": "Okahao",
    "runways": [
      {
        "type": 100,
        "width": 10.06,
        "surfaceType": null,
        "numberStart": "09",
        "numberEnd": "27",
        "latStart": -17.8839,
        "lonStart": 15.0666,
        "latEnd": -17.8839,
        "lonEnd": 15.0667,
        "length": 0,
        "surfacetype": 3
      }
    ],
    "id": 18854
  },
  {
    "type": 1,
    "icao": "FY32",
    "lat": -17.5,
    "lon": 15,
    "communications": [],
    "elevation": 3500,
    "tower": false,
    "name": "Ombalantu",
    "runways": [
      {
        "type": 100,
        "width": 10.06,
        "surfaceType": null,
        "numberStart": "09",
        "numberEnd": "27",
        "latStart": -17.5,
        "lonStart": 14.9943,
        "latEnd": -17.5,
        "lonEnd": 15.0057,
        "length": 0,
        "surfacetype": 3
      }
    ],
    "id": 18948
  },
  {
    "type": 1,
    "icao": "FYUE",
    "lat": -17.75,
    "lon": 15.83335,
    "communications": [],
    "elevation": 3600,
    "tower": false,
    "name": "Ongwediva",
    "runways": [
      {
        "type": 100,
        "width": 10.06,
        "surfaceType": null,
        "numberStart": "09",
        "numberEnd": "27",
        "latStart": -17.75,
        "lonStart": 15.8333,
        "latEnd": -17.75,
        "lonEnd": 15.8334,
        "length": 0,
        "surfacetype": 3
      }
    ],
    "id": 18971
  },
  {
    "type": 1,
    "icao": "FYOS",
    "lat": -17.79,
    "lon": 15.6933,
    "communications": [],
    "elevation": 3600,
    "tower": false,
    "name": "Oshakati",
    "runways": [
      {
        "type": 100,
        "width": 24.99,
        "surfaceType": null,
        "numberStart": "17",
        "numberEnd": "35",
        "latStart": -17.7841,
        "lonStart": 15.6922,
        "latEnd": -17.7959,
        "lonEnd": 15.6944,
        "length": 0,
        "surfacetype": 1
      }
    ],
    "id": 19056
  }
]