[
  {
    "type": 1,
    "icao": "LIAQ",
    "lat": 41.492250080000005,
    "lon": 27.602400395,
    "communications": [
      {
        "type": 54,
        "frequency": 12690,
        "name": "Aquino Radio"
      }
    ],
    "elevation": 360,
    "tower": false,
    "name": "AQUINO",
    "runways": [
      {
        "type": 100,
        "width": 49.99,
        "surfaceType": null,
        "numberStart": "15",
        "numberEnd": "33",
        "latStart": 41.49568809,
        "lonStart": 13.71598872,
        "latEnd": 41.48881207,
        "lonEnd": 13.7222031,
        "length": 0,
        "surfacetype": 3
      }
    ],
    "id": 352
  },
  {
    "type": 1,
    "icao": "LIAU",
    "lat": 41.11567221,
    "lon": 27.64903961,
    "communications": [
      {
        "type": 54,
        "frequency": 12250,
        "name": "Capua Radio"
      }
    ],
    "elevation": 63,
    "tower": false,
    "name": "CAPUA",
    "runways": [
      {
        "type": 100,
        "width": 60.05,
        "surfaceType": null,
        "numberStart": "08",
        "numberEnd": "26",
        "latStart": 41.11611801,
        "lonStart": 14.18285281,
        "latEnd": 41.11522641,
        "lonEnd": 14.17160595,
        "length": 0,
        "surfacetype": 3
      }
    ],
    "id": 3662
  },
  {
    "type": 1,
    "icao": "LIRA",
    "lat": 41.79924608,
    "lon": 27.18961639,
    "communications": [
      {
        "type": 52,
        "frequency": 11940,
        "name": "CLNC DEL"
      },
      {
        "type": 53,
        "frequency": 12175,
        "name": "GND"
      },
      {
        "type": 54,
        "frequency": 12210,
        "name": "TWR"
      },
      {
        "type": 54,
        "frequency": 12050,
        "name": "TWR"
      },
      {
        "type": 55,
        "frequency": 11920,
        "name": "ROMA ARR"
      },
      {
        "type": 55,
        "frequency": 11920,
        "name": "ROMA DIRECTOR"
      }
    ],
    "elevation": 424,
    "tower": true,
    "name": "CIAMPINO",
    "runways": [
      {
        "type": 100,
        "width": 45,
        "surfaceType": null,
        "numberStart": "15",
        "numberEnd": "33",
        "latStart": 41.80807416,
        "lonStart": 12.58881478,
        "latEnd": 41.790418,
        "lonEnd": 12.601003,
        "length": 0,
        "surfacetype": 1
      }
    ],
    "id": 3925
  },
  {
    "type": 1,
    "icao": "LIRF",
    "lat": 41.81491815375,
    "lon": 27.0244216325,
    "communications": [
      {
        "type": 50,
        "frequency": 12185,
        "name": "ATIS"
      },
      {
        "type": 52,
        "frequency": 12172,
        "name": "FIUME RAMP"
      },
      {
        "type": 53,
        "frequency": 12180,
        "name": "FIUME GND/APRON"
      },
      {
        "type": 53,
        "frequency": 12190,
        "name": "FIUME GND/APRON"
      },
      {
        "type": 53,
        "frequency": 12212,
        "name": "FIUME GND/APRON"
      },
      {
        "type": 54,
        "frequency": 11870,
        "name": "FIUME TWR"
      },
      {
        "type": 54,
        "frequency": 12762,
        "name": "FIUME TWR"
      },
      {
        "type": 55,
        "frequency": 11920,
        "name": "ROMA DIRECTOR ARR"
      }
    ],
    "elevation": 15,
    "tower": true,
    "name": "Roma Fiumicino Leonardo Da Vinci",
    "runways": [
      {
        "type": 100,
        "width": 60.05,
        "surfaceType": null,
        "numberStart": "16R",
        "numberEnd": "34L",
        "latStart": 41.8155025,
        "lonStart": 12.22635872,
        "latEnd": 41.7819605,
        "lonEnd": 12.24040372,
        "length": 0,
        "surfacetype": 1
      },
      {
        "type": 100,
        "width": 45,
        "surfaceType": null,
        "numberStart": "16C",
        "numberEnd": "34C",
        "latStart": 41.84273406,
        "lonStart": 12.25961167,
        "latEnd": 41.81178717,
        "lonEnd": 12.27256547,
        "length": 0,
        "surfacetype": 1
      },
      {
        "type": 100,
        "width": 60.05,
        "surfaceType": null,
        "numberStart": "16L",
        "numberEnd": "34R",
        "latStart": 41.845992,
        "lonStart": 12.261483,
        "latEnd": 41.812422,
        "lonEnd": 12.275536,
        "length": 0,
        "surfacetype": 1
      },
      {
        "type": 100,
        "width": 45.11,
        "surfaceType": null,
        "numberStart": "07",
        "numberEnd": "25",
        "latStart": 41.799319,
        "lonStart": 12.232122,
        "latEnd": 41.809628,
        "lonEnd": 12.269475,
        "length": 0,
        "surfacetype": 1
      }
    ],
    "id": 21691
  }
]