[
  {
    "type": 1,
    "icao": "LFLC",
    "lat": 45.784478,
    "lon": 17.364166333333333,
    "communications": [
      {
        "type": 50,
        "frequency": 12862,
        "name": "CLERMONT FSS"
      },
      {
        "type": 50,
        "frequency": 13640,
        "name": "LFLC ATIS"
      },
      {
        "type": 53,
        "frequency": 12195,
        "name": "CLERMONT GND"
      },
      {
        "type": 54,
        "frequency": 11862,
        "name": "CLERMONT TWR"
      },
      {
        "type": 55,
        "frequency": 12032,
        "name": "CLERMONT APP"
      },
      {
        "type": 55,
        "frequency": 12862,
        "name": "CLERMONT APP"
      }
    ],
    "elevation": 1087,
    "tower": true,
    "name": "Clermont-Ferrand_Auvergne",
    "runways": [
      {
        "type": 100,
        "width": 45.11,
        "surfaceType": null,
        "numberStart": "08",
        "numberEnd": "26",
        "latStart": 45.784821,
        "lonStart": 3.150748,
        "latEnd": 45.788603,
        "lonEnd": 3.189186,
        "length": 0,
        "surfacetype": 1
      },
      {
        "type": 102,
        "width": 23.2,
        "surfaceType": 1,
        "numberStart": "H1",
        "numberEnd": null,
        "latStart": 45.78001,
        "lonStart": 3.153148,
        "latEnd": null,
        "lonEnd": null,
        "length": 28
      }
    ],
    "id": 5083
  },
  {
    "type": 1,
    "icao": "LIME",
    "lat": 45.673390940000004,
    "lon": 17.69221157222222,
    "communications": [
      {
        "type": 54,
        "frequency": 12050,
        "name": "ORIO TWR"
      },
      {
        "type": 54,
        "frequency": 12650,
        "name": "ORIO TWR"
      },
      {
        "type": 55,
        "frequency": 13269,
        "name": "MILAN APP"
      },
      {
        "type": 56,
        "frequency": 12675,
        "name": "MILAN DEP"
      }
    ],
    "elevation": 776,
    "tower": true,
    "name": "Orio Al Serio",
    "runways": [
      {
        "type": 100,
        "width": 18.99,
        "surfaceType": null,
        "numberStart": "12",
        "numberEnd": "30",
        "latStart": 45.67819603,
        "lonStart": 9.70155589,
        "latEnd": 45.67425594,
        "lonEnd": 9.71077024,
        "length": 0,
        "surfacetype": 1
      },
      {
        "type": 100,
        "width": 45,
        "surfaceType": null,
        "numberStart": "10",
        "numberEnd": "28",
        "latStart": 45.67110065,
        "lonStart": 9.68924979,
        "latEnd": 45.66433065,
        "lonEnd": 9.72570379,
        "length": 0,
        "surfacetype": 1
      },
      {
        "type": 102,
        "width": 30.5,
        "surfaceType": 1,
        "numberStart": "H1",
        "numberEnd": null,
        "latStart": 45.67462872,
        "lonStart": 9.69774664,
        "latEnd": null,
        "lonEnd": null,
        "length": 30.5
      },
      {
        "type": 102,
        "width": 30.5,
        "surfaceType": 1,
        "numberStart": "H2",
        "numberEnd": null,
        "latStart": 45.67529172,
        "lonStart": 9.69853564,
        "latEnd": null,
        "lonEnd": null,
        "length": 30.5
      },
      {
        "type": 102,
        "width": 30.5,
        "surfaceType": 1,
        "numberStart": "H3",
        "numberEnd": null,
        "latStart": 45.67586772,
        "lonStart": 9.69929364,
        "latEnd": null,
        "lonEnd": null,
        "length": 30.5
      },
      {
        "type": 102,
        "width": 30.5,
        "surfaceType": 1,
        "numberStart": "H4",
        "numberEnd": null,
        "latStart": 45.67435272,
        "lonStart": 9.70041564,
        "latEnd": null,
        "lonEnd": null,
        "length": 30.5
      },
      {
        "type": 102,
        "width": 30.5,
        "surfaceType": 1,
        "numberStart": "H5",
        "numberEnd": null,
        "latStart": 45.67249431,
        "lonStart": 9.70452032,
        "latEnd": null,
        "lonEnd": null,
        "length": 30.5
      }
    ],
    "id": 19023
  }
]