[
  {
    "type": 17,
    "icao": "K80",
    "lat": 42.955335,
    "lon": -78.87420278,
    "communications": [],
    "elevation": 600,
    "tower": false,
    "name": "[H] B A I",
    "runways": [
      {
        "type": 102,
        "width": 24.4,
        "surfaceType": 1,
        "numberStart": "H1",
        "numberEnd": null,
        "latStart": 42.955335,
        "lonStart": -78.87420278,
        "latEnd": null,
        "lonEnd": null,
        "length": 24.4
      }
    ],
    "id": 28254
  },
  {
    "type": 17,
    "icao": "2NK6",
    "lat": 42.508395,
    "lon": -78.65808112,
    "communications": [],
    "elevation": 1418,
    "tower": false,
    "name": "[H] Bertrand Chaffee Hospital",
    "runways": [
      {
        "type": 102,
        "width": 30.5,
        "surfaceType": 1,
        "numberStart": "H1",
        "numberEnd": null,
        "latStart": 42.508395,
        "lonStart": -78.65808112,
        "latEnd": null,
        "lonEnd": null,
        "length": 30.5
      }
    ],
    "id": 28447
  },
  {
    "type": 17,
    "icao": "37NY",
    "lat": 42.2209,
    "lon": -78.26640334,
    "communications": [],
    "elevation": 1600,
    "tower": false,
    "name": "[H] Cuba Meml Hospital",
    "runways": [
      {
        "type": 102,
        "width": 22.9,
        "surfaceType": 1,
        "numberStart": "H1",
        "numberEnd": null,
        "latStart": 42.2209,
        "lonStart": -78.26640334,
        "latEnd": null,
        "lonEnd": null,
        "length": 36.6
      }
    ],
    "id": 29201
  },
  {
    "type": 17,
    "icao": "21NY",
    "lat": 42.99339333,
    "lon": -78.17834945,
    "communications": [],
    "elevation": 915,
    "tower": false,
    "name": "[H] Gautieri",
    "runways": [
      {
        "type": 102,
        "width": 15.2,
        "surfaceType": 1,
        "numberStart": "H1",
        "numberEnd": null,
        "latStart": 42.99339333,
        "lonStart": -78.17834945,
        "latEnd": null,
        "lonEnd": null,
        "length": 15.2
      }
    ],
    "id": 29892
  },
  {
    "type": 17,
    "icao": "NK58",
    "lat": 42.52839416,
    "lon": -78.90725556,
    "communications": [],
    "elevation": 770,
    "tower": false,
    "name": "[H] Gibraltar",
    "runways": [
      {
        "type": 102,
        "width": 18.3,
        "surfaceType": 2,
        "numberStart": "H1",
        "numberEnd": null,
        "latStart": 42.52839416,
        "lonStart": -78.90725556,
        "latEnd": null,
        "lonEnd": null,
        "length": 18.3
      }
    ],
    "id": 29924
  },
  {
    "type": 17,
    "icao": "47NY",
    "lat": 42.78811416,
    "lon": -78.84947778,
    "communications": [],
    "elevation": 588,
    "tower": false,
    "name": "[H] Heussler Hamburg",
    "runways": [
      {
        "type": 102,
        "width": 20.1,
        "surfaceType": 1,
        "numberStart": "H1",
        "numberEnd": null,
        "latStart": 42.78811416,
        "lonStart": -78.84947778,
        "latEnd": null,
        "lonEnd": null,
        "length": 30.5
      }
    ],
    "id": 30233
  },
  {
    "type": 17,
    "icao": "28NY",
    "lat": 42.977835,
    "lon": -78.88114778,
    "communications": [],
    "elevation": 606,
    "tower": false,
    "name": "[H] Kenmore Mercy Hospital",
    "runways": [
      {
        "type": 102,
        "width": 30.5,
        "surfaceType": 2,
        "numberStart": "H1",
        "numberEnd": null,
        "latStart": 42.977835,
        "lonStart": -78.88114778,
        "latEnd": null,
        "lonEnd": null,
        "length": 30.5
      }
    ],
    "id": 30706
  },
  {
    "type": 17,
    "icao": "NK63",
    "lat": 42.84172527,
    "lon": -78.79975445,
    "communications": [],
    "elevation": 595,
    "tower": false,
    "name": "[H] Mercy Hospital",
    "runways": [
      {
        "type": 102,
        "width": 21.3,
        "surfaceType": 1,
        "numberStart": "H1",
        "numberEnd": null,
        "latStart": 42.84172527,
        "lonStart": -78.79975445,
        "latEnd": null,
        "lonEnd": null,
        "length": 27.4
      }
    ],
    "id": 31274
  },
  {
    "type": 17,
    "icao": "NK36",
    "lat": 42.88311333,
    "lon": -78.86614612,
    "communications": [],
    "elevation": 600,
    "tower": false,
    "name": "[H] Sheehan Memorial Hospital Fire Fighter",
    "runways": [
      {
        "type": 102,
        "width": 22.9,
        "surfaceType": 1,
        "numberStart": "H1",
        "numberEnd": null,
        "latStart": 42.88311333,
        "lonStart": -78.86614612,
        "latEnd": null,
        "lonEnd": null,
        "length": 22.9
      }
    ],
    "id": 32670
  },
  {
    "type": 17,
    "icao": "48NY",
    "lat": 42.67505972,
    "lon": -78.83030973,
    "communications": [],
    "elevation": 1048,
    "tower": false,
    "name": "[H] Tennessee Gas Nr 2",
    "runways": [
      {
        "type": 102,
        "width": 15.2,
        "surfaceType": 1,
        "numberStart": "H1",
        "numberEnd": null,
        "latStart": 42.67505972,
        "lonStart": -78.83030973,
        "latEnd": null,
        "lonEnd": null,
        "length": 15.2
      }
    ],
    "id": 33248
  }
]