[
  {
    "type": 1,
    "icao": "AYDU",
    "lat": -9.087449,
    "lon": 143.20842,
    "communications": [
      {
        "type": 50,
        "frequency": 12770,
        "name": "DAU AWOS"
      }
    ],
    "elevation": 20,
    "tower": false,
    "name": "Daru",
    "runways": [
      {
        "type": 100,
        "width": 30.48,
        "surfaceType": null,
        "numberStart": "14",
        "numberEnd": "32",
        "latStart": -9.09205598,
        "lonStart": 143.21277069,
        "latEnd": -9.08284202,
        "lonEnd": 143.20406931,
        "length": 0,
        "surfacetype": 4
      }
    ],
    "id": 14790
  },
  {
    "type": 1,
    "icao": "YDNI",
    "lat": -9.578934,
    "lon": 143.77869800000002,
    "communications": [
      {
        "type": 51,
        "frequency": 12030,
        "name": "Darnley MULT"
      }
    ],
    "elevation": 220,
    "tower": false,
    "name": "Darnley Island",
    "runways": [
      {
        "type": 100,
        "width": 17.98,
        "surfaceType": null,
        "numberStart": "10",
        "numberEnd": "28",
        "latStart": -9.578352,
        "lonStart": 143.776641,
        "latEnd": -9.579516,
        "lonEnd": 143.780755,
        "length": 0,
        "surfacetype": 1
      }
    ],
    "id": 33156
  },
  {
    "type": 16,
    "icao": "YSTI",
    "lat": -9.509055,
    "lon": 143.550579995,
    "communications": [],
    "elevation": 0,
    "tower": false,
    "name": "[S] STEPHENS ISLAND",
    "runways": [
      {
        "type": 101,
        "width": 14.94,
        "surfaceType": null,
        "numberStart": "18",
        "numberEnd": "36",
        "latStart": -9.50919201,
        "lonStart": 143.55057999,
        "latEnd": -9.50891799,
        "lonEnd": 143.55058,
        "length": 0
      }
    ],
    "id": 34468
  },
  {
    "type": 1,
    "icao": "YYKI",
    "lat": -9.752539160000001,
    "lon": 143.40553176999998,
    "communications": [
      {
        "type": 51,
        "frequency": 12030,
        "name": "Yorke Island MULT"
      }
    ],
    "elevation": 8,
    "tower": false,
    "name": "Yorke Island",
    "runways": [
      {
        "type": 100,
        "width": 17.98,
        "surfaceType": null,
        "numberStart": "12",
        "numberEnd": "30",
        "latStart": -9.7501814,
        "lonStart": 143.40164309,
        "latEnd": -9.75489692,
        "lonEnd": 143.40942045,
        "length": 0,
        "surfacetype": 2
      }
    ],
    "id": 34858
  }
]