[
  {
    "type": 1,
    "icao": "ORKK",
    "lat": 35.469463250000004,
    "lon": 39.89953325,
    "communications": [
      {
        "type": 53,
        "frequency": 12737,
        "name": "GND"
      },
      {
        "type": 54,
        "frequency": 12555,
        "name": "TWR"
      },
      {
        "type": 55,
        "frequency": 12975,
        "name": "APP"
      }
    ],
    "elevation": 1061,
    "tower": true,
    "name": "KIRKUK AB",
    "runways": [
      {
        "type": 100,
        "width": 45.11,
        "surfaceType": null,
        "numberStart": "13",
        "numberEnd": "31",
        "latStart": 35.478922,
        "lonStart": 44.334464,
        "latEnd": 35.460453,
        "lonEnd": 44.358453,
        "length": 0,
        "surfacetype": 2
      },
      {
        "type": 100,
        "width": 48.77,
        "surfaceType": null,
        "numberStart": "14",
        "numberEnd": "32",
        "latStart": 35.478881,
        "lonStart": 44.343619,
        "latEnd": 35.459597,
        "lonEnd": 44.359931,
        "length": 0,
        "surfacetype": 1
      }
    ],
    "id": 13403
  },
  {
    "type": 1,
    "icao": "ORQW",
    "lat": 35.767168749999996,
    "lon": 39.434946499999995,
    "communications": [
      {
        "type": 51,
        "frequency": 12200,
        "name": "CTAF"
      },
      {
        "type": 54,
        "frequency": 12220,
        "name": "TWR"
      }
    ],
    "elevation": 749,
    "tower": true,
    "name": "QAYYARAH WEST",
    "runways": [
      {
        "type": 100,
        "width": 29.87,
        "surfaceType": null,
        "numberStart": "16",
        "numberEnd": "34",
        "latStart": 35.784044,
        "lonStart": 43.122239,
        "latEnd": 35.752206,
        "lonEnd": 43.133817,
        "length": 0,
        "surfacetype": 1
      },
      {
        "type": 100,
        "width": 60.05,
        "surfaceType": null,
        "numberStart": "15",
        "numberEnd": "33",
        "latStart": 35.780206,
        "lonStart": 43.113122,
        "latEnd": 35.752219,
        "lonEnd": 43.131006,
        "length": 0,
        "surfacetype": 2
      }
    ],
    "id": 20653
  }
]