[
  {
    "type": 1,
    "icao": "YBFM",
    "lat": -33.753315745,
    "lon": 44.300989709999996,
    "communications": [],
    "elevation": 332,
    "tower": false,
    "name": "BEEF MACHINE",
    "runways": [
      {
        "type": 100,
        "width": 14.02,
        "surfaceType": null,
        "numberStart": "9",
        "numberEnd": "27",
        "latStart": -33.75299522,
        "lonStart": 122.35561569,
        "latEnd": -33.75363627,
        "lonEnd": 122.369307,
        "length": 0,
        "surfacetype": 4
      }
    ],
    "id": 1604
  },
  {
    "type": 1,
    "icao": "YESP",
    "lat": -33.68350871,
    "lon": 44.0680559275,
    "communications": [
      {
        "type": 51,
        "frequency": 12130,
        "name": "ACTIVATE LIGHTS ONLY MULT"
      },
      {
        "type": 51,
        "frequency": 12670,
        "name": "ESPERANCE MULT"
      },
      {
        "type": 51,
        "frequency": 11980,
        "name": "MELBOURNE CENTRE MULT"
      },
      {
        "type": 54,
        "frequency": 12330,
        "name": "ESPERANCE TWR"
      }
    ],
    "elevation": 470,
    "tower": true,
    "name": "Esperance",
    "runways": [
      {
        "type": 100,
        "width": 29.87,
        "surfaceType": null,
        "numberStart": "11",
        "numberEnd": "29",
        "latStart": -33.68020118,
        "lonStart": 121.81580713,
        "latEnd": -33.68504882,
        "lonEnd": 121.83090458,
        "length": 0,
        "surfacetype": 1
      },
      {
        "type": 100,
        "width": 35.05,
        "surfaceType": null,
        "numberStart": "03",
        "numberEnd": "21",
        "latStart": -33.68945115,
        "lonStart": 121.82079909,
        "latEnd": -33.67933369,
        "lonEnd": 121.82746449,
        "length": 0,
        "surfacetype": 4
      }
    ],
    "id": 7276
  },
  {
    "type": 1,
    "icao": "YMBP",
    "lat": -33.876611345,
    "lon": 44.365226625,
    "communications": [],
    "elevation": 174,
    "tower": false,
    "name": "MEMBINUP",
    "runways": [
      {
        "type": 100,
        "width": 14.02,
        "surfaceType": null,
        "numberStart": "14",
        "numberEnd": "32",
        "latStart": -33.87331317,
        "lonStart": 122.61036277,
        "latEnd": -33.87990952,
        "lonEnd": 122.61623032,
        "length": 0,
        "surfacetype": 4
      }
    ],
    "id": 16017
  },
  {
    "type": 1,
    "icao": "YMYU",
    "lat": -33.7917197225,
    "lon": 44.0809800725,
    "communications": [
      {
        "type": 51,
        "frequency": 12760,
        "name": "CTAF"
      }
    ],
    "elevation": 43,
    "tower": false,
    "name": "Myrup",
    "runways": [
      {
        "type": 100,
        "width": 29.87,
        "surfaceType": null,
        "numberStart": "04",
        "numberEnd": "22",
        "latStart": -33.7962384,
        "lonStart": 121.94931797,
        "latEnd": -33.786531,
        "lonEnd": 121.958581,
        "length": 0,
        "surfacetype": 4
      },
      {
        "type": 100,
        "width": 18.9,
        "surfaceType": null,
        "numberStart": "13",
        "numberEnd": "31",
        "latStart": -33.78911549,
        "lonStart": 121.95612732,
        "latEnd": -33.794994,
        "lonEnd": 121.96334223,
        "length": 0,
        "surfacetype": 4
      }
    ],
    "id": 17786
  },
  {
    "type": 1,
    "icao": "YORL",
    "lat": -33.7930474,
    "lon": 44.57112778,
    "communications": [],
    "elevation": 271,
    "tower": false,
    "name": "ORLEANS FARM",
    "runways": [
      {
        "type": 100,
        "width": 49.99,
        "surfaceType": null,
        "numberStart": "13",
        "numberEnd": "31",
        "latStart": -33.7876348,
        "lonStart": 122.94071556,
        "latEnd": -33.79846,
        "lonEnd": 122.953917,
        "length": 0,
        "surfacetype": 4
      }
    ],
    "id": 18706
  },
  {
    "type": 16,
    "icao": "YEST",
    "lat": -33.866257004999994,
    "lon": 44.01691998,
    "communications": [],
    "elevation": 0,
    "tower": false,
    "name": "[S] ESPERANCE TOWN",
    "runways": [
      {
        "type": 101,
        "width": 14.94,
        "surfaceType": null,
        "numberStart": "9",
        "numberEnd": "27",
        "latStart": -33.86625701,
        "lonStart": 121.90009696,
        "latEnd": -33.866257,
        "lonEnd": 121.900261,
        "length": 0
      }
    ],
    "id": 34078
  }
]