[
  {
    "type": 1,
    "icao": "YBLD",
    "lat": -31.822888605,
    "lon": 116.7990418475,
    "communications": [],
    "elevation": 558,
    "tower": false,
    "name": "Brooklands Skydive Express",
    "runways": [
      {
        "type": 100,
        "width": 18.9,
        "surfaceType": null,
        "numberStart": "10",
        "numberEnd": "28",
        "latStart": -31.82259692,
        "lonStart": 116.79437229,
        "latEnd": -31.82373706,
        "lonEnd": 116.80562544,
        "length": 0,
        "surfacetype": 3
      },
      {
        "type": 100,
        "width": 35.97,
        "surfaceType": null,
        "numberStart": "15",
        "numberEnd": "33",
        "latStart": -31.81853268,
        "lonStart": 116.7955707,
        "latEnd": -31.82668776,
        "lonEnd": 116.80059896,
        "length": 0,
        "surfacetype": 3
      }
    ],
    "id": 32783
  },
  {
    "type": 1,
    "icao": "YBLV",
    "lat": -31.791336,
    "lon": 116.01864499999999,
    "communications": [],
    "elevation": 77,
    "tower": false,
    "name": "Belvoir Park Function Centre",
    "runways": [
      {
        "type": 100,
        "width": 91.14,
        "surfaceType": null,
        "numberStart": "06",
        "numberEnd": "24",
        "latStart": -31.792858,
        "lonStart": 116.015586,
        "latEnd": -31.789814,
        "lonEnd": 116.021704,
        "length": 0,
        "surfacetype": 3
      }
    ],
    "id": 32793
  },
  {
    "type": 1,
    "icao": "YBON",
    "lat": -31.29712562,
    "lon": 116.26379330500001,
    "communications": [],
    "elevation": 1018,
    "tower": false,
    "name": "BINDOON",
    "runways": [
      {
        "type": 100,
        "width": 32.92,
        "surfaceType": null,
        "numberStart": "4",
        "numberEnd": "22",
        "latStart": -31.29505368,
        "lonStart": 116.26644896,
        "latEnd": -31.29919756,
        "lonEnd": 116.26113765,
        "length": 0,
        "surfacetype": 1
      }
    ],
    "id": 32819
  },
  {
    "type": 1,
    "icao": "YBOO",
    "lat": -31.34011074,
    "lon": 116.188213735,
    "communications": [],
    "elevation": 938,
    "tower": false,
    "name": "Bindoon",
    "runways": [
      {
        "type": 100,
        "width": 45.11,
        "surfaceType": null,
        "numberStart": "09",
        "numberEnd": "27",
        "latStart": -31.34013324,
        "lonStart": 116.18028148,
        "latEnd": -31.34008824,
        "lonEnd": 116.19614599,
        "length": 0,
        "surfacetype": 3
      }
    ],
    "id": 32820
  },
  {
    "type": 1,
    "icao": "YGOM",
    "lat": -31.360858059999998,
    "lon": 116.88886296000001,
    "communications": [],
    "elevation": 825,
    "tower": false,
    "name": "Goomalling",
    "runways": [
      {
        "type": 100,
        "width": 6.1,
        "surfaceType": null,
        "numberStart": "06",
        "numberEnd": "24",
        "latStart": -31.36171698,
        "lonStart": 116.88679145,
        "latEnd": -31.35999914,
        "lonEnd": 116.89093447,
        "length": 0,
        "surfacetype": 4
      }
    ],
    "id": 33374
  },
  {
    "type": 17,
    "icao": "YJMO",
    "lat": -31.86572489,
    "lon": 116.01499457,
    "communications": [],
    "elevation": 56,
    "tower": false,
    "name": "[H] JACK MANN OVAL",
    "runways": [
      {
        "type": 102,
        "width": 18,
        "surfaceType": 3,
        "numberStart": "H22",
        "numberEnd": null,
        "latStart": -31.86572489,
        "lonStart": 116.01499457,
        "latEnd": null,
        "lonEnd": null,
        "length": 18
      }
    ],
    "id": 33527
  },
  {
    "type": 1,
    "icao": "YMBE",
    "lat": -31.337353325000002,
    "lon": 116.0159015,
    "communications": [],
    "elevation": 610,
    "tower": false,
    "name": "Mooliabeenie",
    "runways": [
      {
        "type": 100,
        "width": 38.1,
        "surfaceType": null,
        "numberStart": "04",
        "numberEnd": "22",
        "latStart": -31.34147133,
        "lonStart": 116.01156034,
        "latEnd": -31.33323532,
        "lonEnd": 116.02024266,
        "length": 0,
        "surfacetype": 4
      }
    ],
    "id": 33771
  },
  {
    "type": 1,
    "icao": "YMRV",
    "lat": -31.0086542425,
    "lon": 116.809869085,
    "communications": [],
    "elevation": 876,
    "tower": false,
    "name": "MOORE RIVER",
    "runways": [
      {
        "type": 100,
        "width": 49.99,
        "surfaceType": null,
        "numberStart": "9",
        "numberEnd": "27",
        "latStart": -31.00949507,
        "lonStart": 116.80674128,
        "latEnd": -31.00983815,
        "lonEnd": 116.81163655,
        "length": 0,
        "surfacetype": 3
      },
      {
        "type": 100,
        "width": 49.99,
        "surfaceType": null,
        "numberStart": "2",
        "numberEnd": "20",
        "latStart": -31.01194075,
        "lonStart": 116.80815251,
        "latEnd": -31.003343,
        "lonEnd": 116.812946,
        "length": 0,
        "surfacetype": 3
      }
    ],
    "id": 33938
  },
  {
    "type": 1,
    "icao": "YMWR",
    "lat": -31.958445575,
    "lon": 116.187775225,
    "communications": [],
    "elevation": 823,
    "tower": false,
    "name": "MUNDARING WEIR",
    "runways": [
      {
        "type": 100,
        "width": 49.99,
        "surfaceType": null,
        "numberStart": "11",
        "numberEnd": "29",
        "latStart": -31.95742515,
        "lonStart": 116.18521045,
        "latEnd": -31.959466,
        "lonEnd": 116.19034,
        "length": 0,
        "surfacetype": 3
      }
    ],
    "id": 33993
  },
  {
    "type": 1,
    "icao": "YNHM",
    "lat": -31.677751999999998,
    "lon": 116.618887,
    "communications": [],
    "elevation": 964,
    "tower": true,
    "name": "Northam Army Base",
    "runways": [
      {
        "type": 100,
        "width": 46.02,
        "surfaceType": null,
        "numberStart": "17",
        "numberEnd": "35",
        "latStart": -31.680723,
        "lonStart": 116.619502,
        "latEnd": -31.674781,
        "lonEnd": 116.618272,
        "length": 0,
        "surfacetype": 4
      }
    ],
    "id": 34035
  },
  {
    "type": 1,
    "icao": "YNTM",
    "lat": -31.624653000000002,
    "lon": 116.68325300000001,
    "communications": [
      {
        "type": 51,
        "frequency": 12420,
        "name": "Northam MULT"
      },
      {
        "type": 54,
        "frequency": 13000,
        "name": "Melbourne CNTR"
      }
    ],
    "elevation": 500,
    "tower": true,
    "name": "Northam",
    "runways": [
      {
        "type": 100,
        "width": 29.87,
        "surfaceType": null,
        "numberStart": "14",
        "numberEnd": "32",
        "latStart": -31.627927,
        "lonStart": 116.686474,
        "latEnd": -31.621379,
        "lonEnd": 116.680032,
        "length": 0,
        "surfacetype": 1
      }
    ],
    "id": 34080
  },
  {
    "type": 1,
    "icao": "YPEA",
    "lat": -31.671818620000003,
    "lon": 116.01540255142858,
    "communications": [
      {
        "type": 50,
        "frequency": 31610,
        "name": "ATIS"
      },
      {
        "type": 52,
        "frequency": 13410,
        "name": "Pearce Delivery"
      },
      {
        "type": 54,
        "frequency": 11830,
        "name": "Pearce Tower"
      },
      {
        "type": 53,
        "frequency": 12160,
        "name": "Pearce Ground"
      },
      {
        "type": 55,
        "frequency": 13020,
        "name": "Pearce Approach"
      },
      {
        "type": 54,
        "frequency": 12520,
        "name": "Melbourne Centre"
      },
      {
        "type": 54,
        "frequency": 13590,
        "name": "Pearce Centre"
      },
      {
        "type": 54,
        "frequency": 13525,
        "name": "Perth Centre"
      }
    ],
    "elevation": 146,
    "tower": true,
    "name": "Pearce",
    "runways": [
      {
        "type": 100,
        "width": 50,
        "surfaceType": null,
        "numberStart": "18L",
        "numberEnd": "36R",
        "latStart": -31.66242461,
        "lonStart": 116.01374929,
        "latEnd": -31.68429797,
        "lonEnd": 116.01666397,
        "length": 0,
        "surfacetype": 1
      },
      {
        "type": 100,
        "width": 45,
        "surfaceType": null,
        "numberStart": "05",
        "numberEnd": "23",
        "latStart": -31.67242275,
        "lonStart": 116.00863729,
        "latEnd": -31.66150615,
        "lonEnd": 116.0212857,
        "length": 0,
        "surfacetype": 1
      },
      {
        "type": 100,
        "width": 30,
        "surfaceType": null,
        "numberStart": "18R",
        "numberEnd": "36L",
        "latStart": -31.66883877,
        "lonStart": 116.01337229,
        "latEnd": -31.68443002,
        "lonEnd": 116.01545318,
        "length": 0,
        "surfacetype": 1
      },
      {
        "type": 102,
        "width": 20,
        "surfaceType": 1,
        "numberStart": "H1",
        "numberEnd": null,
        "latStart": -31.66881007,
        "lonStart": 116.01865614,
        "latEnd": null,
        "lonEnd": null,
        "length": 20
      }
    ],
    "id": 34183
  },
  {
    "type": 17,
    "icao": "YSCT",
    "lat": -31.648629,
    "lon": 116.126783,
    "communications": [],
    "elevation": 268,
    "tower": false,
    "name": "[H] SOUTH CHITTERING",
    "runways": [
      {
        "type": 102,
        "width": 18,
        "surfaceType": 3,
        "numberStart": "H23",
        "numberEnd": null,
        "latStart": -31.648629,
        "lonStart": 116.126783,
        "latEnd": null,
        "lonEnd": null,
        "length": 18
      }
    ],
    "id": 34384
  },
  {
    "type": 17,
    "icao": "YTVR",
    "lat": -31.7647324,
    "lon": 116.0075238,
    "communications": [],
    "elevation": 81,
    "tower": false,
    "name": "[H] THE VINES",
    "runways": [
      {
        "type": 102,
        "width": 18,
        "surfaceType": 3,
        "numberStart": "H64",
        "numberEnd": null,
        "latStart": -31.7647324,
        "lonStart": 116.0075238,
        "latEnd": null,
        "lonEnd": null,
        "length": 18
      }
    ],
    "id": 34615
  },
  {
    "type": 1,
    "icao": "YWGM",
    "lat": -31.864001385,
    "lon": 116.93468759999999,
    "communications": [],
    "elevation": 958,
    "tower": false,
    "name": "White Gum",
    "runways": [
      {
        "type": 100,
        "width": 18.9,
        "surfaceType": null,
        "numberStart": "08",
        "numberEnd": "26",
        "latStart": -31.86414025,
        "lonStart": 116.93108697,
        "latEnd": -31.86386252,
        "lonEnd": 116.93828823,
        "length": 0,
        "surfacetype": 4
      }
    ],
    "id": 34706
  },
  {
    "type": 1,
    "icao": "YYRK",
    "lat": -31.854681955,
    "lon": 116.79912096999999,
    "communications": [],
    "elevation": 564,
    "tower": false,
    "name": "York",
    "runways": [
      {
        "type": 100,
        "width": 17.07,
        "surfaceType": null,
        "numberStart": "04",
        "numberEnd": "22",
        "latStart": -31.85898045,
        "lonStart": 116.79446743,
        "latEnd": -31.85038346,
        "lonEnd": 116.80377451,
        "length": 0,
        "surfacetype": 3
      }
    ],
    "id": 34870
  }
]