[
  {
    "type": 1,
    "icao": "PANI",
    "lat": 61.581597,
    "lon": -48.9902125,
    "communications": [
      {
        "type": 50,
        "frequency": 12430,
        "name": "AWOS 3"
      },
      {
        "type": 51,
        "frequency": 12210,
        "name": "CTAF"
      },
      {
        "type": 52,
        "frequency": 11815,
        "name": "ANCHORAGE CLNC DEL"
      }
    ],
    "elevation": 87,
    "tower": true,
    "name": "ANIAK",
    "runways": [
      {
        "type": 100,
        "width": 46.02,
        "surfaceType": null,
        "numberStart": "10",
        "numberEnd": "28",
        "latStart": 61.585847,
        "lonStart": -159.557772,
        "latEnd": 61.577347,
        "lonEnd": -159.528317,
        "length": 0,
        "surfacetype": 1
      }
    ],
    "id": 317
  },
  {
    "type": 1,
    "icao": "PACH",
    "lat": 61.58317305,
    "lon": -48.82994553999999,
    "communications": [
      {
        "type": 50,
        "frequency": 12430,
        "name": "AWOS"
      },
      {
        "type": 51,
        "frequency": 12290,
        "name": "CTAF"
      }
    ],
    "elevation": 244,
    "tower": false,
    "name": "Chuathbaluk",
    "runways": [
      {
        "type": 100,
        "width": 13.72,
        "surfaceType": null,
        "numberStart": "14",
        "numberEnd": "32",
        "latStart": 61.58519601,
        "lonStart": -159.23743039,
        "latEnd": 61.58115009,
        "lonEnd": -159.23450295,
        "length": 0,
        "surfacetype": 5
      },
      {
        "type": 100,
        "width": 17.98,
        "surfaceType": null,
        "numberStart": "09",
        "numberEnd": "27",
        "latStart": 61.58445877,
        "lonStart": -159.24538919,
        "latEnd": 61.58188733,
        "lonEnd": -159.2265453,
        "length": 0,
        "surfacetype": 5
      }
    ],
    "id": 4975
  },
  {
    "type": 1,
    "icao": "CJX",
    "lat": 61.869021939999996,
    "lon": -48.13665769000001,
    "communications": [
      {
        "type": 51,
        "frequency": 12280,
        "name": "CTAF"
      }
    ],
    "elevation": 178,
    "tower": false,
    "name": "Crooked Creek",
    "runways": [
      {
        "type": 100,
        "width": 17.98,
        "surfaceType": null,
        "numberStart": "13",
        "numberEnd": "31",
        "latStart": 61.871421,
        "lonStart": -158.13993826,
        "latEnd": 61.86662288,
        "lonEnd": -158.1342973,
        "length": 0,
        "surfacetype": 5
      }
    ],
    "id": 5513
  }
]