[
  {
    "type": 1,
    "icao": "MMIT",
    "lat": 16.449336,
    "lon": -39.327447500000005,
    "communications": [
      {
        "type": 53,
        "frequency": 12170,
        "name": "GND"
      },
      {
        "type": 54,
        "frequency": 11845,
        "name": "TWR"
      }
    ],
    "elevation": 164,
    "tower": true,
    "name": "IXTEPEC",
    "runways": [
      {
        "type": 100,
        "width": 45.11,
        "surfaceType": null,
        "numberStart": "17",
        "numberEnd": "35",
        "latStart": 16.459853,
        "lonStart": -95.093714,
        "latEnd": 16.438819,
        "lonEnd": -95.093683,
        "length": 0,
        "surfacetype": 1
      }
    ],
    "id": 12380
  },
  {
    "type": 1,
    "icao": "MM57",
    "lat": 16.212635,
    "lon": -39.498079000000004,
    "communications": [],
    "elevation": 75,
    "tower": false,
    "name": "NAS SALINA CRUZ",
    "runways": [
      {
        "type": 100,
        "width": 21.34,
        "surfaceType": null,
        "numberStart": "18",
        "numberEnd": "36",
        "latStart": 16.220292,
        "lonStart": -95.201136,
        "latEnd": 16.204978,
        "lonEnd": -95.202031,
        "length": 0,
        "surfacetype": 1
      }
    ],
    "id": 17844
  },
  {
    "type": 1,
    "icao": "MMOX",
    "lat": 16.998701500000003,
    "lon": -39.859852499999995,
    "communications": [
      {
        "type": 54,
        "frequency": 11830,
        "name": "OAXACA TWR"
      },
      {
        "type": 55,
        "frequency": 12110,
        "name": "OAXACA APP"
      }
    ],
    "elevation": 4988,
    "tower": true,
    "name": "XOXOCOTLAN INTL",
    "runways": [
      {
        "type": 100,
        "width": 45.11,
        "surfaceType": null,
        "numberStart": "01",
        "numberEnd": "19",
        "latStart": 16.98805,
        "lonStart": -96.729058,
        "latEnd": 17.009353,
        "lonEnd": -96.722831,
        "length": 0,
        "surfacetype": 1
      }
    ],
    "id": 27625
  }
]