[
  {
    "type": 1,
    "icao": "NZOH",
    "lat": -40.20433600857143,
    "lon": 175.38280632142855,
    "communications": [
      {
        "type": 50,
        "frequency": 13500,
        "name": "ATIS"
      },
      {
        "type": 51,
        "frequency": 13450,
        "name": "CTAF"
      },
      {
        "type": 53,
        "frequency": 12210,
        "name": "GND"
      },
      {
        "type": 54,
        "frequency": 13450,
        "name": "TWR"
      },
      {
        "type": 55,
        "frequency": 12320,
        "name": "APP"
      },
      {
        "type": 55,
        "frequency": 12510,
        "name": "APP"
      },
      {
        "type": 55,
        "frequency": 12850,
        "name": "APP"
      }
    ],
    "elevation": 164,
    "tower": true,
    "name": "Ohakea",
    "runways": [
      {
        "type": 100,
        "width": 45.11,
        "surfaceType": null,
        "numberStart": "09",
        "numberEnd": "27",
        "latStart": -40.20215811,
        "lonStart": 175.37256791,
        "latEnd": -40.20930177,
        "lonEnd": 175.39973286,
        "length": 0,
        "surfacetype": 1
      },
      {
        "type": 100,
        "width": 47.92,
        "surfaceType": null,
        "numberStart": "15",
        "numberEnd": "33",
        "latStart": -40.1983257,
        "lonStart": 175.38570422,
        "latEnd": -40.21723872,
        "lonEnd": 175.39046978,
        "length": 0,
        "surfacetype": 1
      },
      {
        "type": 100,
        "width": 27.13,
        "surfaceType": null,
        "numberStart": "09L",
        "numberEnd": "27R",
        "latStart": -40.20104877,
        "lonStart": 175.37462177,
        "latEnd": -40.20268633,
        "lonEnd": 175.38073233,
        "length": 0,
        "surfacetype": 3
      },
      {
        "type": 102,
        "width": 15,
        "surfaceType": 2,
        "numberStart": "H1",
        "numberEnd": null,
        "latStart": -40.19959266,
        "lonStart": 175.37581538,
        "latEnd": null,
        "lonEnd": null,
        "length": 15
      }
    ],
    "id": 4257
  },
  {
    "type": 1,
    "icao": "NZPM",
    "lat": -40.3206222675,
    "lon": 175.616647785,
    "communications": [
      {
        "type": 50,
        "frequency": 12970,
        "name": "ATIS"
      },
      {
        "type": 51,
        "frequency": 12060,
        "name": "CTAF"
      },
      {
        "type": 53,
        "frequency": 12170,
        "name": "GND"
      },
      {
        "type": 54,
        "frequency": 12060,
        "name": "TWR"
      },
      {
        "type": 55,
        "frequency": 12510,
        "name": "OHAKEA APP"
      },
      {
        "type": 55,
        "frequency": 12850,
        "name": "OHAKEA APP"
      },
      {
        "type": 55,
        "frequency": 12320,
        "name": "OHAKEA APP"
      }
    ],
    "elevation": 150,
    "tower": true,
    "name": "Palmerston North",
    "runways": [
      {
        "type": 100,
        "width": 45.11,
        "surfaceType": null,
        "numberStart": "07",
        "numberEnd": "25",
        "latStart": -40.319882,
        "lonStart": 175.603226,
        "latEnd": -40.31984,
        "lonEnd": 175.625604,
        "length": 0,
        "surfacetype": 1
      },
      {
        "type": 100,
        "width": 60.05,
        "surfaceType": null,
        "numberStart": "07R",
        "numberEnd": "25L",
        "latStart": -40.32139219,
        "lonStart": 175.61545514,
        "latEnd": -40.32137488,
        "lonEnd": 175.622306,
        "length": 0,
        "surfacetype": 3
      }
    ],
    "id": 4263
  },
  {
    "type": 1,
    "icao": "NZAN",
    "lat": -40.697998,
    "lon": 175.8553162,
    "communications": [],
    "elevation": 500,
    "tower": false,
    "name": "Alfredton",
    "runways": [
      {
        "type": 100,
        "width": 50.29,
        "surfaceType": null,
        "numberStart": "15",
        "numberEnd": "33",
        "latStart": -40.6944125,
        "lonStart": 175.85465155,
        "latEnd": -40.7015835,
        "lonEnd": 175.85598085,
        "length": 0,
        "surfacetype": 3
      }
    ],
    "id": 23061
  },
  {
    "type": 1,
    "icao": "NZFP",
    "lat": -40.4566574,
    "lon": 175.2702789,
    "communications": [],
    "elevation": 36,
    "tower": false,
    "name": "Pine Park",
    "runways": [
      {
        "type": 100,
        "width": 40.23,
        "surfaceType": null,
        "numberStart": "09",
        "numberEnd": "27",
        "latStart": -40.45493627,
        "lonStart": 175.26468032,
        "latEnd": -40.45837853,
        "lonEnd": 175.27587748,
        "length": 0,
        "surfacetype": 3
      }
    ],
    "id": 23062
  },
  {
    "type": 1,
    "icao": "NZMS",
    "lat": -40.97512336875,
    "lon": 175.632939435,
    "communications": [
      {
        "type": 50,
        "frequency": 12420,
        "name": "CHRISTCHURCH FSS"
      },
      {
        "type": 50,
        "frequency": 13280,
        "name": "MASTERTON AWOS"
      },
      {
        "type": 51,
        "frequency": 11910,
        "name": "MASTERTON MULT"
      },
      {
        "type": 55,
        "frequency": 12670,
        "name": "OHAKEA APP"
      }
    ],
    "elevation": 350,
    "tower": true,
    "name": "Hood_Aerodrome",
    "runways": [
      {
        "type": 100,
        "width": 22.86,
        "surfaceType": null,
        "numberStart": "06",
        "numberEnd": "24",
        "latStart": -40.976038,
        "lonStart": 175.627839,
        "latEnd": -40.97345695,
        "lonEnd": 175.64158248,
        "length": 0,
        "surfacetype": 1
      },
      {
        "type": 100,
        "width": 29.87,
        "surfaceType": null,
        "numberStart": "10",
        "numberEnd": "28",
        "latStart": -40.972303,
        "lonStart": 175.626806,
        "latEnd": -40.977681,
        "lonEnd": 175.636962,
        "length": 0,
        "surfacetype": 3
      },
      {
        "type": 100,
        "width": 20.12,
        "surfaceType": null,
        "numberStart": "06L",
        "numberEnd": "24R",
        "latStart": -40.975461,
        "lonStart": 175.627297,
        "latEnd": -40.974585,
        "lonEnd": 175.632525,
        "length": 0,
        "surfacetype": 3
      },
      {
        "type": 100,
        "width": 29.87,
        "surfaceType": null,
        "numberStart": "06R",
        "numberEnd": "24L",
        "latStart": -40.976763,
        "lonStart": 175.629095,
        "latEnd": -40.974699,
        "lonEnd": 175.641409,
        "length": 0,
        "surfacetype": 3
      }
    ],
    "id": 23070
  }
]