[
  {
    "type": 1,
    "icao": "KFUL",
    "lat": 33.871594624,
    "lon": -87.609388932,
    "communications": [
      {
        "type": 50,
        "frequency": 12505,
        "name": "ATIS"
      },
      {
        "type": 51,
        "frequency": 11910,
        "name": "CTAF"
      },
      {
        "type": 51,
        "frequency": 12295,
        "name": "UNICOM"
      },
      {
        "type": 53,
        "frequency": 12180,
        "name": "GND"
      },
      {
        "type": 54,
        "frequency": 11910,
        "name": "TWR"
      },
      {
        "type": 55,
        "frequency": 12465,
        "name": "SOCAL APP/DEP"
      }
    ],
    "elevation": 96,
    "tower": true,
    "name": "Fullerton Muni",
    "runways": [
      {
        "type": 100,
        "width": 22.86,
        "surfaceType": null,
        "numberStart": "06",
        "numberEnd": "24",
        "latStart": 33.871058,
        "lonStart": -117.984806,
        "latEnd": 33.87299,
        "lonEnd": -117.97479,
        "length": 0,
        "surfacetype": 1
      },
      {
        "type": 102,
        "width": 10.97,
        "surfaceType": 2,
        "numberStart": "H1",
        "numberEnd": null,
        "latStart": 33.87118646,
        "lonStart": -117.98078889,
        "latEnd": null,
        "lonEnd": null,
        "length": 10.97
      },
      {
        "type": 102,
        "width": 10.97,
        "surfaceType": 2,
        "numberStart": "H2",
        "numberEnd": null,
        "latStart": 33.87146685,
        "lonStart": -117.9771978,
        "latEnd": null,
        "lonEnd": null,
        "length": 10.97
      },
      {
        "type": 102,
        "width": 10.97,
        "surfaceType": 2,
        "numberStart": "H3",
        "numberEnd": null,
        "latStart": 33.87127181,
        "lonStart": -117.97714197,
        "latEnd": null,
        "lonEnd": null,
        "length": 10.97
      }
    ],
    "id": 9783
  },
  {
    "type": 17,
    "icao": "AL26",
    "lat": 33.20595166,
    "lon": -87.52778334,
    "communications": [],
    "elevation": 283,
    "tower": false,
    "name": "[H] Bryant Culberson",
    "runways": [
      {
        "type": 102,
        "width": 15.2,
        "surfaceType": 2,
        "numberStart": "H1",
        "numberEnd": null,
        "latStart": 33.20595166,
        "lonStart": -87.52778334,
        "latEnd": null,
        "lonEnd": null,
        "length": 15.2
      }
    ],
    "id": 28612
  },
  {
    "type": 17,
    "icao": "AL98",
    "lat": 33.20611111,
    "lon": -87.52638889,
    "communications": [],
    "elevation": 284,
    "tower": false,
    "name": "[H] Dch Regional Medical Center",
    "runways": [
      {
        "type": 102,
        "width": 15.2,
        "surfaceType": 2,
        "numberStart": "H1",
        "numberEnd": null,
        "latStart": 33.20611111,
        "lonStart": -87.52638889,
        "latEnd": null,
        "lonEnd": null,
        "length": 15.2
      }
    ],
    "id": 29276
  },
  {
    "type": 17,
    "icao": "AL06",
    "lat": 33.51594305,
    "lon": -87.25666584,
    "communications": [],
    "elevation": 470,
    "tower": false,
    "name": "[H] Drummond",
    "runways": [
      {
        "type": 102,
        "width": 7.6,
        "surfaceType": 2,
        "numberStart": "H1",
        "numberEnd": null,
        "latStart": 33.51594305,
        "lonStart": -87.25666584,
        "latEnd": null,
        "lonEnd": null,
        "length": 7.6
      }
    ],
    "id": 29415
  },
  {
    "type": 17,
    "icao": "3AL0",
    "lat": 33.70916666,
    "lon": -87.82361112,
    "communications": [],
    "elevation": 370,
    "tower": false,
    "name": "[H] Fayette County Hospital",
    "runways": [
      {
        "type": 102,
        "width": 15.2,
        "surfaceType": 2,
        "numberStart": "H1",
        "numberEnd": null,
        "latStart": 33.70916666,
        "lonStart": -87.82361112,
        "latEnd": null,
        "lonEnd": null,
        "length": 15.2
      }
    ],
    "id": 29657
  },
  {
    "type": 17,
    "icao": "AL63",
    "lat": 33.84344,
    "lon": -87.23389362,
    "communications": [],
    "elevation": 416,
    "tower": false,
    "name": "[H] Walker Regional Medical Center",
    "runways": [
      {
        "type": 102,
        "width": 9.1,
        "surfaceType": 2,
        "numberStart": "H1",
        "numberEnd": null,
        "latStart": 33.84344,
        "lonStart": -87.23389362,
        "latEnd": null,
        "lonEnd": null,
        "length": 9.1
      }
    ],
    "id": 33709
  }
]