[
  {
    "type": 1,
    "icao": "SVIE",
    "lat": 10.7944055,
    "lon": -26.596186000000003,
    "communications": [],
    "elevation": 9,
    "tower": true,
    "name": "ANDRES MIGUEL SALAZAR MARCANO",
    "runways": [
      {
        "type": 100,
        "width": 29.87,
        "surfaceType": null,
        "numberStart": "09",
        "numberEnd": "27",
        "latStart": 10.794158,
        "lonStart": -63.987025,
        "latEnd": 10.794653,
        "lonEnd": -63.976153,
        "length": 0,
        "surfacetype": 1
      }
    ],
    "id": 307
  },
  {
    "type": 1,
    "icao": "SVCU",
    "lat": 10.4503335,
    "lon": -26.843093,
    "communications": [
      {
        "type": 53,
        "frequency": 12190,
        "name": "GND"
      },
      {
        "type": 54,
        "frequency": 11890,
        "name": "CUMANA TWR"
      }
    ],
    "elevation": 24,
    "tower": true,
    "name": "ANTONIO JOSE DE SUCRE",
    "runways": [
      {
        "type": 100,
        "width": 45.11,
        "surfaceType": null,
        "numberStart": "08",
        "numberEnd": "26",
        "latStart": 10.443836,
        "lonStart": -64.143017,
        "latEnd": 10.456831,
        "lonEnd": -64.117928,
        "length": 0,
        "surfacetype": 1
      }
    ],
    "id": 333
  },
  {
    "type": 1,
    "icao": "SVMG",
    "lat": 10.913111472499999,
    "lon": -26.532751815,
    "communications": [
      {
        "type": 50,
        "frequency": 13265,
        "name": "ATIS"
      },
      {
        "type": 54,
        "frequency": 11860,
        "name": "TWR"
      },
      {
        "type": 55,
        "frequency": 11990,
        "name": "MARGARITA APP"
      }
    ],
    "elevation": 74,
    "tower": true,
    "name": "DEL CARIBE INTL GEN SANTIAGO MARINO",
    "runways": [
      {
        "type": 100,
        "width": 45.72,
        "surfaceType": null,
        "numberStart": "09",
        "numberEnd": "27",
        "latStart": 10.90967482,
        "lonStart": -63.9808858,
        "latEnd": 10.91549382,
        "lonEnd": -63.9522108,
        "length": 0,
        "surfacetype": 1
      },
      {
        "type": 100,
        "width": 30.48,
        "surfaceType": null,
        "numberStart": "09L",
        "numberEnd": "27R",
        "latStart": 10.91086392,
        "lonStart": -63.98202861,
        "latEnd": 10.91641333,
        "lonEnd": -63.95507362,
        "length": 0,
        "surfacetype": 1
      }
    ],
    "id": 5742
  },
  {
    "type": 1,
    "icao": "SVCP",
    "lat": 10.660014,
    "lon": -26.3062805,
    "communications": [
      {
        "type": 54,
        "frequency": 12240,
        "name": "CARUPANO TWR"
      }
    ],
    "elevation": 33,
    "tower": true,
    "name": "GENERAL JOSE FRANCISCO BERMUDEZ",
    "runways": [
      {
        "type": 100,
        "width": 45.11,
        "surfaceType": null,
        "numberStart": "17",
        "numberEnd": "35",
        "latStart": 10.668922,
        "lonStart": -63.263667,
        "latEnd": 10.651106,
        "lonEnd": -63.259694,
        "length": 0,
        "surfacetype": 1
      }
    ],
    "id": 9933
  },
  {
    "type": 1,
    "icao": "SVRA",
    "lat": 10.574123,
    "lon": -26.2076585,
    "communications": [],
    "elevation": 33,
    "tower": false,
    "name": "RIO DE AGUA",
    "runways": [
      {
        "type": 100,
        "width": 14.94,
        "surfaceType": null,
        "numberStart": "10",
        "numberEnd": "28",
        "latStart": 10.573823,
        "lonStart": -62.98974,
        "latEnd": 10.574423,
        "lonEnd": -62.980624,
        "length": 0,
        "surfacetype": 1
      }
    ],
    "id": 20947
  }
]