[
  {
    "type": 1,
    "icao": "PACZ",
    "lat": 61.780137499999995,
    "lon": -52.1305595,
    "communications": [
      {
        "type": 54,
        "frequency": 12620,
        "name": "INFO"
      }
    ],
    "elevation": 457,
    "tower": false,
    "name": "CAPE ROMANZOF LRRS",
    "runways": [
      {
        "type": 100,
        "width": 41.15,
        "surfaceType": null,
        "numberStart": "02",
        "numberEnd": "20",
        "latStart": 61.775833,
        "lonStart": -166.045561,
        "latEnd": 61.784442,
        "lonEnd": -166.03195,
        "length": 0,
        "surfacetype": 5
      }
    ],
    "id": 3646
  },
  {
    "type": 1,
    "icao": "PAVA",
    "lat": 61.5338445,
    "lon": -52.02816800000001,
    "communications": [
      {
        "type": 51,
        "frequency": 12300,
        "name": "CTAF"
      },
      {
        "type": 51,
        "frequency": 12280,
        "name": "UNICOM"
      }
    ],
    "elevation": 75,
    "tower": false,
    "name": "CHEVAK",
    "runways": [
      {
        "type": 100,
        "width": 14.94,
        "surfaceType": null,
        "numberStart": "14",
        "numberEnd": "32",
        "latStart": 61.537236,
        "lonStart": -165.586789,
        "latEnd": 61.530453,
        "lonEnd": -165.580956,
        "length": 0,
        "surfacetype": 5
      }
    ],
    "id": 3876
  },
  {
    "type": 1,
    "icao": "PAHP",
    "lat": 61.523872,
    "lon": -52.31576150000001,
    "communications": [
      {
        "type": 50,
        "frequency": 13510,
        "name": "AWOS 3"
      },
      {
        "type": 51,
        "frequency": 12300,
        "name": "CTAF"
      }
    ],
    "elevation": 7,
    "tower": true,
    "name": "HOOPER BAY",
    "runways": [
      {
        "type": 100,
        "width": 22.86,
        "surfaceType": null,
        "numberStart": "13",
        "numberEnd": "31",
        "latStart": 61.527725,
        "lonStart": -166.151542,
        "latEnd": 61.520019,
        "lonEnd": -166.141708,
        "length": 0,
        "surfacetype": 1
      }
    ],
    "id": 11186
  }
]