[
  {
    "type": 1,
    "icao": "LFBZ",
    "lat": 43.46903003285714,
    "lon": 4.893499329999999,
    "communications": [
      {
        "type": 50,
        "frequency": 12822,
        "name": "LFBZ ATIS"
      },
      {
        "type": 53,
        "frequency": 12195,
        "name": "BIARRITZ GND"
      },
      {
        "type": 54,
        "frequency": 11870,
        "name": "BIARRITZ TWR"
      },
      {
        "type": 55,
        "frequency": 12560,
        "name": "BIARRITZ APP"
      }
    ],
    "elevation": 245,
    "tower": true,
    "name": "Biarritz-Anglet-Bayonne",
    "runways": [
      {
        "type": 100,
        "width": 45.11,
        "surfaceType": null,
        "numberStart": "09",
        "numberEnd": "27",
        "latStart": 43.46827347,
        "lonStart": -1.53726988,
        "latEnd": 43.46857996,
        "lonEnd": -1.50937511,
        "length": 0,
        "surfacetype": 1
      },
      {
        "type": 102,
        "width": 29.9,
        "surfaceType": 2,
        "numberStart": "H1",
        "numberEnd": null,
        "latStart": 43.46927375,
        "lonStart": -1.53507707,
        "latEnd": null,
        "lonEnd": null,
        "length": 32
      },
      {
        "type": 102,
        "width": 11,
        "surfaceType": 1,
        "numberStart": "H2",
        "numberEnd": null,
        "latStart": 43.47045904,
        "lonStart": -1.5353972,
        "latEnd": null,
        "lonEnd": null,
        "length": 11
      },
      {
        "type": 102,
        "width": 11,
        "surfaceType": 1,
        "numberStart": "H3",
        "numberEnd": null,
        "latStart": 43.4703109,
        "lonStart": -1.5353942,
        "latEnd": null,
        "lonEnd": null,
        "length": 11
      },
      {
        "type": 102,
        "width": 11,
        "surfaceType": 1,
        "numberStart": "H4",
        "numberEnd": null,
        "latStart": 43.47015947,
        "lonStart": -1.53539223,
        "latEnd": null,
        "lonEnd": null,
        "length": 11
      },
      {
        "type": 102,
        "width": 14.9,
        "surfaceType": 2,
        "numberStart": "H5",
        "numberEnd": null,
        "latStart": 43.46615364,
        "lonStart": -1.53555407,
        "latEnd": null,
        "lonEnd": null,
        "length": 14.9
      }
    ],
    "id": 2666
  }
]