[
  {
    "type": 1,
    "icao": "ESKH",
    "lat": 60.15429983,
    "lon": 13.528670734999999,
    "communications": [],
    "elevation": 459,
    "tower": false,
    "name": "Eksharad",
    "runways": [
      {
        "type": 100,
        "width": 40.23,
        "surfaceType": null,
        "numberStart": "15",
        "numberEnd": "33",
        "latStart": 60.15662098,
        "lonStart": 13.52657462,
        "latEnd": 60.15197868,
        "lonEnd": 13.53076685,
        "length": 0,
        "surfacetype": 3
      }
    ],
    "id": 7022
  },
  {
    "type": 1,
    "icao": "ESOH",
    "lat": 60.020044999999996,
    "lon": 13.5788985,
    "communications": [
      {
        "type": 54,
        "frequency": 12222,
        "name": "AFIS"
      }
    ],
    "elevation": 474,
    "tower": true,
    "name": "Hagfors",
    "runways": [
      {
        "type": 100,
        "width": 30,
        "surfaceType": null,
        "numberStart": "18",
        "numberEnd": "36",
        "latStart": 60.026792,
        "lonStart": 13.578114,
        "latEnd": 60.013298,
        "lonEnd": 13.579683,
        "length": 0,
        "surfacetype": 1
      }
    ],
    "id": 11301
  },
  {
    "type": 1,
    "icao": "ESVM",
    "lat": 60.65894909,
    "lon": 13.72690798,
    "communications": [
      {
        "type": 51,
        "frequency": 12333,
        "name": "Malung Radio"
      }
    ],
    "elevation": 975,
    "tower": false,
    "name": "Malung Skinnlanda",
    "runways": [
      {
        "type": 100,
        "width": 23.16,
        "surfaceType": null,
        "numberStart": "16",
        "numberEnd": "34",
        "latStart": 60.66229018,
        "lonStart": 13.72430596,
        "latEnd": 60.655608,
        "lonEnd": 13.72951,
        "length": 0,
        "surfacetype": 1
      }
    ],
    "id": 16555
  }
]