[
  {
    "type": 1,
    "icao": "BVP",
    "lat": -5.387301,
    "lon": 68.15728938,
    "communications": [
      {
        "type": 50,
        "frequency": 12770,
        "name": "BVP AWOS"
      }
    ],
    "elevation": 5000,
    "tower": false,
    "name": "Bolovip",
    "runways": [
      {
        "type": 100,
        "width": 30.48,
        "surfaceType": null,
        "numberStart": "14",
        "numberEnd": "32",
        "latStart": -5.38598661,
        "lonStart": 141.70319415,
        "latEnd": -5.38861539,
        "lonEnd": 141.70518385,
        "length": 0,
        "surfacetype": 4
      }
    ],
    "id": 2948
  },
  {
    "type": 1,
    "icao": "KDP",
    "lat": -5.8405946150000005,
    "lon": 68.830755335,
    "communications": [
      {
        "type": 50,
        "frequency": 13065,
        "name": "KDP AWOS"
      },
      {
        "type": 53,
        "frequency": 13085,
        "name": "KANDEP GND"
      },
      {
        "type": 54,
        "frequency": 13080,
        "name": "KANDEP TWR"
      }
    ],
    "elevation": 7727,
    "tower": true,
    "name": "Kandep",
    "runways": [
      {
        "type": 100,
        "width": 60.05,
        "surfaceType": null,
        "numberStart": "09",
        "numberEnd": "27",
        "latStart": -5.84040726,
        "lonStart": 143.50229264,
        "latEnd": -5.84078197,
        "lonEnd": 143.51209747,
        "length": 0,
        "surfacetype": 3
      }
    ],
    "id": 13586
  },
  {
    "type": 1,
    "icao": "OLQ",
    "lat": -5.389915,
    "lon": 68.06130179499999,
    "communications": [
      {
        "type": 50,
        "frequency": 12770,
        "name": "OLQ AWOS"
      }
    ],
    "elevation": 1250,
    "tower": false,
    "name": "Olsobip",
    "runways": [
      {
        "type": 100,
        "width": 30.48,
        "surfaceType": null,
        "numberStart": "18",
        "numberEnd": "36",
        "latStart": -5.38714459,
        "lonStart": 141.515289,
        "latEnd": -5.39268541,
        "lonEnd": 141.515289,
        "length": 0,
        "surfacetype": 4
      }
    ],
    "id": 18927
  },
  {
    "type": 1,
    "icao": "AYTE",
    "lat": -5.127933465,
    "lon": 68.257780805,
    "communications": [],
    "elevation": 4959,
    "tower": false,
    "name": "Telefomin",
    "runways": [
      {
        "type": 100,
        "width": 49.99,
        "surfaceType": null,
        "numberStart": "4",
        "numberEnd": "22",
        "latStart": -5.13186685,
        "lonStart": 141.63956169,
        "latEnd": -5.12400008,
        "lonEnd": 141.64835288,
        "length": 0,
        "surfacetype": 4
      }
    ],
    "id": 25138
  }
]