[
  {
    "type": 1,
    "icao": "WIMH",
    "lat": 3.682503165,
    "lon": 51.159582244999996,
    "communications": [],
    "elevation": 47,
    "tower": false,
    "name": "Helvetia",
    "runways": [
      {
        "type": 100,
        "width": 18.27,
        "surfaceType": null,
        "numberStart": "09",
        "numberEnd": "27",
        "latStart": 3.68258817,
        "lonStart": 98.63674633,
        "latEnd": 3.68241816,
        "lonEnd": 98.64347682,
        "length": 0,
        "surfacetype": 3
      }
    ],
    "id": 11657
  },
  {
    "type": 1,
    "icao": "WIMM",
    "lat": 3.558057,
    "lon": 51.114627999999996,
    "communications": [
      {
        "type": 50,
        "frequency": 12680,
        "name": "MEDAN ATIS"
      },
      {
        "type": 54,
        "frequency": 11810,
        "name": "TWR"
      },
      {
        "type": 55,
        "frequency": 11970,
        "name": "MEDAN APP"
      }
    ],
    "elevation": 90,
    "tower": true,
    "name": "Medan/Polonia",
    "runways": [
      {
        "type": 100,
        "width": 45.11,
        "surfaceType": null,
        "numberStart": "05",
        "numberEnd": "23",
        "latStart": 3.549075,
        "lonStart": 98.662217,
        "latEnd": 3.567039,
        "lonEnd": 98.681214,
        "length": 0,
        "surfacetype": 1
      }
    ],
    "id": 17007
  }
]