[
  {
    "type": 1,
    "icao": "CYCT",
    "lat": 52.07492336,
    "lon": -111.44606415999999,
    "communications": [
      {
        "type": 51,
        "frequency": 12280,
        "name": "CTAF"
      }
    ],
    "elevation": 2595,
    "tower": false,
    "name": "CORONATION",
    "runways": [
      {
        "type": 100,
        "width": 22.86,
        "surfaceType": null,
        "numberStart": "11",
        "numberEnd": "29",
        "latStart": 52.07734638,
        "lonStart": -111.45146279,
        "latEnd": 52.07250034,
        "lonEnd": -111.44066553,
        "length": 0,
        "surfacetype": 1
      }
    ],
    "id": 741
  },
  {
    "type": 1,
    "icao": "EA5",
    "lat": 52.64651432,
    "lon": -111.385430055,
    "communications": [
      {
        "type": 54,
        "frequency": 12320,
        "name": "Traffic"
      }
    ],
    "elevation": 2326,
    "tower": false,
    "name": "Hardisty",
    "runways": [
      {
        "type": 100,
        "width": 22.86,
        "surfaceType": null,
        "numberStart": "07",
        "numberEnd": "25",
        "latStart": 52.64651432,
        "lonStart": -111.39219398,
        "latEnd": 52.64651432,
        "lonEnd": -111.37866613,
        "length": 0,
        "surfacetype": 1
      }
    ],
    "id": 939
  },
  {
    "type": 1,
    "icao": "ER2",
    "lat": 52.221519334999996,
    "lon": -111.927588095,
    "communications": [
      {
        "type": 54,
        "frequency": 12320,
        "name": "Traffic"
      }
    ],
    "elevation": 2704,
    "tower": false,
    "name": "Castor",
    "runways": [
      {
        "type": 100,
        "width": 22.86,
        "surfaceType": null,
        "numberStart": "13",
        "numberEnd": "31",
        "latStart": 52.22497188,
        "lonStart": -111.93124103,
        "latEnd": 52.21806679,
        "lonEnd": -111.92393516,
        "length": 0,
        "surfacetype": 1
      }
    ],
    "id": 1864
  },
  {
    "type": 1,
    "icao": "CFP7",
    "lat": 52.830557,
    "lon": -111.1005555,
    "communications": [],
    "elevation": 2250,
    "tower": false,
    "name": "WAINWRIGHT FIELD 21",
    "runways": [
      {
        "type": 100,
        "width": 25.91,
        "surfaceType": null,
        "numberStart": "11",
        "numberEnd": "29",
        "latStart": 52.836114,
        "lonStart": -111.1125,
        "latEnd": 52.825,
        "lonEnd": -111.088611,
        "length": 0,
        "surfacetype": 1
      }
    ],
    "id": 15198
  },
  {
    "type": 1,
    "icao": "EK6",
    "lat": 52.799999,
    "lon": -111.76670100000001,
    "communications": [],
    "elevation": 2182,
    "tower": false,
    "name": "Killam",
    "runways": [
      {
        "type": 100,
        "width": 22.86,
        "surfaceType": null,
        "numberStart": "11",
        "numberEnd": "29",
        "latStart": 52.80254517,
        "lonStart": -111.77190156,
        "latEnd": 52.79745283,
        "lonEnd": -111.76150044,
        "length": 0,
        "surfacetype": 1
      }
    ],
    "id": 16467
  }
]