[
  {
    "type": 1,
    "icao": "6AR2",
    "lat": 35.02036694,
    "lon": -93.06489667,
    "communications": [],
    "elevation": 370,
    "tower": false,
    "name": "Ajs",
    "runways": [
      {
        "type": 100,
        "width": 22.86,
        "surfaceType": null,
        "numberStart": "15",
        "numberEnd": "33",
        "latStart": 35.02320212,
        "lonStart": -93.06658519,
        "latEnd": 35.01753176,
        "lonEnd": -93.06320815,
        "length": 0,
        "surfacetype": 3
      }
    ],
    "id": 776
  },
  {
    "type": 1,
    "icao": "4M2",
    "lat": 35.149528000000004,
    "lon": -93.863389,
    "communications": [
      {
        "type": 51,
        "frequency": 12280,
        "name": "CTAF/UNICOM"
      }
    ],
    "elevation": 464,
    "tower": false,
    "name": "BOONEVILLE MUNI",
    "runways": [
      {
        "type": 100,
        "width": 15.24,
        "surfaceType": null,
        "numberStart": "09",
        "numberEnd": "27",
        "latStart": 35.149606,
        "lonStart": -93.868831,
        "latEnd": 35.14945,
        "lonEnd": -93.857947,
        "length": 0,
        "surfacetype": 1
      }
    ],
    "id": 1835
  },
  {
    "type": 1,
    "icao": "H35",
    "lat": 35.4706845,
    "lon": -93.427149,
    "communications": [
      {
        "type": 51,
        "frequency": 12280,
        "name": "CTAF/UNICOM"
      },
      {
        "type": 55,
        "frequency": 12847,
        "name": "MEMPHIS CNTR"
      }
    ],
    "elevation": 480,
    "tower": false,
    "name": "CLARKSVILLE MUNI",
    "runways": [
      {
        "type": 100,
        "width": 22.86,
        "surfaceType": null,
        "numberStart": "09",
        "numberEnd": "27",
        "latStart": 35.471197,
        "lonStart": -93.434692,
        "latEnd": 35.470172,
        "lonEnd": -93.419606,
        "length": 0,
        "surfacetype": 1
      }
    ],
    "id": 3965
  },
  {
    "type": 1,
    "icao": "AR23",
    "lat": 35.1334225,
    "lon": -93.47518723,
    "communications": [],
    "elevation": 419,
    "tower": false,
    "name": "Cedar Creek Ranch",
    "runways": [
      {
        "type": 100,
        "width": 21.34,
        "surfaceType": null,
        "numberStart": "16",
        "numberEnd": "34",
        "latStart": 35.13830044,
        "lonStart": -93.47689755,
        "latEnd": 35.12854456,
        "lonEnd": -93.47347691,
        "length": 0,
        "surfacetype": 3
      }
    ],
    "id": 4694
  },
  {
    "type": 1,
    "icao": "32A",
    "lat": 35.0869555,
    "lon": -93.42751799999999,
    "communications": [
      {
        "type": 51,
        "frequency": 12290,
        "name": "CTAF"
      }
    ],
    "elevation": 387,
    "tower": false,
    "name": "DANVILLE MUNI",
    "runways": [
      {
        "type": 100,
        "width": 22.86,
        "surfaceType": null,
        "numberStart": "11",
        "numberEnd": "29",
        "latStart": 35.088925,
        "lonStart": -93.436086,
        "latEnd": 35.084986,
        "lonEnd": -93.41895,
        "length": 0,
        "surfacetype": 1
      }
    ],
    "id": 5671
  },
  {
    "type": 1,
    "icao": "0AR1",
    "lat": 35.09467138,
    "lon": -93.20198334,
    "communications": [],
    "elevation": 370,
    "tower": false,
    "name": "Hooterville South",
    "runways": [
      {
        "type": 100,
        "width": 22.86,
        "surfaceType": null,
        "numberStart": "09",
        "numberEnd": "27",
        "latStart": 35.09490099,
        "lonStart": -93.20599647,
        "latEnd": 35.09444177,
        "lonEnd": -93.19797021,
        "length": 0,
        "surfacetype": 3
      }
    ],
    "id": 12032
  },
  {
    "type": 1,
    "icao": "AR05",
    "lat": 35.2159195,
    "lon": -93.3049,
    "communications": [],
    "elevation": 1770,
    "tower": false,
    "name": "JOHN HARRIS FLD",
    "runways": [
      {
        "type": 100,
        "width": 15.24,
        "surfaceType": null,
        "numberStart": "18",
        "numberEnd": "36",
        "latStart": 35.220033,
        "lonStart": -93.304628,
        "latEnd": 35.211806,
        "lonEnd": -93.305172,
        "length": 0,
        "surfacetype": 3
      }
    ],
    "id": 12778
  },
  {
    "type": 1,
    "icao": "0B3",
    "lat": 35.57119361,
    "lon": -93.5751875,
    "communications": [],
    "elevation": 775,
    "tower": false,
    "name": "Johnson Farm Lines",
    "runways": [
      {
        "type": 100,
        "width": 30.48,
        "surfaceType": null,
        "numberStart": "04",
        "numberEnd": "22",
        "latStart": 35.56915705,
        "lonStart": -93.57769128,
        "latEnd": 35.57323017,
        "lonEnd": -93.57268372,
        "length": 0,
        "surfacetype": 3
      }
    ],
    "id": 13060
  },
  {
    "type": 1,
    "icao": "AR89",
    "lat": 35.40008194,
    "lon": -93.06600612,
    "communications": [],
    "elevation": 730,
    "tower": false,
    "name": "Landers Loop",
    "runways": [
      {
        "type": 100,
        "width": 30.48,
        "surfaceType": null,
        "numberStart": "02",
        "numberEnd": "20",
        "latStart": 35.39745081,
        "lonStart": -93.06744326,
        "latEnd": 35.40271307,
        "lonEnd": -93.06456898,
        "length": 0,
        "surfacetype": 3
      }
    ],
    "id": 14903
  },
  {
    "type": 1,
    "icao": "AR27",
    "lat": 35.938967219999995,
    "lon": -93.84575,
    "communications": [],
    "elevation": 1430,
    "tower": false,
    "name": "Lollars Creek Farm",
    "runways": [
      {
        "type": 100,
        "width": 13.72,
        "surfaceType": null,
        "numberStart": "16",
        "numberEnd": "34",
        "latStart": 35.94174921,
        "lonStart": -93.84667069,
        "latEnd": 35.93618523,
        "lonEnd": -93.84482931,
        "length": 0,
        "surfacetype": 3
      }
    ],
    "id": 15417
  },
  {
    "type": 1,
    "icao": "7M5",
    "lat": 35.5106955,
    "lon": -93.8393055,
    "communications": [
      {
        "type": 51,
        "frequency": 12280,
        "name": "CTAF/UNICOM"
      },
      {
        "type": 55,
        "frequency": 12090,
        "name": "RAZORBACK APP/DEP"
      },
      {
        "type": 55,
        "frequency": 13452,
        "name": "RAZORBACK APP/DEP"
      }
    ],
    "elevation": 647,
    "tower": false,
    "name": "OZARK FRANKLIN CO",
    "runways": [
      {
        "type": 100,
        "width": 18.29,
        "surfaceType": null,
        "numberStart": "04",
        "numberEnd": "22",
        "latStart": 35.507308,
        "lonStart": -93.842994,
        "latEnd": 35.514083,
        "lonEnd": -93.835617,
        "length": 0,
        "surfacetype": 1
      }
    ],
    "id": 18762
  },
  {
    "type": 1,
    "icao": "7M6",
    "lat": 35.300087489999996,
    "lon": -93.68352639,
    "communications": [],
    "elevation": 430,
    "tower": false,
    "name": "Paris Municipal",
    "runways": [
      {
        "type": 100,
        "width": 18.29,
        "surfaceType": null,
        "numberStart": "03",
        "numberEnd": "21",
        "latStart": 35.29705415,
        "lonStart": -93.68612885,
        "latEnd": 35.30312083,
        "lonEnd": -93.68092393,
        "length": 0,
        "surfacetype": 1
      }
    ],
    "id": 19780
  },
  {
    "type": 1,
    "icao": "KRUE",
    "lat": 35.2591475,
    "lon": -93.0932665,
    "communications": [
      {
        "type": 50,
        "frequency": 13247,
        "name": "ASOS"
      },
      {
        "type": 51,
        "frequency": 12270,
        "name": "CTAF/UNICOM"
      },
      {
        "type": 55,
        "frequency": 12847,
        "name": "MEMPHIS CNTR"
      }
    ],
    "elevation": 403,
    "tower": false,
    "name": "RUSSELLVILLE RGNL",
    "runways": [
      {
        "type": 100,
        "width": 22.86,
        "surfaceType": null,
        "numberStart": "07",
        "numberEnd": "25",
        "latStart": 35.257342,
        "lonStart": -93.101508,
        "latEnd": 35.260953,
        "lonEnd": -93.085025,
        "length": 0,
        "surfacetype": 1
      }
    ],
    "id": 21089
  },
  {
    "type": 1,
    "icao": "0AR3",
    "lat": 35.89896777,
    "lon": -93.26101139,
    "communications": [],
    "elevation": 2160,
    "tower": false,
    "name": "Taylors Air Strip",
    "runways": [
      {
        "type": 100,
        "width": 15.24,
        "surfaceType": null,
        "numberStart": "09",
        "numberEnd": "27",
        "latStart": 35.89915911,
        "lonStart": -93.26438932,
        "latEnd": 35.89877643,
        "lonEnd": -93.25763346,
        "length": 0,
        "surfacetype": 3
      }
    ],
    "id": 25112
  },
  {
    "type": 1,
    "icao": "AR19",
    "lat": 35.2128675,
    "lon": -93.75214084000001,
    "communications": [],
    "elevation": 569,
    "tower": false,
    "name": "Wesson-Davis Field",
    "runways": [
      {
        "type": 100,
        "width": 15.24,
        "surfaceType": null,
        "numberStart": "01",
        "numberEnd": "19",
        "latStart": 35.21088036,
        "lonStart": -93.75279254,
        "latEnd": 35.21485464,
        "lonEnd": -93.75148914,
        "length": 0,
        "surfacetype": 3
      }
    ],
    "id": 27105
  },
  {
    "type": 17,
    "icao": "AR86",
    "lat": 35.30813972,
    "lon": -93.22434334,
    "communications": [],
    "elevation": 350,
    "tower": false,
    "name": "[H] ANO",
    "runways": [
      {
        "type": 102,
        "width": 15.2,
        "surfaceType": 2,
        "numberStart": "H1",
        "numberEnd": null,
        "latStart": 35.30813972,
        "lonStart": -93.22434334,
        "latEnd": null,
        "lonEnd": null,
        "length": 15.2
      }
    ],
    "id": 27978
  },
  {
    "type": 17,
    "icao": "0N3",
    "lat": 35.28341722,
    "lon": -93.15073028,
    "communications": [],
    "elevation": 358,
    "tower": false,
    "name": "[H] Ami St Marys Regional Medical Center",
    "runways": [
      {
        "type": 102,
        "width": 12.2,
        "surfaceType": 2,
        "numberStart": "H1",
        "numberEnd": null,
        "latStart": 35.28341722,
        "lonStart": -93.15073028,
        "latEnd": null,
        "lonEnd": null,
        "length": 12.2
      }
    ],
    "id": 28130
  },
  {
    "type": 17,
    "icao": "AR38",
    "lat": 35.21952972,
    "lon": -93.17989806,
    "communications": [],
    "elevation": 397,
    "tower": false,
    "name": "[H] Arkansas National Guard Emergency Acce",
    "runways": [
      {
        "type": 102,
        "width": 7.3,
        "surfaceType": 2,
        "numberStart": "H1",
        "numberEnd": null,
        "latStart": 35.21952972,
        "lonStart": -93.17989806,
        "latEnd": null,
        "lonEnd": null,
        "length": 7.3
      }
    ],
    "id": 28177
  },
  {
    "type": 17,
    "icao": "AR32",
    "lat": 35.22091833,
    "lon": -93.15267501,
    "communications": [],
    "elevation": 318,
    "tower": false,
    "name": "[H] Dardanelle Hospital",
    "runways": [
      {
        "type": 102,
        "width": 18.3,
        "surfaceType": 1,
        "numberStart": "H1",
        "numberEnd": null,
        "latStart": 35.22091833,
        "lonStart": -93.15267501,
        "latEnd": null,
        "lonEnd": null,
        "length": 18.3
      }
    ],
    "id": 29259
  },
  {
    "type": 17,
    "icao": "AR71",
    "lat": 35.46758305,
    "lon": -93.41907139,
    "communications": [],
    "elevation": 491,
    "tower": false,
    "name": "[H] Hospital",
    "runways": [
      {
        "type": 102,
        "width": 12.2,
        "surfaceType": 2,
        "numberStart": "H1",
        "numberEnd": null,
        "latStart": 35.46758305,
        "lonStart": -93.41907139,
        "latEnd": null,
        "lonEnd": null,
        "length": 12.2
      }
    ],
    "id": 30316
  },
  {
    "type": 17,
    "icao": "AR02",
    "lat": 35.44480583,
    "lon": -93.44490584,
    "communications": [],
    "elevation": 491,
    "tower": false,
    "name": "[H] Johnson County Regional Hospital",
    "runways": [
      {
        "type": 102,
        "width": 12.2,
        "surfaceType": 2,
        "numberStart": "H1",
        "numberEnd": null,
        "latStart": 35.44480583,
        "lonStart": -93.44490584,
        "latEnd": null,
        "lonEnd": null,
        "length": 12.2
      }
    ],
    "id": 30641
  }
]