[
  {
    "type": 1,
    "icao": "PGUM",
    "lat": 13.48387425,
    "lon": 79.137057,
    "communications": [
      {
        "type": 50,
        "frequency": 11900,
        "name": "ATIS"
      },
      {
        "type": 52,
        "frequency": 12190,
        "name": "CLNC DEL"
      },
      {
        "type": 53,
        "frequency": 12190,
        "name": "GND"
      },
      {
        "type": 54,
        "frequency": 11810,
        "name": "AGANA TWR"
      },
      {
        "type": 55,
        "frequency": 11870,
        "name": "APP/DEP"
      }
    ],
    "elevation": 298,
    "tower": true,
    "name": "Guam Intl",
    "runways": [
      {
        "type": 100,
        "width": 45.72,
        "surfaceType": null,
        "numberStart": "06L",
        "numberEnd": "24R",
        "latStart": 13.478908,
        "lonStart": 144.783983,
        "latEnd": 13.490589,
        "lonEnd": 144.809525,
        "length": 0,
        "surfacetype": 1
      },
      {
        "type": 100,
        "width": 45.72,
        "surfaceType": null,
        "numberStart": "06R",
        "numberEnd": "24L",
        "latStart": 13.477161,
        "lonStart": 144.784817,
        "latEnd": 13.488839,
        "lonEnd": 144.810358,
        "length": 0,
        "surfacetype": 1
      }
    ],
    "id": 10859
  }
]