[
  {
    "type": 1,
    "icao": "EDBA",
    "lat": 50.8415392525,
    "lon": 11.069354857500002,
    "communications": [
      {
        "type": 54,
        "frequency": 12300,
        "name": "Arnstadt Info"
      }
    ],
    "elevation": 1145,
    "tower": true,
    "name": "Arnstadt-Alkersleben",
    "runways": [
      {
        "type": 100,
        "width": 23,
        "surfaceType": null,
        "numberStart": "09",
        "numberEnd": "27",
        "latStart": 50.84198329,
        "lonStart": 11.06336287,
        "latEnd": 50.84175409,
        "lonEnd": 11.07658175,
        "length": 0,
        "surfacetype": 1
      },
      {
        "type": 100,
        "width": 45,
        "surfaceType": null,
        "numberStart": "09R",
        "numberEnd": "27L",
        "latStart": 50.84133724,
        "lonStart": 11.06113255,
        "latEnd": 50.84108239,
        "lonEnd": 11.07634226,
        "length": 0,
        "surfacetype": 3
      }
    ],
    "id": 1211
  },
  {
    "type": 1,
    "icao": "EDOB",
    "lat": 50.90402147,
    "lon": 11.25872786,
    "communications": [
      {
        "type": 54,
        "frequency": 12365,
        "name": "Bad Berka Info"
      }
    ],
    "elevation": 1023,
    "tower": true,
    "name": "Bad Berka",
    "runways": [
      {
        "type": 100,
        "width": 35,
        "surfaceType": null,
        "numberStart": "07",
        "numberEnd": "25",
        "latStart": 50.9027314,
        "lonStart": 11.25339884,
        "latEnd": 50.90531154,
        "lonEnd": 11.26405688,
        "length": 0,
        "surfacetype": 3
      }
    ],
    "id": 2035
  },
  {
    "type": 1,
    "icao": "EDQM",
    "lat": 50.28863915,
    "lon": 11.854065,
    "communications": [
      {
        "type": 54,
        "frequency": 12435,
        "name": "Hof Tower"
      }
    ],
    "elevation": 1959,
    "tower": true,
    "name": "Hof Plauen",
    "runways": [
      {
        "type": 100,
        "width": 29.5,
        "surfaceType": null,
        "numberStart": "09",
        "numberEnd": "27",
        "latStart": 50.28826515,
        "lonStart": 11.843697,
        "latEnd": 50.28901315,
        "lonEnd": 11.864433,
        "length": 0,
        "surfacetype": 1
      }
    ],
    "id": 11922
  },
  {
    "type": 1,
    "icao": "EDBJ",
    "lat": 50.91514863625,
    "lon": 11.71414917625,
    "communications": [
      {
        "type": 54,
        "frequency": 12205,
        "name": "Jena Info"
      }
    ],
    "elevation": 1228,
    "tower": true,
    "name": "Jena-SchC6ngleina",
    "runways": [
      {
        "type": 100,
        "width": 23,
        "surfaceType": null,
        "numberStart": "02",
        "numberEnd": "20",
        "latStart": 50.91041619,
        "lonStart": 11.7111376,
        "latEnd": 50.92051031,
        "lonEnd": 11.71722358,
        "length": 0,
        "surfacetype": 1
      },
      {
        "type": 100,
        "width": 30,
        "surfaceType": null,
        "numberStart": "08",
        "numberEnd": "26",
        "latStart": 50.91451212,
        "lonStart": 11.7084429,
        "latEnd": 50.91599863,
        "lonEnd": 11.71697307,
        "length": 0,
        "surfacetype": 3
      },
      {
        "type": 100,
        "width": 30,
        "surfaceType": null,
        "numberStart": "02L",
        "numberEnd": "20R",
        "latStart": 50.91073298,
        "lonStart": 11.71043068,
        "latEnd": 50.91991222,
        "lonEnd": 11.71598462,
        "length": 0,
        "surfacetype": 3
      },
      {
        "type": 102,
        "width": 8,
        "surfaceType": 15,
        "numberStart": "H1",
        "numberEnd": null,
        "latStart": 50.91547033,
        "lonStart": 11.71773974,
        "latEnd": null,
        "lonEnd": null,
        "length": 11
      },
      {
        "type": 102,
        "width": 15,
        "surfaceType": 15,
        "numberStart": "H2",
        "numberEnd": null,
        "latStart": 50.91363631,
        "lonStart": 11.71526122,
        "latEnd": null,
        "lonEnd": null,
        "length": 15
      }
    ],
    "id": 12945
  },
  {
    "type": 1,
    "icao": "EDQK",
    "lat": 50.1351704,
    "lon": 11.4592200925,
    "communications": [
      {
        "type": 54,
        "frequency": 11852,
        "name": "Kulmbach Info"
      }
    ],
    "elevation": 1660,
    "tower": true,
    "name": "Kulmbach",
    "runways": [
      {
        "type": 100,
        "width": 30,
        "surfaceType": null,
        "numberStart": "09",
        "numberEnd": "27",
        "latStart": 50.13471326,
        "lonStart": 11.45412239,
        "latEnd": 50.13523977,
        "lonEnd": 11.46415045,
        "length": 0,
        "surfacetype": 1
      },
      {
        "type": 100,
        "width": 50,
        "surfaceType": null,
        "numberStart": "09L",
        "numberEnd": "27R",
        "latStart": 50.13508971,
        "lonStart": 11.45406833,
        "latEnd": 50.13563886,
        "lonEnd": 11.4645392,
        "length": 0,
        "surfacetype": 3
      }
    ],
    "id": 14186
  },
  {
    "type": 1,
    "icao": "EDQL",
    "lat": 50.147842510000004,
    "lon": 11.04684296,
    "communications": [
      {
        "type": 54,
        "frequency": 12300,
        "name": "Lichtenfels Info"
      }
    ],
    "elevation": 853,
    "tower": true,
    "name": "Lichtenfels",
    "runways": [
      {
        "type": 100,
        "width": 30,
        "surfaceType": null,
        "numberStart": "04",
        "numberEnd": "22",
        "latStart": 50.14550609,
        "lonStart": 11.04322955,
        "latEnd": 50.15017893,
        "lonEnd": 11.05045637,
        "length": 0,
        "surfacetype": 3
      }
    ],
    "id": 15247
  },
  {
    "type": 1,
    "icao": "EDQO",
    "lat": 50.22598366,
    "lon": 11.73153538,
    "communications": [
      {
        "type": 54,
        "frequency": 12300,
        "name": "Ottengruener Heide Info"
      }
    ],
    "elevation": 1879,
    "tower": true,
    "name": "Ottengruener Heide",
    "runways": [
      {
        "type": 100,
        "width": 12.5,
        "surfaceType": null,
        "numberStart": "10",
        "numberEnd": "28",
        "latStart": 50.22705694,
        "lonStart": 11.72730669,
        "latEnd": 50.22491038,
        "lonEnd": 11.73576407,
        "length": 0,
        "surfacetype": 1
      }
    ],
    "id": 19087
  },
  {
    "type": 1,
    "icao": "EDOS",
    "lat": 50.669650245,
    "lon": 11.05100724,
    "communications": [
      {
        "type": 54,
        "frequency": 12305,
        "name": "Pennewitz Info"
      }
    ],
    "elevation": 1505,
    "tower": true,
    "name": "Pennewitz",
    "runways": [
      {
        "type": 100,
        "width": 30,
        "surfaceType": null,
        "numberStart": "06",
        "numberEnd": "24",
        "latStart": 50.66786643,
        "lonStart": 11.04648575,
        "latEnd": 50.67143406,
        "lonEnd": 11.05552873,
        "length": 0,
        "surfacetype": 3
      }
    ],
    "id": 19960
  },
  {
    "type": 1,
    "icao": "EDOK",
    "lat": 50.732705644999996,
    "lon": 11.23606026,
    "communications": [
      {
        "type": 54,
        "frequency": 11832,
        "name": "Rudolstadt Info"
      }
    ],
    "elevation": 1535,
    "tower": true,
    "name": "Rudolstadt-Groschwitz",
    "runways": [
      {
        "type": 100,
        "width": 30,
        "surfaceType": null,
        "numberStart": "06",
        "numberEnd": "24",
        "latStart": 50.73113824,
        "lonStart": 11.23090346,
        "latEnd": 50.73427305,
        "lonEnd": 11.24121706,
        "length": 0,
        "surfacetype": 3
      }
    ],
    "id": 21813
  },
  {
    "type": 1,
    "icao": "EDOU",
    "lat": 50.96509446,
    "lon": 11.399883345,
    "communications": [
      {
        "type": 54,
        "frequency": 12240,
        "name": "Weimar Info"
      }
    ],
    "elevation": 971,
    "tower": true,
    "name": "Weimar-Umpferstedt",
    "runways": [
      {
        "type": 100,
        "width": 30,
        "surfaceType": null,
        "numberStart": "10",
        "numberEnd": "28",
        "latStart": 50.96561968,
        "lonStart": 11.39523584,
        "latEnd": 50.96456924,
        "lonEnd": 11.40453085,
        "length": 0,
        "surfacetype": 3
      }
    ],
    "id": 27043
  },
  {
    "type": 1,
    "icao": "EDNZ",
    "lat": 50.13689726,
    "lon": 11.794566164999999,
    "communications": [
      {
        "type": 54,
        "frequency": 12337,
        "name": "Haidberg Info"
      }
    ],
    "elevation": 1901,
    "tower": true,
    "name": "Zell-Haidberg",
    "runways": [
      {
        "type": 100,
        "width": 10,
        "surfaceType": null,
        "numberStart": "06",
        "numberEnd": "24",
        "latStart": 50.1356892,
        "lonStart": 11.79079952,
        "latEnd": 50.13810532,
        "lonEnd": 11.79833281,
        "length": 0,
        "surfacetype": 1
      }
    ],
    "id": 27890
  }
]