[
  {
    "type": 1,
    "icao": "VTX9",
    "lat": 12.921652375,
    "lon": 101.184029985,
    "communications": [],
    "elevation": 186,
    "tower": true,
    "name": "Dok Rai",
    "runways": [
      {
        "type": 100,
        "width": 17.98,
        "surfaceType": null,
        "numberStart": "02",
        "numberEnd": "20",
        "latStart": 12.92349373,
        "lonStart": 101.18445157,
        "latEnd": 12.91981102,
        "lonEnd": 101.1836084,
        "length": 0,
        "surfacetype": 3
      }
    ],
    "id": 6354
  },
  {
    "type": 1,
    "icao": "VTY5",
    "lat": 12.70982734,
    "lon": 101.63128569,
    "communications": [],
    "elevation": 14,
    "tower": true,
    "name": "Klang Rayong",
    "runways": [
      {
        "type": 100,
        "width": 4.88,
        "surfaceType": null,
        "numberStart": "11",
        "numberEnd": "29",
        "latStart": 12.71044211,
        "lonStart": 101.62886976,
        "latEnd": 12.70921257,
        "lonEnd": 101.63370162,
        "length": 0,
        "surfacetype": 2
      }
    ],
    "id": 13970
  },
  {
    "type": 1,
    "icao": "VTBU",
    "lat": 12.679954,
    "lon": 101.0050335,
    "communications": [
      {
        "type": 53,
        "frequency": 12190,
        "name": "GND"
      },
      {
        "type": 54,
        "frequency": 11810,
        "name": "TWR"
      },
      {
        "type": 54,
        "frequency": 11830,
        "name": "TWR"
      },
      {
        "type": 55,
        "frequency": 13450,
        "name": "APP"
      },
      {
        "type": 55,
        "frequency": 11970,
        "name": "APP"
      }
    ],
    "elevation": 59,
    "tower": true,
    "name": "Rayon U-Taphao Intl",
    "runways": [
      {
        "type": 100,
        "width": 60.05,
        "surfaceType": null,
        "numberStart": "18",
        "numberEnd": "36",
        "latStart": 12.695833,
        "lonStart": 101.00635,
        "latEnd": 12.664075,
        "lonEnd": 101.003717,
        "length": 0,
        "surfacetype": 1
      }
    ],
    "id": 21245
  }
]