[
  {
    "type": 1,
    "icao": "0R3",
    "lat": 29.975762500000002,
    "lon": -92.08421,
    "communications": [
      {
        "type": 51,
        "frequency": 12280,
        "name": "CTAF/UNICOM"
      },
      {
        "type": 55,
        "frequency": 12110,
        "name": "LAFAYETTE APP/DEP"
      }
    ],
    "elevation": 15,
    "tower": false,
    "name": "ABBEVILLE CHRIS CRUSTA MEM",
    "runways": [
      {
        "type": 100,
        "width": 22.86,
        "surfaceType": null,
        "numberStart": "15",
        "numberEnd": "33",
        "latStart": 29.98215,
        "lonStart": -92.087067,
        "latEnd": 29.969375,
        "lonEnd": -92.081353,
        "length": 0,
        "surfacetype": 1
      }
    ],
    "id": 39
  },
  {
    "type": 1,
    "icao": "2LA0",
    "lat": 29.78965472,
    "lon": -92.15651611999999,
    "communications": [],
    "elevation": 1,
    "tower": false,
    "name": "Central Industries",
    "runways": [
      {
        "type": 100,
        "width": 22.86,
        "surfaceType": null,
        "numberStart": "06",
        "numberEnd": "24",
        "latStart": 29.78779093,
        "lonStart": -92.16091931,
        "latEnd": 29.79151851,
        "lonEnd": -92.15211293,
        "length": 0,
        "surfacetype": 3
      }
    ],
    "id": 4720
  },
  {
    "type": 1,
    "icao": "3LA0",
    "lat": 29.91965222,
    "lon": -92.24735111999999,
    "communications": [],
    "elevation": 10,
    "tower": false,
    "name": "Harrington Flying Service",
    "runways": [
      {
        "type": 100,
        "width": 33.53,
        "surfaceType": null,
        "numberStart": "09",
        "numberEnd": "27",
        "latStart": 29.91976702,
        "lonStart": -92.24924535,
        "latEnd": 29.91953742,
        "lonEnd": -92.24545689,
        "length": 0,
        "surfacetype": 3
      }
    ],
    "id": 11471
  },
  {
    "type": 1,
    "icao": "LS68",
    "lat": 29.93465166,
    "lon": -92.21346112,
    "communications": [],
    "elevation": 10,
    "tower": false,
    "name": "Ken Guidry Nr 1",
    "runways": [
      {
        "type": 100,
        "width": 45.72,
        "surfaceType": null,
        "numberStart": "09",
        "numberEnd": "27",
        "latStart": 29.9349004,
        "lonStart": -92.21756591,
        "latEnd": 29.93440292,
        "lonEnd": -92.20935633,
        "length": 0,
        "surfacetype": 3
      }
    ],
    "id": 13741
  },
  {
    "type": 1,
    "icao": "3LA4",
    "lat": 29.800217500000002,
    "lon": -92.80014334,
    "communications": [],
    "elevation": 5,
    "tower": false,
    "name": "Little Pecan Island",
    "runways": [
      {
        "type": 100,
        "width": 21.34,
        "surfaceType": null,
        "numberStart": "14",
        "numberEnd": "32",
        "latStart": 29.80332273,
        "lonStart": -92.80325402,
        "latEnd": 29.79711227,
        "lonEnd": -92.79703266,
        "length": 0,
        "surfacetype": 3
      }
    ],
    "id": 15344
  },
  {
    "type": 1,
    "icao": "LA60",
    "lat": 29.81687583,
    "lon": -92.11679278,
    "communications": [],
    "elevation": 6,
    "tower": false,
    "name": "Live Oak Landing Strip",
    "runways": [
      {
        "type": 100,
        "width": 76.2,
        "surfaceType": null,
        "numberStart": "09",
        "numberEnd": "27",
        "latStart": 29.81735418,
        "lonStart": -92.12467729,
        "latEnd": 29.81639748,
        "lonEnd": -92.10890827,
        "length": 0,
        "surfacetype": 3
      }
    ],
    "id": 15356
  },
  {
    "type": 1,
    "icao": "35LA",
    "lat": 29.974455550000002,
    "lon": -92.17612778,
    "communications": [],
    "elevation": 10,
    "tower": false,
    "name": "Ms Pats",
    "runways": [
      {
        "type": 100,
        "width": 19.81,
        "surfaceType": null,
        "numberStart": "09",
        "numberEnd": "27",
        "latStart": 29.9745704,
        "lonStart": -92.17865751,
        "latEnd": 29.9743407,
        "lonEnd": -92.17359805,
        "length": 0,
        "surfacetype": 3
      }
    ],
    "id": 17663
  },
  {
    "type": 1,
    "icao": "LA12",
    "lat": 29.739109159999998,
    "lon": -92.83347639,
    "communications": [],
    "elevation": 5,
    "tower": false,
    "name": "Nunez",
    "runways": [
      {
        "type": 100,
        "width": 24.38,
        "surfaceType": null,
        "numberStart": "10",
        "numberEnd": "28",
        "latStart": 29.74010454,
        "lonStart": -92.83807421,
        "latEnd": 29.73811378,
        "lonEnd": -92.82887857,
        "length": 0,
        "surfacetype": 3
      }
    ],
    "id": 18552
  },
  {
    "type": 17,
    "icao": "LA09",
    "lat": 29.78409944,
    "lon": -92.16373862,
    "communications": [],
    "elevation": 3,
    "tower": false,
    "name": "[H] Air Logistics - Intracoastal City",
    "runways": [
      {
        "type": 102,
        "width": 152.4,
        "surfaceType": 2,
        "numberStart": "H1",
        "numberEnd": null,
        "latStart": 29.78409944,
        "lonStart": -92.16373862,
        "latEnd": null,
        "lonEnd": null,
        "length": 152.4
      }
    ],
    "id": 28045
  },
  {
    "type": 17,
    "icao": "6LA7",
    "lat": 29.53772027,
    "lon": -92.30291056,
    "communications": [],
    "elevation": 3,
    "tower": false,
    "name": "[H] Cagc Freshwater Terminal",
    "runways": [
      {
        "type": 102,
        "width": 12.2,
        "surfaceType": 4,
        "numberStart": "H1",
        "numberEnd": null,
        "latStart": 29.53772027,
        "lonStart": -92.30291056,
        "latEnd": null,
        "lonEnd": null,
        "length": 15.2
      }
    ],
    "id": 28707
  },
  {
    "type": 17,
    "icao": "1LA9",
    "lat": 29.78298833,
    "lon": -92.15679417,
    "communications": [],
    "elevation": 0,
    "tower": false,
    "name": "[H] Chevron Intracoastal",
    "runways": [
      {
        "type": 102,
        "width": 15.2,
        "surfaceType": 2,
        "numberStart": "H1",
        "numberEnd": null,
        "latStart": 29.78298833,
        "lonStart": -92.15679417,
        "latEnd": null,
        "lonEnd": null,
        "length": 15.2
      },
      {
        "type": 102,
        "width": 15.2,
        "surfaceType": 2,
        "numberStart": "H2",
        "numberEnd": null,
        "latStart": 29.78298833,
        "lonStart": -92.15679417,
        "latEnd": null,
        "lonEnd": null,
        "length": 15.2
      },
      {
        "type": 102,
        "width": 7.3,
        "surfaceType": 2,
        "numberStart": "H3",
        "numberEnd": null,
        "latStart": 29.78298833,
        "lonStart": -92.15679417,
        "latEnd": null,
        "lonEnd": null,
        "length": 7.3
      },
      {
        "type": 102,
        "width": 7.3,
        "surfaceType": 2,
        "numberStart": "H4",
        "numberEnd": null,
        "latStart": 29.78298833,
        "lonStart": -92.15679417,
        "latEnd": null,
        "lonEnd": null,
        "length": 7.3
      },
      {
        "type": 102,
        "width": 7.3,
        "surfaceType": 2,
        "numberStart": "H5",
        "numberEnd": null,
        "latStart": 29.78298833,
        "lonStart": -92.15679417,
        "latEnd": null,
        "lonEnd": null,
        "length": 7.3
      },
      {
        "type": 102,
        "width": 7.3,
        "surfaceType": 2,
        "numberStart": "H6",
        "numberEnd": null,
        "latStart": 29.78298833,
        "lonStart": -92.15679417,
        "latEnd": null,
        "lonEnd": null,
        "length": 7.3
      },
      {
        "type": 102,
        "width": 7.3,
        "surfaceType": 2,
        "numberStart": "H7",
        "numberEnd": null,
        "latStart": 29.78298833,
        "lonStart": -92.15679417,
        "latEnd": null,
        "lonEnd": null,
        "length": 7.3
      },
      {
        "type": 102,
        "width": 7.3,
        "surfaceType": 2,
        "numberStart": "H8",
        "numberEnd": null,
        "latStart": 29.78298833,
        "lonStart": -92.15679417,
        "latEnd": null,
        "lonEnd": null,
        "length": 7.3
      }
    ],
    "id": 28915
  },
  {
    "type": 17,
    "icao": "2LA9",
    "lat": 29.88548694,
    "lon": -92.27235195,
    "communications": [],
    "elevation": 6,
    "tower": false,
    "name": "[H] Cow Island Trunkline",
    "runways": [
      {
        "type": 102,
        "width": 9.1,
        "surfaceType": 2,
        "numberStart": "H1",
        "numberEnd": null,
        "latStart": 29.88548694,
        "lonStart": -92.27235195,
        "latEnd": null,
        "lonEnd": null,
        "length": 9.1
      }
    ],
    "id": 29169
  },
  {
    "type": 17,
    "icao": "74LA",
    "lat": 29.82243166,
    "lon": -92.13818223,
    "communications": [],
    "elevation": 6,
    "tower": false,
    "name": "[H] ERA",
    "runways": [
      {
        "type": 102,
        "width": 6.1,
        "surfaceType": 2,
        "numberStart": "H1",
        "numberEnd": null,
        "latStart": 29.82243166,
        "lonStart": -92.13818223,
        "latEnd": null,
        "lonEnd": null,
        "length": 6.1
      }
    ],
    "id": 29442
  },
  {
    "type": 17,
    "icao": "LA70",
    "lat": 29.91712222,
    "lon": -92.05162223,
    "communications": [],
    "elevation": 11,
    "tower": false,
    "name": "[H] Erath",
    "runways": [
      {
        "type": 102,
        "width": 4.9,
        "surfaceType": 2,
        "numberStart": "H1",
        "numberEnd": null,
        "latStart": 29.91712222,
        "lonStart": -92.05162223,
        "latEnd": null,
        "lonEnd": null,
        "length": 4.9
      }
    ],
    "id": 29568
  },
  {
    "type": 17,
    "icao": "2LA3",
    "lat": 29.82493138,
    "lon": -92.13290417,
    "communications": [],
    "elevation": 6,
    "tower": false,
    "name": "[H] Exxon Intracoastal City Terminal",
    "runways": [
      {
        "type": 101,
        "width": 91.44,
        "surfaceType": null,
        "numberStart": "01",
        "numberEnd": "19",
        "latStart": 29.82892363,
        "lonStart": -92.13175682,
        "latEnd": 29.82093913,
        "lonEnd": -92.13405152,
        "length": 0
      },
      {
        "type": 102,
        "width": 22.9,
        "surfaceType": 2,
        "numberStart": "H1",
        "numberEnd": null,
        "latStart": 29.82493138,
        "lonStart": -92.13290417,
        "latEnd": null,
        "lonEnd": null,
        "length": 196.6
      },
      {
        "type": 102,
        "width": 22.9,
        "surfaceType": 2,
        "numberStart": "H2",
        "numberEnd": null,
        "latStart": 29.82493138,
        "lonStart": -92.13290417,
        "latEnd": null,
        "lonEnd": null,
        "length": 137.2
      }
    ],
    "id": 29615
  },
  {
    "type": 17,
    "icao": "6LA8",
    "lat": 29.55688805,
    "lon": -92.44180389,
    "communications": [],
    "elevation": 1,
    "tower": false,
    "name": "[H] Mud Hole",
    "runways": [
      {
        "type": 102,
        "width": 15.2,
        "surfaceType": 3,
        "numberStart": "H1",
        "numberEnd": null,
        "latStart": 29.55688805,
        "lonStart": -92.44180389,
        "latEnd": null,
        "lonEnd": null,
        "length": 15.2
      }
    ],
    "id": 31488
  },
  {
    "type": 17,
    "icao": "2LA1",
    "lat": 29.68160388,
    "lon": -92.26402001,
    "communications": [],
    "elevation": 2,
    "tower": false,
    "name": "[H] N.Freshwater Bayou",
    "runways": [
      {
        "type": 102,
        "width": 6.1,
        "surfaceType": 3,
        "numberStart": "H1",
        "numberEnd": null,
        "latStart": 29.68160388,
        "lonStart": -92.26402001,
        "latEnd": null,
        "lonEnd": null,
        "length": 6.1
      }
    ],
    "id": 31517
  },
  {
    "type": 17,
    "icao": "7R4",
    "lat": 29.79604333,
    "lon": -92.15012723,
    "communications": [],
    "elevation": 2,
    "tower": false,
    "name": "[H] Petroleum Helicopters-Intracoastal Cit",
    "runways": [
      {
        "type": 102,
        "width": 121.9,
        "surfaceType": 2,
        "numberStart": "H1",
        "numberEnd": null,
        "latStart": 29.79604333,
        "lonStart": -92.15012723,
        "latEnd": null,
        "lonEnd": null,
        "length": 121.9
      }
    ],
    "id": 31993
  },
  {
    "type": 17,
    "icao": "1LA8",
    "lat": 29.60105083,
    "lon": -92.26013112,
    "communications": [],
    "elevation": 2,
    "tower": false,
    "name": "[H] S.Fresh Water Bayou",
    "runways": [
      {
        "type": 102,
        "width": 12.2,
        "surfaceType": 3,
        "numberStart": "H1",
        "numberEnd": null,
        "latStart": 29.60105083,
        "lonStart": -92.26013112,
        "latEnd": null,
        "lonEnd": null,
        "length": 12.2
      }
    ],
    "id": 32465
  },
  {
    "type": 17,
    "icao": "3LA7",
    "lat": 29.76549777,
    "lon": -92.95792417,
    "communications": [],
    "elevation": 3,
    "tower": false,
    "name": "[H] Station 507F",
    "runways": [
      {
        "type": 102,
        "width": 7.6,
        "surfaceType": 4,
        "numberStart": "H1",
        "numberEnd": null,
        "latStart": 29.76549777,
        "lonStart": -92.95792417,
        "latEnd": null,
        "lonEnd": null,
        "length": 7.6
      }
    ],
    "id": 33067
  },
  {
    "type": 17,
    "icao": "2LA8",
    "lat": 29.98298416,
    "lon": -92.28151806,
    "communications": [],
    "elevation": 12,
    "tower": false,
    "name": "[H] Transco",
    "runways": [
      {
        "type": 102,
        "width": 9.1,
        "surfaceType": 4,
        "numberStart": "H1",
        "numberEnd": null,
        "latStart": 29.98298416,
        "lonStart": -92.28151806,
        "latEnd": null,
        "lonEnd": null,
        "length": 15.2
      }
    ],
    "id": 33369
  },
  {
    "type": 17,
    "icao": "85LA",
    "lat": 29.9813175,
    "lon": -92.28235139,
    "communications": [],
    "elevation": 63,
    "tower": false,
    "name": "[H] Transco Kaplan",
    "runways": [
      {
        "type": 102,
        "width": 61,
        "surfaceType": 3,
        "numberStart": "H1",
        "numberEnd": null,
        "latStart": 29.9813175,
        "lonStart": -92.28235139,
        "latEnd": null,
        "lonEnd": null,
        "length": 61
      }
    ],
    "id": 33371
  },
  {
    "type": 17,
    "icao": "60LA",
    "lat": 29.79167138,
    "lon": -92.14950223,
    "communications": [],
    "elevation": 3,
    "tower": false,
    "name": "[H] Union Oil Co of California",
    "runways": [
      {
        "type": 102,
        "width": 6.1,
        "surfaceType": 2,
        "numberStart": "H1",
        "numberEnd": null,
        "latStart": 29.79167138,
        "lonStart": -92.14950223,
        "latEnd": null,
        "lonEnd": null,
        "length": 9.1
      },
      {
        "type": 102,
        "width": 6.1,
        "surfaceType": 2,
        "numberStart": "H2",
        "numberEnd": null,
        "latStart": 29.79167138,
        "lonStart": -92.14950223,
        "latEnd": null,
        "lonEnd": null,
        "length": 6.1
      },
      {
        "type": 102,
        "width": 6.1,
        "surfaceType": 2,
        "numberStart": "H3",
        "numberEnd": null,
        "latStart": 29.79167138,
        "lonStart": -92.14950223,
        "latEnd": null,
        "lonEnd": null,
        "length": 6.1
      },
      {
        "type": 102,
        "width": 6.1,
        "surfaceType": 2,
        "numberStart": "H4",
        "numberEnd": null,
        "latStart": 29.79167138,
        "lonStart": -92.14950223,
        "latEnd": null,
        "lonEnd": null,
        "length": 6.1
      }
    ],
    "id": 33486
  }
]