[
  {
    "type": 1,
    "icao": "PABL",
    "lat": 65.981565,
    "lon": -161.14912733,
    "communications": [
      {
        "type": 50,
        "frequency": 13515,
        "name": "AWOS 3"
      },
      {
        "type": 51,
        "frequency": 12290,
        "name": "CTAF"
      },
      {
        "type": 51,
        "frequency": 12230,
        "name": "RCO Kotzebue"
      },
      {
        "type": 55,
        "frequency": 11920,
        "name": "Anchorage"
      }
    ],
    "elevation": 28,
    "tower": false,
    "name": "BUCKLAND",
    "runways": [
      {
        "type": 100,
        "width": 22.86,
        "surfaceType": null,
        "numberStart": "10",
        "numberEnd": "28",
        "latStart": 65.983869,
        "lonStart": -161.15825,
        "latEnd": 65.979261,
        "lonEnd": -161.140003,
        "length": 0,
        "surfacetype": 5
      },
      {
        "type": 100,
        "width": 22.86,
        "surfaceType": null,
        "numberStart": "11",
        "numberEnd": "29",
        "latStart": 65.98389084,
        "lonStart": -161.15827193,
        "latEnd": 65.97923916,
        "lonEnd": -161.13998439,
        "length": 0,
        "surfacetype": 5
      }
    ],
    "id": 1954
  },
  {
    "type": 1,
    "icao": "AK02",
    "lat": 65.53988666000001,
    "lon": -161.06237778,
    "communications": [],
    "elevation": 575,
    "tower": false,
    "name": "Bear Creek 1",
    "runways": [
      {
        "type": 100,
        "width": 19.81,
        "surfaceType": null,
        "numberStart": "10",
        "numberEnd": "28",
        "latStart": 65.5408467,
        "lonStart": -161.06639373,
        "latEnd": 65.53892662,
        "lonEnd": -161.05836183,
        "length": 0,
        "surfacetype": 5
      }
    ],
    "id": 2397
  },
  {
    "type": 1,
    "icao": "CDL",
    "lat": 65.90765805000001,
    "lon": -161.92630584,
    "communications": [],
    "elevation": 15,
    "tower": false,
    "name": "Candle 2",
    "runways": [
      {
        "type": 100,
        "width": 27.43,
        "surfaceType": null,
        "numberStart": "02",
        "numberEnd": "20",
        "latStart": 65.90358163,
        "lonStart": -161.93468518,
        "latEnd": 65.91173447,
        "lonEnd": -161.9179265,
        "length": 0,
        "surfacetype": 5
      }
    ],
    "id": 4451
  },
  {
    "type": 1,
    "icao": "PGSZ",
    "lat": 65.402132,
    "lon": -161.2814735,
    "communications": [
      {
        "type": 51,
        "frequency": 12210,
        "name": "CTAF"
      }
    ],
    "elevation": 1313,
    "tower": false,
    "name": "GRANITE MOUNTAIN AFS",
    "runways": [
      {
        "type": 100,
        "width": 33.83,
        "surfaceType": null,
        "numberStart": "17",
        "numberEnd": "35",
        "latStart": 65.407425,
        "lonStart": -161.281328,
        "latEnd": 65.396839,
        "lonEnd": -161.281619,
        "length": 0,
        "surfacetype": 5
      }
    ],
    "id": 10115
  },
  {
    "type": 1,
    "icao": "HAY",
    "lat": 65.20098944,
    "lon": -161.15677917,
    "communications": [],
    "elevation": 175,
    "tower": false,
    "name": "Haycock",
    "runways": [
      {
        "type": 100,
        "width": 4.57,
        "surfaceType": null,
        "numberStart": "15",
        "numberEnd": "33",
        "latStart": 65.20335308,
        "lonStart": -161.15777282,
        "latEnd": 65.1986258,
        "lonEnd": -161.15578552,
        "length": 0,
        "surfacetype": 5
      }
    ],
    "id": 11584
  }
]