[
  {
    "type": 1,
    "icao": "SBME",
    "lat": -22.343032,
    "lon": -41.766035,
    "communications": [
      {
        "type": 50,
        "frequency": 12777,
        "name": "ATIS"
      },
      {
        "type": 53,
        "frequency": 12170,
        "name": "GND"
      },
      {
        "type": 54,
        "frequency": 11845,
        "name": "TWR"
      },
      {
        "type": 55,
        "frequency": 12000,
        "name": "APP"
      },
      {
        "type": 55,
        "frequency": 12930,
        "name": "APP"
      },
      {
        "type": 55,
        "frequency": 11920,
        "name": "APP"
      }
    ],
    "elevation": 8,
    "tower": true,
    "name": "MACAE",
    "runways": [
      {
        "type": 100,
        "width": 29.87,
        "surfaceType": null,
        "numberStart": "06",
        "numberEnd": "24",
        "latStart": -22.347597,
        "lonStart": -41.769242,
        "latEnd": -22.338467,
        "lonEnd": -41.762828,
        "length": 0,
        "surfacetype": 1
      }
    ],
    "id": 15669
  },
  {
    "type": 1,
    "icao": "SBBZ",
    "lat": -22.770967,
    "lon": -41.9632665,
    "communications": [
      {
        "type": 54,
        "frequency": 13175,
        "name": "BUZIOS RDO"
      },
      {
        "type": 55,
        "frequency": 11945,
        "name": "ALDEIA APP"
      }
    ],
    "elevation": 10,
    "tower": false,
    "name": "UMBERTO MODIANO",
    "runways": [
      {
        "type": 100,
        "width": 29.87,
        "surfaceType": null,
        "numberStart": "07",
        "numberEnd": "25",
        "latStart": -22.774528,
        "lonStart": -41.968219,
        "latEnd": -22.767406,
        "lonEnd": -41.958314,
        "length": 0,
        "surfacetype": 1
      }
    ],
    "id": 25808
  },
  {
    "type": 17,
    "icao": "SSAX",
    "lat": -22.10055556,
    "lon": -41.78222222,
    "communications": [],
    "elevation": 86,
    "tower": false,
    "name": "[H] AVL",
    "runways": [
      {
        "type": 102,
        "width": 24.1,
        "surfaceType": 2,
        "numberStart": "H1",
        "numberEnd": null,
        "latStart": -22.10055556,
        "lonStart": -41.78222222,
        "latEnd": null,
        "lonEnd": null,
        "length": 24.1
      }
    ],
    "id": 27992
  },
  {
    "type": 17,
    "icao": "SDYC",
    "lat": -22.77472222,
    "lon": -41.90166667,
    "communications": [],
    "elevation": 38,
    "tower": false,
    "name": "[H] Amarras",
    "runways": [
      {
        "type": 102,
        "width": 19.5,
        "surfaceType": 3,
        "numberStart": "H1",
        "numberEnd": null,
        "latStart": -22.77472222,
        "lonStart": -41.90166667,
        "latEnd": null,
        "lonEnd": null,
        "length": 19.5
      }
    ],
    "id": 28111
  },
  {
    "type": 17,
    "icao": "SNQQ",
    "lat": -22.39,
    "lon": -41.77638889,
    "communications": [],
    "elevation": 36,
    "tower": false,
    "name": "[H] Atlantico Offices",
    "runways": [
      {
        "type": 102,
        "width": 19.5,
        "surfaceType": 2,
        "numberStart": "H1",
        "numberEnd": null,
        "latStart": -22.39,
        "lonStart": -41.77638889,
        "latEnd": null,
        "lonEnd": null,
        "length": 19.5
      }
    ],
    "id": 28211
  },
  {
    "type": 17,
    "icao": "SDCI",
    "lat": -22.28166667,
    "lon": -41.7175,
    "communications": [],
    "elevation": 20,
    "tower": false,
    "name": "[H] Cabiunas",
    "runways": [
      {
        "type": 102,
        "width": 25.9,
        "surfaceType": 2,
        "numberStart": "H1",
        "numberEnd": null,
        "latStart": -22.28166667,
        "lonStart": -41.7175,
        "latEnd": null,
        "lonEnd": null,
        "length": 25.9
      }
    ],
    "id": 28704
  },
  {
    "type": 17,
    "icao": "SWOH",
    "lat": -22.35611111,
    "lon": -41.80583333,
    "communications": [],
    "elevation": 1,
    "tower": false,
    "name": "[H] Hospital Mun. Dr. Fernado P da Silva",
    "runways": [
      {
        "type": 102,
        "width": 33.2,
        "surfaceType": 2,
        "numberStart": "H1",
        "numberEnd": null,
        "latStart": -22.35611111,
        "lonStart": -41.80583333,
        "latEnd": null,
        "lonEnd": null,
        "length": 33.2
      }
    ],
    "id": 30341
  },
  {
    "type": 17,
    "icao": "SJMG",
    "lat": -22.77444444,
    "lon": -41.93166667,
    "communications": [],
    "elevation": 0,
    "tower": false,
    "name": "[H] Maguinhos",
    "runways": [
      {
        "type": 102,
        "width": 24.1,
        "surfaceType": 3,
        "numberStart": "H1",
        "numberEnd": null,
        "latStart": -22.77444444,
        "lonStart": -41.93166667,
        "latEnd": null,
        "lonEnd": null,
        "length": 24.1
      }
    ],
    "id": 31042
  },
  {
    "type": 17,
    "icao": "SIDC",
    "lat": -22.44361111,
    "lon": -41.87194444,
    "communications": [],
    "elevation": 57,
    "tower": false,
    "name": "[H] Patio de Treinamento HSE - TRAINING",
    "runways": [
      {
        "type": 102,
        "width": 33.2,
        "surfaceType": 2,
        "numberStart": "H1",
        "numberEnd": null,
        "latStart": -22.44361111,
        "lonStart": -41.87194444,
        "latEnd": null,
        "lonEnd": null,
        "length": 33.2
      }
    ],
    "id": 31928
  },
  {
    "type": 17,
    "icao": "SBFS",
    "lat": -22.02944444,
    "lon": -41.07,
    "communications": [],
    "elevation": 1,
    "tower": false,
    "name": "[H] Sao Tome",
    "runways": [
      {
        "type": 102,
        "width": 43.3,
        "surfaceType": 2,
        "numberStart": "H1",
        "numberEnd": null,
        "latStart": -22.02944444,
        "lonStart": -41.07,
        "latEnd": null,
        "lonEnd": null,
        "length": 44.5
      }
    ],
    "id": 32572
  },
  {
    "type": 17,
    "icao": "SJUY",
    "lat": -22.48833333,
    "lon": -41.93444444,
    "communications": [],
    "elevation": 8,
    "tower": false,
    "name": "[H] Sinal Empreendimentos",
    "runways": [
      {
        "type": 102,
        "width": 21,
        "surfaceType": 2,
        "numberStart": "H1",
        "numberEnd": null,
        "latStart": -22.48833333,
        "lonStart": -41.93444444,
        "latEnd": null,
        "lonEnd": null,
        "length": 21
      }
    ],
    "id": 32721
  },
  {
    "type": 17,
    "icao": "SDXM",
    "lat": -22.77388889,
    "lon": -41.89,
    "communications": [],
    "elevation": 5,
    "tower": false,
    "name": "[H] da Praia",
    "runways": [
      {
        "type": 102,
        "width": 21,
        "surfaceType": 3,
        "numberStart": "H1",
        "numberEnd": null,
        "latStart": -22.77388889,
        "lonStart": -41.89,
        "latEnd": null,
        "lonEnd": null,
        "length": 21
      }
    ],
    "id": 33951
  },
  {
    "type": 17,
    "icao": "SDDT",
    "lat": -22.38777778,
    "lon": -41.7725,
    "communications": [],
    "elevation": 3,
    "tower": false,
    "name": "[H] de Imbetiba",
    "runways": [
      {
        "type": 102,
        "width": 25.9,
        "surfaceType": 2,
        "numberStart": "H1",
        "numberEnd": null,
        "latStart": -22.38777778,
        "lonStart": -41.7725,
        "latEnd": null,
        "lonEnd": null,
        "length": 25.9
      }
    ],
    "id": 33953
  }
]