[
  {
    "type": 1,
    "icao": "OI13",
    "lat": 29.999992,
    "lon": 41.8511615,
    "communications": [],
    "elevation": 6970,
    "tower": false,
    "name": "MAHMUDABAD",
    "runways": [
      {
        "type": 100,
        "width": 38.1,
        "surfaceType": null,
        "numberStart": "12",
        "numberEnd": "30",
        "latStart": 30.002928,
        "lonStart": 53.705267,
        "latEnd": 29.997056,
        "lonEnd": 53.717672,
        "length": 0,
        "surfacetype": 4
      }
    ],
    "id": 15713
  },
  {
    "type": 1,
    "icao": "OISS",
    "lat": 29.539241,
    "lon": 41.050318000000004,
    "communications": [
      {
        "type": 50,
        "frequency": 12700,
        "name": "ATIS"
      },
      {
        "type": 54,
        "frequency": 12190,
        "name": "TWR"
      },
      {
        "type": 54,
        "frequency": 11810,
        "name": "TWR"
      },
      {
        "type": 55,
        "frequency": 13410,
        "name": "APP"
      },
      {
        "type": 55,
        "frequency": 13140,
        "name": "APP"
      },
      {
        "type": 55,
        "frequency": 11900,
        "name": "APP"
      },
      {
        "type": 55,
        "frequency": 12540,
        "name": "APP"
      }
    ],
    "elevation": 4920,
    "tower": true,
    "name": "SHIRAZ SHAHID DASTGHAIB INTL",
    "runways": [
      {
        "type": 100,
        "width": 45.11,
        "surfaceType": null,
        "numberStart": "11L",
        "numberEnd": "29R",
        "latStart": 29.549256,
        "lonStart": 52.570092,
        "latEnd": 29.532939,
        "lonEnd": 52.611161,
        "length": 0,
        "surfacetype": 1
      },
      {
        "type": 100,
        "width": 45.11,
        "surfaceType": null,
        "numberStart": "11R",
        "numberEnd": "29L",
        "latStart": 29.545336,
        "lonStart": 52.568808,
        "latEnd": 29.529433,
        "lonEnd": 52.609075,
        "length": 0,
        "surfacetype": 1
      }
    ],
    "id": 22231
  }
]