[
  {
    "type": 1,
    "icao": "SCJO",
    "lat": -40.61127266,
    "lon": -73.06063402500001,
    "communications": [
      {
        "type": 54,
        "frequency": 11890,
        "name": "TWR"
      },
      {
        "type": 53,
        "frequency": 12170,
        "name": "GND"
      },
      {
        "type": 54,
        "frequency": 11950,
        "name": "APP"
      }
    ],
    "elevation": 187,
    "tower": true,
    "name": "CaC1al Bajo",
    "runways": [
      {
        "type": 100,
        "width": 35.97,
        "surfaceType": null,
        "numberStart": "15",
        "numberEnd": "33",
        "latStart": -40.60432216,
        "lonStart": -73.06484518,
        "latEnd": -40.61822316,
        "lonEnd": -73.05642287,
        "length": 0,
        "surfacetype": 1
      }
    ],
    "id": 4683
  },
  {
    "type": 1,
    "icao": "SCPR",
    "lat": -40.9416315,
    "lon": -73.168830025,
    "communications": [],
    "elevation": 419,
    "tower": false,
    "name": "Corte Alto",
    "runways": [
      {
        "type": 100,
        "width": 25.91,
        "surfaceType": null,
        "numberStart": "01",
        "numberEnd": "19",
        "latStart": -40.94479501,
        "lonStart": -73.16935092,
        "latEnd": -40.93846799,
        "lonEnd": -73.16830913,
        "length": 0,
        "surfacetype": 3
      }
    ],
    "id": 5360
  },
  {
    "type": 1,
    "icao": "SCQM",
    "lat": -40.638302304999996,
    "lon": -73.127847175,
    "communications": [
      {
        "type": 54,
        "frequency": 11820,
        "name": "ATC tower"
      }
    ],
    "elevation": 250,
    "tower": true,
    "name": "Las Quemas",
    "runways": [
      {
        "type": 100,
        "width": 14.94,
        "surfaceType": null,
        "numberStart": "14",
        "numberEnd": "32",
        "latStart": -40.63589271,
        "lonStart": -73.1294538,
        "latEnd": -40.6407119,
        "lonEnd": -73.12624055,
        "length": 0,
        "surfacetype": 5
      }
    ],
    "id": 14989
  },
  {
    "type": 1,
    "icao": "SCOS",
    "lat": -40.5469437,
    "lon": -73.15555570000001,
    "communications": [],
    "elevation": 79,
    "tower": true,
    "name": "Pampa Alegre",
    "runways": [
      {
        "type": 100,
        "width": 14.33,
        "surfaceType": null,
        "numberStart": "13",
        "numberEnd": "31",
        "latStart": -40.54339884,
        "lonStart": -73.15920045,
        "latEnd": -40.55048856,
        "lonEnd": -73.15191095,
        "length": 0,
        "surfacetype": 2
      }
    ],
    "id": 19706
  },
  {
    "type": 1,
    "icao": "SCGA",
    "lat": -40.003616,
    "lon": -73.697453155,
    "communications": [
      {
        "type": 54,
        "frequency": 11820,
        "name": "ATC traffic"
      }
    ],
    "elevation": 235,
    "tower": true,
    "name": "Punta Galera",
    "runways": [
      {
        "type": 100,
        "width": 15.85,
        "surfaceType": null,
        "numberStart": "18",
        "numberEnd": "36",
        "latStart": -39.99979771,
        "lonStart": -73.69657422,
        "latEnd": -40.00743429,
        "lonEnd": -73.69833209,
        "length": 0,
        "surfacetype": 3
      }
    ],
    "id": 20630
  }
]