[
  {
    "type": 1,
    "icao": "RKTU",
    "lat": 36.7165645,
    "lon": 82.10564724999999,
    "communications": [
      {
        "type": 50,
        "frequency": 12885,
        "name": "ATIS"
      },
      {
        "type": 53,
        "frequency": 12065,
        "name": "GND"
      },
      {
        "type": 54,
        "frequency": 12620,
        "name": "TWR"
      },
      {
        "type": 54,
        "frequency": 11870,
        "name": "TWR"
      },
      {
        "type": 55,
        "frequency": 13400,
        "name": "JUNGWON APP"
      },
      {
        "type": 55,
        "frequency": 13440,
        "name": "JUNGWON APP"
      },
      {
        "type": 56,
        "frequency": 13400,
        "name": "JUNGWON DEP"
      },
      {
        "type": 56,
        "frequency": 13440,
        "name": "JUNGWON DEP"
      },
      {
        "type": 56,
        "frequency": 13410,
        "name": "JUNGWON DEP"
      }
    ],
    "elevation": 190,
    "tower": true,
    "name": "CHEONGJU INTL",
    "runways": [
      {
        "type": 100,
        "width": 60.96,
        "surfaceType": null,
        "numberStart": "06L",
        "numberEnd": "24R",
        "latStart": 36.710133,
        "lonStart": 127.486839,
        "latEnd": 36.725333,
        "lonEnd": 127.510872,
        "length": 0,
        "surfacetype": 2
      },
      {
        "type": 100,
        "width": 45.72,
        "surfaceType": null,
        "numberStart": "06R",
        "numberEnd": "24L",
        "latStart": 36.707875,
        "lonStart": 127.4875,
        "latEnd": 36.722917,
        "lonEnd": 127.51145,
        "length": 0,
        "surfacetype": 2
      }
    ],
    "id": 3852
  },
  {
    "type": 1,
    "icao": "RK24",
    "lat": 36.1802775,
    "lon": 82.006111,
    "communications": [],
    "elevation": 546,
    "tower": false,
    "name": "G 522",
    "runways": [
      {
        "type": 100,
        "width": 15.24,
        "surfaceType": null,
        "numberStart": "08",
        "numberEnd": "26",
        "latStart": 36.179722,
        "lonStart": 127.831389,
        "latEnd": 36.180833,
        "lonEnd": 127.835281,
        "length": 0,
        "surfacetype": 4
      }
    ],
    "id": 9839
  },
  {
    "type": 1,
    "icao": "RKTE",
    "lat": 36.568177500000004,
    "lon": 82.030265,
    "communications": [
      {
        "type": 53,
        "frequency": 13455,
        "name": "GND"
      },
      {
        "type": 54,
        "frequency": 12620,
        "name": "TWR"
      },
      {
        "type": 54,
        "frequency": 13130,
        "name": "TWR"
      }
    ],
    "elevation": 258,
    "tower": true,
    "name": "SEONGMU",
    "runways": [
      {
        "type": 100,
        "width": 36.58,
        "surfaceType": null,
        "numberStart": "16",
        "numberEnd": "34",
        "latStart": 36.573211,
        "lonStart": 127.497386,
        "latEnd": 36.563144,
        "lonEnd": 127.502844,
        "length": 0,
        "surfacetype": 2
      }
    ],
    "id": 22161
  },
  {
    "type": 1,
    "icao": "RKTY",
    "lat": 36.6319335,
    "lon": 82.4858585,
    "communications": [
      {
        "type": 50,
        "frequency": 13680,
        "name": "ATIS"
      },
      {
        "type": 53,
        "frequency": 12620,
        "name": "GND"
      },
      {
        "type": 53,
        "frequency": 12435,
        "name": "GND"
      },
      {
        "type": 54,
        "frequency": 12620,
        "name": "TWR"
      },
      {
        "type": 54,
        "frequency": 12435,
        "name": "TWR"
      },
      {
        "type": 55,
        "frequency": 13450,
        "name": "APP"
      },
      {
        "type": 55,
        "frequency": 12445,
        "name": "APP"
      },
      {
        "type": 56,
        "frequency": 13450,
        "name": "DEP"
      }
    ],
    "elevation": 354,
    "tower": true,
    "name": "YECHEON",
    "runways": [
      {
        "type": 100,
        "width": 45.72,
        "surfaceType": null,
        "numberStart": "10",
        "numberEnd": "28",
        "latStart": 36.631667,
        "lonStart": 128.339517,
        "latEnd": 36.6322,
        "lonEnd": 128.370147,
        "length": 0,
        "surfacetype": 2
      }
    ],
    "id": 27691
  }
]