[
  {
    "type": 1,
    "icao": "0B8",
    "lat": 41.252157385,
    "lon": -72.0316438925,
    "communications": [
      {
        "type": 51,
        "frequency": 12280,
        "name": "CTAF/UNICOM"
      },
      {
        "type": 55,
        "frequency": 12575,
        "name": "PROVIDENCE APP/DEP"
      }
    ],
    "elevation": 8,
    "tower": false,
    "name": "Elizabeth Field",
    "runways": [
      {
        "type": 100,
        "width": 30.48,
        "surfaceType": null,
        "numberStart": "12",
        "numberEnd": "30",
        "latStart": 41.25261908,
        "lonStart": -72.03575022,
        "latEnd": 41.25141173,
        "lonEnd": -72.02738496,
        "length": 0,
        "surfacetype": 1
      },
      {
        "type": 100,
        "width": 22.86,
        "surfaceType": null,
        "numberStart": "07",
        "numberEnd": "25",
        "latStart": 41.25111852,
        "lonStart": -72.03459288,
        "latEnd": 41.25348021,
        "lonEnd": -72.02884751,
        "length": 0,
        "surfacetype": 1
      }
    ],
    "id": 5
  },
  {
    "type": 1,
    "icao": "4B8",
    "lat": 41.68931666,
    "lon": -72.86463017,
    "communications": [
      {
        "type": 51,
        "frequency": 12280,
        "name": "CTAF/UNICOM"
      },
      {
        "type": 52,
        "frequency": 13450,
        "name": "BRADLEY CLNC DEL"
      }
    ],
    "elevation": 200,
    "tower": false,
    "name": "Robertson Field",
    "runways": [
      {
        "type": 100,
        "width": 22.86,
        "surfaceType": null,
        "numberStart": "02",
        "numberEnd": "20",
        "latStart": 41.68431489,
        "lonStart": -72.86526644,
        "latEnd": 41.69431843,
        "lonEnd": -72.8639939,
        "length": 0,
        "surfacetype": 1
      }
    ],
    "id": 148
  },
  {
    "type": 1,
    "icao": "7B9",
    "lat": 41.925315420000004,
    "lon": -72.45703854,
    "communications": [],
    "elevation": 252,
    "tower": false,
    "name": "Ellington",
    "runways": [
      {
        "type": 100,
        "width": 15.24,
        "surfaceType": null,
        "numberStart": "01",
        "numberEnd": "19",
        "latStart": 41.92272953,
        "lonStart": -72.45674936,
        "latEnd": 41.92790131,
        "lonEnd": -72.45732772,
        "length": 0,
        "surfacetype": 1
      }
    ],
    "id": 242
  },
  {
    "type": 1,
    "icao": "42B",
    "lat": 41.4453457125,
    "lon": -72.457989215,
    "communications": [],
    "elevation": 8,
    "tower": false,
    "name": "Goodspeed",
    "runways": [
      {
        "type": 100,
        "width": 15.24,
        "surfaceType": null,
        "numberStart": "14",
        "numberEnd": "32",
        "latStart": 41.44815798,
        "lonStart": -72.46009337,
        "latEnd": 41.44420557,
        "lonEnd": -72.45410075,
        "length": 0,
        "surfacetype": 1
      },
      {
        "type": 101,
        "width": 222.7,
        "surfaceType": null,
        "numberStart": "16",
        "numberEnd": "34",
        "latStart": 41.44962007,
        "lonStart": -72.46347987,
        "latEnd": 41.43939923,
        "lonEnd": -72.45428287,
        "length": 0
      }
    ],
    "id": 396
  },
  {
    "type": 1,
    "icao": "C44",
    "lat": 41.955761804999995,
    "lon": -72.05438228,
    "communications": [
      {
        "type": 51,
        "frequency": 12290,
        "name": "CTAF"
      }
    ],
    "elevation": 770,
    "tower": false,
    "name": "Toutant",
    "runways": [
      {
        "type": 100,
        "width": 18.29,
        "surfaceType": null,
        "numberStart": "17",
        "numberEnd": "35",
        "latStart": 41.9579198,
        "lonStart": -72.05603344,
        "latEnd": 41.95360381,
        "lonEnd": -72.05273112,
        "length": 0,
        "surfacetype": 1
      }
    ],
    "id": 628
  },
  {
    "type": 1,
    "icao": "KBDL",
    "lat": 41.938915998333336,
    "lon": -72.68278953,
    "communications": [
      {
        "type": 50,
        "frequency": 11815,
        "name": "ATIS"
      },
      {
        "type": 51,
        "frequency": 12295,
        "name": "UNICOM"
      },
      {
        "type": 52,
        "frequency": 12175,
        "name": "CLNC DEL"
      },
      {
        "type": 53,
        "frequency": 12190,
        "name": "GND"
      },
      {
        "type": 54,
        "frequency": 12565,
        "name": "TWR"
      },
      {
        "type": 54,
        "frequency": 12030,
        "name": "TWR"
      },
      {
        "type": 55,
        "frequency": 12722,
        "name": "APP"
      },
      {
        "type": 55,
        "frequency": 12780,
        "name": "APP"
      },
      {
        "type": 55,
        "frequency": 12535,
        "name": "APP"
      },
      {
        "type": 55,
        "frequency": 12395,
        "name": "APP"
      },
      {
        "type": 56,
        "frequency": 12395,
        "name": "DEP"
      },
      {
        "type": 56,
        "frequency": 12535,
        "name": "DEP"
      },
      {
        "type": 56,
        "frequency": 12780,
        "name": "DEP"
      }
    ],
    "elevation": 171,
    "tower": true,
    "name": "Bradley International",
    "runways": [
      {
        "type": 100,
        "width": 30.48,
        "surfaceType": null,
        "numberStart": "01",
        "numberEnd": "19",
        "latStart": 41.93372899,
        "lonStart": -72.67962017,
        "latEnd": 41.945436,
        "lonEnd": -72.679883,
        "length": 0,
        "surfacetype": 1
      },
      {
        "type": 100,
        "width": 60.96,
        "surfaceType": null,
        "numberStart": "06",
        "numberEnd": "24",
        "latStart": 41.932014,
        "lonStart": -72.696581,
        "latEnd": 41.950664,
        "lonEnd": -72.67213301,
        "length": 0,
        "surfacetype": 1
      },
      {
        "type": 100,
        "width": 45.72,
        "surfaceType": null,
        "numberStart": "15",
        "numberEnd": "33",
        "latStart": 41.942397,
        "lonStart": -72.693253,
        "latEnd": 41.929256,
        "lonEnd": -72.675267,
        "length": 0,
        "surfacetype": 1
      }
    ],
    "id": 2396
  },
  {
    "type": 1,
    "icao": "KGON",
    "lat": 41.32997775,
    "lon": -72.045405,
    "communications": [
      {
        "type": 50,
        "frequency": 12700,
        "name": "ATIS"
      },
      {
        "type": 51,
        "frequency": 12560,
        "name": "CTAF"
      },
      {
        "type": 52,
        "frequency": 11985,
        "name": "CLNC DEL"
      },
      {
        "type": 53,
        "frequency": 12165,
        "name": "GND"
      },
      {
        "type": 54,
        "frequency": 12560,
        "name": "TWR"
      },
      {
        "type": 55,
        "frequency": 12575,
        "name": "PROVIDENCE APP/DEP"
      }
    ],
    "elevation": 6,
    "tower": true,
    "name": "Groton New London",
    "runways": [
      {
        "type": 100,
        "width": 45.72,
        "surfaceType": null,
        "numberStart": "05",
        "numberEnd": "23",
        "latStart": 41.325033,
        "lonStart": -72.048028,
        "latEnd": 41.336414,
        "lonEnd": -72.037853,
        "length": 0,
        "surfacetype": 1
      },
      {
        "type": 100,
        "width": 30.48,
        "surfaceType": null,
        "numberStart": "15",
        "numberEnd": "33",
        "latStart": 41.333117,
        "lonStart": -72.053014,
        "latEnd": 41.325347,
        "lonEnd": -72.042725,
        "length": 0,
        "surfacetype": 1
      }
    ],
    "id": 2723
  },
  {
    "type": 1,
    "icao": "KHFD",
    "lat": 41.73760658,
    "lon": -72.65054487833332,
    "communications": [
      {
        "type": 50,
        "frequency": 12645,
        "name": "ATIS"
      },
      {
        "type": 51,
        "frequency": 11960,
        "name": "CTAF"
      },
      {
        "type": 51,
        "frequency": 12295,
        "name": "UNICOM"
      },
      {
        "type": 52,
        "frequency": 12160,
        "name": "BRADLEY CLNC DEL"
      },
      {
        "type": 53,
        "frequency": 12160,
        "name": "GND"
      },
      {
        "type": 54,
        "frequency": 11960,
        "name": "BRAINARD TWR"
      },
      {
        "type": 55,
        "frequency": 12780,
        "name": "BRADLEY APP/DEP"
      }
    ],
    "elevation": 18,
    "tower": true,
    "name": "Hartford Brainard",
    "runways": [
      {
        "type": 100,
        "width": 45.72,
        "surfaceType": null,
        "numberStart": "02",
        "numberEnd": "20",
        "latStart": 41.731639,
        "lonStart": -72.649811,
        "latEnd": 41.743614,
        "lonEnd": -72.647294,
        "length": 0,
        "surfacetype": 1
      },
      {
        "type": 100,
        "width": 21.64,
        "surfaceType": null,
        "numberStart": "11",
        "numberEnd": "29",
        "latStart": 41.73419355,
        "lonStart": -72.65759969,
        "latEnd": 41.733206,
        "lonEnd": -72.649206,
        "length": 0,
        "surfacetype": 1
      },
      {
        "type": 102,
        "width": 13.9,
        "surfaceType": 1,
        "numberStart": "H1",
        "numberEnd": null,
        "latStart": 41.74374722,
        "lonStart": -72.64905193,
        "latEnd": null,
        "lonEnd": null,
        "length": 14
      },
      {
        "type": 102,
        "width": 17.1,
        "surfaceType": 1,
        "numberStart": "H2",
        "numberEnd": null,
        "latStart": 41.73923971,
        "lonStart": -72.65030665,
        "latEnd": null,
        "lonEnd": null,
        "length": 16.7
      }
    ],
    "id": 2755
  },
  {
    "type": 1,
    "icao": "KHVN",
    "lat": 41.2637433225,
    "lon": -72.886539545,
    "communications": [
      {
        "type": 50,
        "frequency": 13365,
        "name": "ATIS"
      },
      {
        "type": 51,
        "frequency": 12480,
        "name": "CTAF"
      },
      {
        "type": 51,
        "frequency": 12295,
        "name": "UNICOM"
      },
      {
        "type": 53,
        "frequency": 12170,
        "name": "GND"
      },
      {
        "type": 54,
        "frequency": 12480,
        "name": "NEW HAVEN TWR"
      },
      {
        "type": 55,
        "frequency": 12407,
        "name": "NEW YORK APP/DEP"
      }
    ],
    "elevation": 14,
    "tower": true,
    "name": "Tweed New Haven",
    "runways": [
      {
        "type": 100,
        "width": 45.72,
        "surfaceType": null,
        "numberStart": "02",
        "numberEnd": "20",
        "latStart": 41.25603283,
        "lonStart": -72.88824862,
        "latEnd": 41.27138849,
        "lonEnd": -72.88719868,
        "length": 0,
        "surfacetype": 1
      },
      {
        "type": 100,
        "width": 30.48,
        "surfaceType": null,
        "numberStart": "14",
        "numberEnd": "32",
        "latStart": 41.26705249,
        "lonStart": -72.8903232,
        "latEnd": 41.26049948,
        "lonEnd": -72.88038768,
        "length": 0,
        "surfacetype": 1
      }
    ],
    "id": 2788
  },
  {
    "type": 1,
    "icao": "KIJD",
    "lat": 41.743791,
    "lon": -72.18091949999999,
    "communications": [
      {
        "type": 50,
        "frequency": 13367,
        "name": "ASOS"
      },
      {
        "type": 51,
        "frequency": 12297,
        "name": "CTAF/UNICOM"
      },
      {
        "type": 52,
        "frequency": 12860,
        "name": "BRADLEY CLNC DEL"
      },
      {
        "type": 55,
        "frequency": 11945,
        "name": "PROVIDENCE APP"
      },
      {
        "type": 55,
        "frequency": 13540,
        "name": "PROVIDENCE APP"
      },
      {
        "type": 56,
        "frequency": 12780,
        "name": "BRADLEY DEP"
      }
    ],
    "elevation": 247,
    "tower": false,
    "name": "Windham",
    "runways": [
      {
        "type": 100,
        "width": 30.48,
        "surfaceType": null,
        "numberStart": "09",
        "numberEnd": "27",
        "latStart": 41.743403,
        "lonStart": -72.185189,
        "latEnd": 41.746558,
        "lonEnd": -72.170089,
        "length": 0,
        "surfacetype": 1
      },
      {
        "type": 100,
        "width": 22.86,
        "surfaceType": null,
        "numberStart": "18",
        "numberEnd": "36",
        "latStart": 41.746281,
        "lonStart": -72.185661,
        "latEnd": 41.738922,
        "lonEnd": -72.182739,
        "length": 0,
        "surfacetype": 1
      }
    ],
    "id": 2815
  },
  {
    "type": 1,
    "icao": "KMMK",
    "lat": 41.508714825,
    "lon": -72.829478,
    "communications": [
      {
        "type": 50,
        "frequency": 13492,
        "name": "ASOS"
      },
      {
        "type": 51,
        "frequency": 12305,
        "name": "CTAF"
      },
      {
        "type": 52,
        "frequency": 12065,
        "name": "CLNC DEL"
      },
      {
        "type": 56,
        "frequency": 12780,
        "name": "APP/DEP"
      }
    ],
    "elevation": 103,
    "tower": false,
    "name": "Meriden Markham Municipal",
    "runways": [
      {
        "type": 100,
        "width": 22.86,
        "surfaceType": null,
        "numberStart": "18",
        "numberEnd": "36",
        "latStart": 41.51275305,
        "lonStart": -72.831257,
        "latEnd": 41.5046766,
        "lonEnd": -72.827699,
        "length": 0,
        "surfacetype": 1
      }
    ],
    "id": 2985
  },
  {
    "type": 1,
    "icao": "KSNC",
    "lat": 41.38390893,
    "lon": -72.50587608000001,
    "communications": [
      {
        "type": 50,
        "frequency": 11832,
        "name": "ASOS"
      },
      {
        "type": 51,
        "frequency": 12272,
        "name": "CTAF/UNICOM"
      },
      {
        "type": 55,
        "frequency": 12407,
        "name": "NEW YORK APP/DEP"
      }
    ],
    "elevation": 416,
    "tower": false,
    "name": "Chester",
    "runways": [
      {
        "type": 100,
        "width": 15.24,
        "surfaceType": null,
        "numberStart": "17",
        "numberEnd": "35",
        "latStart": 41.38725286,
        "lonStart": -72.50741672,
        "latEnd": 41.380565,
        "lonEnd": -72.50433544,
        "length": 0,
        "surfacetype": 1
      }
    ],
    "id": 3284
  },
  {
    "type": 17,
    "icao": "0CT1",
    "lat": 41.48481972,
    "lon": -72.75620834,
    "communications": [],
    "elevation": 350,
    "tower": false,
    "name": "[H] Bristol-Myers Squibb Company",
    "runways": [
      {
        "type": 102,
        "width": 15.2,
        "surfaceType": 1,
        "numberStart": "H1",
        "numberEnd": null,
        "latStart": 41.48481972,
        "lonStart": -72.75620834,
        "latEnd": null,
        "lonEnd": null,
        "length": 15.2
      }
    ],
    "id": 5758
  },
  {
    "type": 17,
    "icao": "0CT2",
    "lat": 41.71704305,
    "lon": -72.22591167,
    "communications": [],
    "elevation": 330,
    "tower": false,
    "name": "[H] Windham Hospital",
    "runways": [
      {
        "type": 102,
        "width": 12.2,
        "surfaceType": 1,
        "numberStart": "H1",
        "numberEnd": null,
        "latStart": 41.71704305,
        "lonStart": -72.22591167,
        "latEnd": null,
        "lonEnd": null,
        "length": 12.2
      }
    ],
    "id": 5759
  },
  {
    "type": 17,
    "icao": "0CT3",
    "lat": 41.66162694,
    "lon": -72.78787528,
    "communications": [],
    "elevation": 431,
    "tower": false,
    "name": "[H] N B G H",
    "runways": [
      {
        "type": 102,
        "width": 18.3,
        "surfaceType": 2,
        "numberStart": "H1",
        "numberEnd": null,
        "latStart": 41.66162694,
        "lonStart": -72.78787528,
        "latEnd": null,
        "lonEnd": null,
        "length": 18.3
      }
    ],
    "id": 5760
  },
  {
    "type": 17,
    "icao": "0CT4",
    "lat": 41.50620805,
    "lon": -72.93982584,
    "communications": [],
    "elevation": 398,
    "tower": false,
    "name": "[H] Burke",
    "runways": [
      {
        "type": 102,
        "width": 4.9,
        "surfaceType": 2,
        "numberStart": "H1",
        "numberEnd": null,
        "latStart": 41.50620805,
        "lonStart": -72.93982584,
        "latEnd": null,
        "lonEnd": null,
        "length": 15.2
      }
    ],
    "id": 5761
  },
  {
    "type": 17,
    "icao": "0CT5",
    "lat": 41.77454416,
    "lon": -72.69898223,
    "communications": [],
    "elevation": 184,
    "tower": false,
    "name": "[H] St Francis Hospital",
    "runways": [
      {
        "type": 102,
        "width": 15.2,
        "surfaceType": 2,
        "numberStart": "H1",
        "numberEnd": null,
        "latStart": 41.77454416,
        "lonStart": -72.69898223,
        "latEnd": null,
        "lonEnd": null,
        "length": 15.2
      }
    ],
    "id": 5762
  },
  {
    "type": 17,
    "icao": "0CT6",
    "lat": 41.59676555,
    "lon": -72.70453917,
    "communications": [],
    "elevation": 111,
    "tower": false,
    "name": "[H] Middletown",
    "runways": [
      {
        "type": 102,
        "width": 19.8,
        "surfaceType": 1,
        "numberStart": "H1",
        "numberEnd": null,
        "latStart": 41.59676555,
        "lonStart": -72.70453917,
        "latEnd": null,
        "lonEnd": null,
        "length": 19.8
      }
    ],
    "id": 5763
  },
  {
    "type": 17,
    "icao": "0CT9",
    "lat": 41.75454444,
    "lon": -72.67870389,
    "communications": [],
    "elevation": 209,
    "tower": false,
    "name": "[H] Hartford Hospital",
    "runways": [
      {
        "type": 102,
        "width": 22.9,
        "surfaceType": 2,
        "numberStart": "H1",
        "numberEnd": null,
        "latStart": 41.75454444,
        "lonStart": -72.67870389,
        "latEnd": null,
        "lonEnd": null,
        "length": 18.3
      }
    ],
    "id": 5766
  },
  {
    "type": 17,
    "icao": "1CT2",
    "lat": 41.30379138,
    "lon": -72.93576889,
    "communications": [],
    "elevation": 219,
    "tower": false,
    "name": "[H] Yale New Haven Hospital",
    "runways": [
      {
        "type": 102,
        "width": 22,
        "surfaceType": 1,
        "numberStart": "H1",
        "numberEnd": null,
        "latStart": 41.30379138,
        "lonStart": -72.93576889,
        "latEnd": null,
        "lonEnd": null,
        "length": 14.6
      }
    ],
    "id": 6355
  },
  {
    "type": 1,
    "icao": "2NK3",
    "lat": 41.15426472,
    "lon": -72.28008084,
    "communications": [],
    "elevation": 20,
    "tower": false,
    "name": "Rose Field",
    "runways": [
      {
        "type": 100,
        "width": 60.96,
        "surfaceType": null,
        "numberStart": "17",
        "numberEnd": "35",
        "latStart": 41.15564293,
        "lonStart": -72.2808958,
        "latEnd": 41.15288651,
        "lonEnd": -72.27926588,
        "length": 0,
        "surfacetype": 3
      }
    ],
    "id": 7190
  },
  {
    "type": 1,
    "icao": "4B9",
    "lat": 41.916763880000005,
    "lon": -72.77731778,
    "communications": [],
    "elevation": 195,
    "tower": false,
    "name": "Simsbury",
    "runways": [
      {
        "type": 100,
        "width": 15.24,
        "surfaceType": null,
        "numberStart": "03",
        "numberEnd": "21",
        "latStart": 41.91385821,
        "lonStart": -72.77843748,
        "latEnd": 41.91966955,
        "lonEnd": -72.77619808,
        "length": 0,
        "surfacetype": 1
      }
    ],
    "id": 7989
  },
  {
    "type": 1,
    "icao": "5CT0",
    "lat": 41.910375,
    "lon": -72.06813084000001,
    "communications": [],
    "elevation": 600,
    "tower": false,
    "name": "Eastford",
    "runways": [
      {
        "type": 100,
        "width": 12.19,
        "surfaceType": null,
        "numberStart": "13",
        "numberEnd": "31",
        "latStart": 41.91141831,
        "lonStart": -72.07113731,
        "latEnd": 41.90933169,
        "lonEnd": -72.06512437,
        "length": 0,
        "surfacetype": 5
      }
    ],
    "id": 8541
  },
  {
    "type": 17,
    "icao": "5CT2",
    "lat": 41.25259694,
    "lon": -72.99565917,
    "communications": [],
    "elevation": 88,
    "tower": false,
    "name": "[H] HIS",
    "runways": [
      {
        "type": 102,
        "width": 25.9,
        "surfaceType": 1,
        "numberStart": "H1",
        "numberEnd": null,
        "latStart": 41.25259694,
        "lonStart": -72.99565917,
        "latEnd": null,
        "lonEnd": null,
        "length": 25.9
      }
    ],
    "id": 8543
  },
  {
    "type": 1,
    "icao": "7B6",
    "lat": 41.92844927,
    "lon": -72.57626239999999,
    "communications": [
      {
        "type": 51,
        "frequency": 12280,
        "name": "CTAF/UNICOM"
      }
    ],
    "elevation": 120,
    "tower": false,
    "name": "SKYLARK AIRPARK",
    "runways": [
      {
        "type": 100,
        "width": 18.29,
        "surfaceType": null,
        "numberStart": "10",
        "numberEnd": "28",
        "latStart": 41.9282528,
        "lonStart": -72.58221116,
        "latEnd": 41.92864574,
        "lonEnd": -72.57031364,
        "length": 0,
        "surfacetype": 1
      }
    ],
    "id": 9518
  },
  {
    "type": 1,
    "icao": "9B8",
    "lat": 41.58954333,
    "lon": -72.44230778,
    "communications": [],
    "elevation": 540,
    "tower": false,
    "name": "Salmon River Airfield",
    "runways": [
      {
        "type": 100,
        "width": 18.29,
        "surfaceType": null,
        "numberStart": "17",
        "numberEnd": "35",
        "latStart": 41.59204917,
        "lonStart": -72.44379948,
        "latEnd": 41.58703749,
        "lonEnd": -72.44081608,
        "length": 0,
        "surfacetype": 3
      }
    ],
    "id": 10439
  },
  {
    "type": 1,
    "icao": "49NY",
    "lat": 41.06676611,
    "lon": -72.3495275,
    "communications": [],
    "elevation": 23,
    "tower": false,
    "name": "Westmoreland",
    "runways": [
      {
        "type": 100,
        "width": 60.96,
        "surfaceType": null,
        "numberStart": "18",
        "numberEnd": "36",
        "latStart": 41.06862916,
        "lonStart": -72.35014361,
        "latEnd": 41.06490306,
        "lonEnd": -72.34891139,
        "length": 0,
        "surfacetype": 3
      }
    ],
    "id": 12453
  },
  {
    "type": 17,
    "icao": "CT05",
    "lat": 41.86204277,
    "lon": -72.69981528,
    "communications": [],
    "elevation": 164,
    "tower": false,
    "name": "[H] Kaman Aerospace Corp",
    "runways": [
      {
        "type": 102,
        "width": 61,
        "surfaceType": 3,
        "numberStart": "H1",
        "numberEnd": null,
        "latStart": 41.86204277,
        "lonStart": -72.69981528,
        "latEnd": null,
        "lonEnd": null,
        "length": 792.5
      }
    ],
    "id": 15596
  },
  {
    "type": 17,
    "icao": "CT06",
    "lat": 41.78898833,
    "lon": -72.6606475,
    "communications": [],
    "elevation": 20,
    "tower": false,
    "name": "[H] Delta One",
    "runways": [
      {
        "type": 102,
        "width": 18.3,
        "surfaceType": 1,
        "numberStart": "H1",
        "numberEnd": null,
        "latStart": 41.78898833,
        "lonStart": -72.6606475,
        "latEnd": null,
        "lonEnd": null,
        "length": 24.4
      }
    ],
    "id": 15597
  },
  {
    "type": 1,
    "icao": "CT07",
    "lat": 41.57370944,
    "lon": -72.30313695,
    "communications": [],
    "elevation": 510,
    "tower": false,
    "name": "Skis Landing Area",
    "runways": [
      {
        "type": 100,
        "width": 22.86,
        "surfaceType": null,
        "numberStart": "09",
        "numberEnd": "27",
        "latStart": 41.57321175,
        "lonStart": -72.3058052,
        "latEnd": 41.57420713,
        "lonEnd": -72.3004687,
        "length": 0,
        "surfacetype": 3
      }
    ],
    "id": 15598
  },
  {
    "type": 1,
    "icao": "CT08",
    "lat": 41.508153879999995,
    "lon": -72.24369139000001,
    "communications": [],
    "elevation": 485,
    "tower": false,
    "name": "Gardner Lake",
    "runways": [
      {
        "type": 100,
        "width": 18.29,
        "surfaceType": null,
        "numberStart": "16",
        "numberEnd": "34",
        "latStart": 41.51031421,
        "lonStart": -72.24563723,
        "latEnd": 41.50599355,
        "lonEnd": -72.24174555,
        "length": 0,
        "surfacetype": 3
      }
    ],
    "id": 15599
  },
  {
    "type": 1,
    "icao": "CT09",
    "lat": 41.80287611,
    "lon": -72.39174917,
    "communications": [],
    "elevation": 793,
    "tower": false,
    "name": "Heckler Field",
    "runways": [
      {
        "type": 100,
        "width": 36.58,
        "surfaceType": null,
        "numberStart": "16",
        "numberEnd": "34",
        "latStart": 41.80440401,
        "lonStart": -72.39318436,
        "latEnd": 41.80134821,
        "lonEnd": -72.39031398,
        "length": 0,
        "surfacetype": 3
      }
    ],
    "id": 15600
  },
  {
    "type": 1,
    "icao": "CT10",
    "lat": 41.74815444,
    "lon": -72.29424639,
    "communications": [],
    "elevation": 550,
    "tower": false,
    "name": "Metenosky Aviation Field",
    "runways": [
      {
        "type": 100,
        "width": 91.44,
        "surfaceType": null,
        "numberStart": "05",
        "numberEnd": "23",
        "latStart": 41.74577895,
        "lonStart": -72.29608465,
        "latEnd": 41.75052993,
        "lonEnd": -72.29240813,
        "length": 0,
        "surfacetype": 3
      }
    ],
    "id": 15601
  },
  {
    "type": 1,
    "icao": "CT11",
    "lat": 41.44398722,
    "lon": -72.33897195,
    "communications": [],
    "elevation": 125,
    "tower": false,
    "name": "Devils Hopyard Field",
    "runways": [
      {
        "type": 100,
        "width": 60.96,
        "surfaceType": null,
        "numberStart": "18",
        "numberEnd": "36",
        "latStart": 41.44565066,
        "lonStart": -72.33952523,
        "latEnd": 41.44232378,
        "lonEnd": -72.33841867,
        "length": 0,
        "surfacetype": 3
      }
    ],
    "id": 15602
  },
  {
    "type": 1,
    "icao": "CT14",
    "lat": 41.86676472,
    "lon": -72.61620112,
    "communications": [],
    "elevation": 51,
    "tower": false,
    "name": "Bancroft",
    "runways": [
      {
        "type": 100,
        "width": 30.48,
        "surfaceType": null,
        "numberStart": "13",
        "numberEnd": "31",
        "latStart": 41.86784692,
        "lonStart": -72.61918063,
        "latEnd": 41.86568252,
        "lonEnd": -72.61322161,
        "length": 0,
        "surfacetype": 3
      }
    ],
    "id": 15605
  },
  {
    "type": 1,
    "icao": "CT15",
    "lat": 41.945374720000004,
    "lon": -72.47758501,
    "communications": [],
    "elevation": 390,
    "tower": false,
    "name": "Wysocki Field",
    "runways": [
      {
        "type": 100,
        "width": 54.86,
        "surfaceType": null,
        "numberStart": "18",
        "numberEnd": "36",
        "latStart": 41.94775928,
        "lonStart": -72.47844405,
        "latEnd": 41.94299016,
        "lonEnd": -72.47672597,
        "length": 0,
        "surfacetype": 3
      }
    ],
    "id": 15606
  },
  {
    "type": 16,
    "icao": "CT16",
    "lat": 41.37509833,
    "lon": -72.37452862,
    "communications": [],
    "elevation": 0,
    "tower": false,
    "name": "[S] Fetske",
    "runways": [
      {
        "type": 101,
        "width": 60.96,
        "surfaceType": null,
        "numberStart": "18",
        "numberEnd": "36",
        "latStart": 41.38175209,
        "lonStart": -72.3767394,
        "latEnd": 41.36844457,
        "lonEnd": -72.37231784,
        "length": 0
      }
    ],
    "id": 15607
  },
  {
    "type": 17,
    "icao": "CT17",
    "lat": 41.76565527,
    "lon": -72.67342584,
    "communications": [],
    "elevation": 351,
    "tower": false,
    "name": "[H] United Technology Corp.",
    "runways": [
      {
        "type": 102,
        "width": 28.4,
        "surfaceType": 2,
        "numberStart": "H1",
        "numberEnd": null,
        "latStart": 41.76565527,
        "lonStart": -72.67342584,
        "latEnd": null,
        "lonEnd": null,
        "length": 28.4
      }
    ],
    "id": 15608
  },
  {
    "type": 17,
    "icao": "CT18",
    "lat": 41.76482194,
    "lon": -72.68203723,
    "communications": [],
    "elevation": 63,
    "tower": false,
    "name": "[H] State Emergency",
    "runways": [
      {
        "type": 102,
        "width": 61,
        "surfaceType": 3,
        "numberStart": "H1",
        "numberEnd": null,
        "latStart": 41.76482194,
        "lonStart": -72.68203723,
        "latEnd": null,
        "lonEnd": null,
        "length": 152.4
      }
    ],
    "id": 15609
  },
  {
    "type": 1,
    "icao": "CT19",
    "lat": 41.96815222,
    "lon": -72.53980917,
    "communications": [],
    "elevation": 129,
    "tower": false,
    "name": "Laurie Field",
    "runways": [
      {
        "type": 100,
        "width": 30.48,
        "surfaceType": null,
        "numberStart": "03",
        "numberEnd": "21",
        "latStart": 41.96576766,
        "lonStart": -72.54066852,
        "latEnd": 41.97053678,
        "lonEnd": -72.53894982,
        "length": 0,
        "surfacetype": 3
      }
    ],
    "id": 15610
  },
  {
    "type": 1,
    "icao": "CT20",
    "lat": 41.600098880000004,
    "lon": -72.43286278,
    "communications": [],
    "elevation": 350,
    "tower": false,
    "name": "Rankl Field",
    "runways": [
      {
        "type": 100,
        "width": 60.96,
        "surfaceType": null,
        "numberStart": "14",
        "numberEnd": "32",
        "latStart": 41.60122907,
        "lonStart": -72.43537811,
        "latEnd": 41.59896869,
        "lonEnd": -72.43034745,
        "length": 0,
        "surfacetype": 3
      }
    ],
    "id": 15611
  },
  {
    "type": 17,
    "icao": "CT21",
    "lat": 41.50787527,
    "lon": -72.77065334,
    "communications": [],
    "elevation": 333,
    "tower": false,
    "name": "[H] C N Flagg",
    "runways": [
      {
        "type": 102,
        "width": 15.2,
        "surfaceType": 2,
        "numberStart": "H1",
        "numberEnd": null,
        "latStart": 41.50787527,
        "lonStart": -72.77065334,
        "latEnd": null,
        "lonEnd": null,
        "length": 15.2
      }
    ],
    "id": 15612
  },
  {
    "type": 17,
    "icao": "CT22",
    "lat": 41.660655,
    "lon": -72.72842862,
    "communications": [],
    "elevation": 140,
    "tower": false,
    "name": "[H] H O Penn-1",
    "runways": [
      {
        "type": 102,
        "width": 21.3,
        "surfaceType": 4,
        "numberStart": "H1",
        "numberEnd": null,
        "latStart": 41.660655,
        "lonStart": -72.72842862,
        "latEnd": null,
        "lonEnd": null,
        "length": 30.5
      }
    ],
    "id": 15613
  },
  {
    "type": 17,
    "icao": "CT23",
    "lat": 41.94009694,
    "lon": -72.60592251,
    "communications": [],
    "elevation": 115,
    "tower": false,
    "name": "[H] Della",
    "runways": [
      {
        "type": 102,
        "width": 24.4,
        "surfaceType": 3,
        "numberStart": "H1",
        "numberEnd": null,
        "latStart": 41.94009694,
        "lonStart": -72.60592251,
        "latEnd": null,
        "lonEnd": null,
        "length": 24.4
      }
    ],
    "id": 15614
  },
  {
    "type": 17,
    "icao": "CT26",
    "lat": 41.64871027,
    "lon": -72.66342639,
    "communications": [],
    "elevation": 180,
    "tower": false,
    "name": "[H] Corporate Ridge",
    "runways": [
      {
        "type": 102,
        "width": 19.5,
        "surfaceType": 2,
        "numberStart": "H1",
        "numberEnd": null,
        "latStart": 41.64871027,
        "lonStart": -72.66342639,
        "latEnd": null,
        "lonEnd": null,
        "length": 19.5
      }
    ],
    "id": 15617
  },
  {
    "type": 17,
    "icao": "CT28",
    "lat": 41.6584325,
    "lon": -72.64759223,
    "communications": [],
    "elevation": 148,
    "tower": false,
    "name": "[H] Veterans Home & Hospital",
    "runways": [
      {
        "type": 102,
        "width": 30.5,
        "surfaceType": 3,
        "numberStart": "H1",
        "numberEnd": null,
        "latStart": 41.6584325,
        "lonStart": -72.64759223,
        "latEnd": null,
        "lonEnd": null,
        "length": 30.5
      }
    ],
    "id": 15619
  },
  {
    "type": 16,
    "icao": "CT30",
    "lat": 41.638988049999995,
    "lon": -72.62814723,
    "communications": [],
    "elevation": 1,
    "tower": false,
    "name": "[S] Nayaug Seaplane Landing Area",
    "runways": [
      {
        "type": 101,
        "width": 121.92,
        "surfaceType": null,
        "numberStart": "03",
        "numberEnd": "21",
        "latStart": 41.63503297,
        "lonStart": -72.62966474,
        "latEnd": 41.64294313,
        "lonEnd": -72.62662972,
        "length": 0
      }
    ],
    "id": 15621
  },
  {
    "type": 1,
    "icao": "CT31",
    "lat": 41.96509638,
    "lon": -72.33285862,
    "communications": [],
    "elevation": 515,
    "tower": false,
    "name": "Swift",
    "runways": [
      {
        "type": 100,
        "width": 18.29,
        "surfaceType": null,
        "numberStart": "12",
        "numberEnd": "30",
        "latStart": 41.9660193,
        "lonStart": -72.33749094,
        "latEnd": 41.96417346,
        "lonEnd": -72.3282263,
        "length": 0,
        "surfacetype": 1
      }
    ],
    "id": 15622
  },
  {
    "type": 17,
    "icao": "CT33",
    "lat": 41.48148611,
    "lon": -72.80593223,
    "communications": [],
    "elevation": 125,
    "tower": false,
    "name": "[H] Clark",
    "runways": [
      {
        "type": 102,
        "width": 30.5,
        "surfaceType": 2,
        "numberStart": "H1",
        "numberEnd": null,
        "latStart": 41.48148611,
        "lonStart": -72.80593223,
        "latEnd": null,
        "lonEnd": null,
        "length": 30.5
      }
    ],
    "id": 15624
  },
  {
    "type": 17,
    "icao": "CT34",
    "lat": 41.33843027,
    "lon": -72.86815612,
    "communications": [],
    "elevation": 12,
    "tower": false,
    "name": "[H] Ussc North Haven",
    "runways": [
      {
        "type": 102,
        "width": 18.3,
        "surfaceType": 1,
        "numberStart": "H1",
        "numberEnd": null,
        "latStart": 41.33843027,
        "lonStart": -72.86815612,
        "latEnd": null,
        "lonEnd": null,
        "length": 18.3
      }
    ],
    "id": 15625
  },
  {
    "type": 17,
    "icao": "CT35",
    "lat": 41.93343027,
    "lon": -72.69953695,
    "communications": [],
    "elevation": 171,
    "tower": false,
    "name": "[H] Hamilton Standard",
    "runways": [
      {
        "type": 102,
        "width": 18.3,
        "surfaceType": 1,
        "numberStart": "H1",
        "numberEnd": null,
        "latStart": 41.93343027,
        "lonStart": -72.69953695,
        "latEnd": null,
        "lonEnd": null,
        "length": 18.3
      }
    ],
    "id": 15626
  },
  {
    "type": 1,
    "icao": "CT36",
    "lat": 41.5645425,
    "lon": -72.19730111999999,
    "communications": [],
    "elevation": 465,
    "tower": false,
    "name": "Gager Field",
    "runways": [
      {
        "type": 100,
        "width": 15.24,
        "surfaceType": null,
        "numberStart": "02",
        "numberEnd": "20",
        "latStart": 41.56160502,
        "lonStart": -72.1976446,
        "latEnd": 41.56747998,
        "lonEnd": -72.19695764,
        "length": 0,
        "surfacetype": 3
      }
    ],
    "id": 15627
  },
  {
    "type": 17,
    "icao": "CT38",
    "lat": 41.71232166,
    "lon": -72.58786723,
    "communications": [],
    "elevation": 104,
    "tower": false,
    "name": "[H] Corporate Center",
    "runways": [
      {
        "type": 102,
        "width": 13.1,
        "surfaceType": 3,
        "numberStart": "H1",
        "numberEnd": null,
        "latStart": 41.71232166,
        "lonStart": -72.58786723,
        "latEnd": null,
        "lonEnd": null,
        "length": 13.1
      }
    ],
    "id": 15629
  },
  {
    "type": 1,
    "icao": "CT39",
    "lat": 41.46843111,
    "lon": -72.70842889,
    "communications": [],
    "elevation": 280,
    "tower": false,
    "name": "Maplewood Farm",
    "runways": [
      {
        "type": 100,
        "width": 15.24,
        "surfaceType": null,
        "numberStart": "15",
        "numberEnd": "33",
        "latStart": 41.4698123,
        "lonStart": -72.71020891,
        "latEnd": 41.46704992,
        "lonEnd": -72.70664887,
        "length": 0,
        "surfacetype": 3
      }
    ],
    "id": 15630
  },
  {
    "type": 17,
    "icao": "CT40",
    "lat": 41.36981916,
    "lon": -72.91732445,
    "communications": [],
    "elevation": 80,
    "tower": false,
    "name": "[H] Bob Thomas Ford",
    "runways": [
      {
        "type": 102,
        "width": 18.3,
        "surfaceType": 1,
        "numberStart": "H1",
        "numberEnd": null,
        "latStart": 41.36981916,
        "lonStart": -72.91732445,
        "latEnd": null,
        "lonEnd": null,
        "length": 18.3
      }
    ],
    "id": 15631
  },
  {
    "type": 17,
    "icao": "CT49",
    "lat": 41.66759888,
    "lon": -72.83232139,
    "communications": [],
    "elevation": 240,
    "tower": false,
    "name": "[H] Plainville",
    "runways": [
      {
        "type": 102,
        "width": 22.9,
        "surfaceType": 1,
        "numberStart": "H1",
        "numberEnd": null,
        "latStart": 41.66759888,
        "lonStart": -72.83232139,
        "latEnd": null,
        "lonEnd": null,
        "length": 22.9
      }
    ],
    "id": 15640
  },
  {
    "type": 17,
    "icao": "CT50",
    "lat": 41.94287472,
    "lon": -72.70620389,
    "communications": [],
    "elevation": 148,
    "tower": false,
    "name": "[H] Marks",
    "runways": [
      {
        "type": 102,
        "width": 9.1,
        "surfaceType": 2,
        "numberStart": "H1",
        "numberEnd": null,
        "latStart": 41.94287472,
        "lonStart": -72.70620389,
        "latEnd": null,
        "lonEnd": null,
        "length": 9.1
      }
    ],
    "id": 15641
  },
  {
    "type": 17,
    "icao": "CT54",
    "lat": 41.3356525,
    "lon": -72.79065362,
    "communications": [],
    "elevation": 253,
    "tower": false,
    "name": "[H] North Branford",
    "runways": [
      {
        "type": 102,
        "width": 30.5,
        "surfaceType": 1,
        "numberStart": "H1",
        "numberEnd": null,
        "latStart": 41.3356525,
        "lonStart": -72.79065362,
        "latEnd": null,
        "lonEnd": null,
        "length": 30.5
      }
    ],
    "id": 15645
  },
  {
    "type": 17,
    "icao": "CT55",
    "lat": 41.36731916,
    "lon": -72.88010112,
    "communications": [],
    "elevation": 8,
    "tower": false,
    "name": "[H] North Haven",
    "runways": [
      {
        "type": 102,
        "width": 30.5,
        "surfaceType": 1,
        "numberStart": "H1",
        "numberEnd": null,
        "latStart": 41.36731916,
        "lonStart": -72.88010112,
        "latEnd": null,
        "lonEnd": null,
        "length": 30.5
      }
    ],
    "id": 15646
  },
  {
    "type": 17,
    "icao": "CT57",
    "lat": 41.30482055,
    "lon": -72.37175084,
    "communications": [],
    "elevation": 100,
    "tower": false,
    "name": "[H] Old Saybrook",
    "runways": [
      {
        "type": 102,
        "width": 22.9,
        "surfaceType": 1,
        "numberStart": "H1",
        "numberEnd": null,
        "latStart": 41.30482055,
        "lonStart": -72.37175084,
        "latEnd": null,
        "lonEnd": null,
        "length": 30.5
      }
    ],
    "id": 15648
  },
  {
    "type": 17,
    "icao": "CT58",
    "lat": 41.56593194,
    "lon": -72.64148167,
    "communications": [],
    "elevation": 40,
    "tower": false,
    "name": "[H] Portland",
    "runways": [
      {
        "type": 102,
        "width": 30.5,
        "surfaceType": 3,
        "numberStart": "H1",
        "numberEnd": null,
        "latStart": 41.56593194,
        "lonStart": -72.64148167,
        "latEnd": null,
        "lonEnd": null,
        "length": 30.5
      }
    ],
    "id": 15649
  },
  {
    "type": 17,
    "icao": "CT65",
    "lat": 41.46954194,
    "lon": -72.74204112,
    "communications": [],
    "elevation": 325,
    "tower": false,
    "name": "[H] Reeds Gap",
    "runways": [
      {
        "type": 102,
        "width": 27.4,
        "surfaceType": 1,
        "numberStart": "H1",
        "numberEnd": null,
        "latStart": 41.46954194,
        "lonStart": -72.74204112,
        "latEnd": null,
        "lonEnd": null,
        "length": 30.5
      }
    ],
    "id": 15654
  },
  {
    "type": 17,
    "icao": "CT69",
    "lat": 41.72537638,
    "lon": -72.19174445,
    "communications": [],
    "elevation": 242,
    "tower": false,
    "name": "[H] Nasin",
    "runways": [
      {
        "type": 102,
        "width": 7.6,
        "surfaceType": 2,
        "numberStart": "H1",
        "numberEnd": null,
        "latStart": 41.72537638,
        "lonStart": -72.19174445,
        "latEnd": null,
        "lonEnd": null,
        "length": 15.2
      }
    ],
    "id": 15658
  },
  {
    "type": 17,
    "icao": "CT71",
    "lat": 41.70843277,
    "lon": -72.80232,
    "communications": [],
    "elevation": 360,
    "tower": false,
    "name": "[H] Otis Helistop Division of Utc",
    "runways": [
      {
        "type": 102,
        "width": 24.4,
        "surfaceType": 1,
        "numberStart": "H1",
        "numberEnd": null,
        "latStart": 41.70843277,
        "lonStart": -72.80232,
        "latEnd": null,
        "lonEnd": null,
        "length": 24.4
      }
    ],
    "id": 15660
  },
  {
    "type": 17,
    "icao": "CT72",
    "lat": 41.81954361,
    "lon": -72.74815056,
    "communications": [],
    "elevation": 148,
    "tower": false,
    "name": "[H] Cigna",
    "runways": [
      {
        "type": 102,
        "width": 22.9,
        "surfaceType": 1,
        "numberStart": "H1",
        "numberEnd": null,
        "latStart": 41.81954361,
        "lonStart": -72.74815056,
        "latEnd": null,
        "lonEnd": null,
        "length": 22.9
      }
    ],
    "id": 15661
  },
  {
    "type": 1,
    "icao": "CT74",
    "lat": 41.950652219999995,
    "lon": -72.18146612,
    "communications": [],
    "elevation": 899,
    "tower": false,
    "name": "Westford Airstrip",
    "runways": [
      {
        "type": 100,
        "width": 60.96,
        "surfaceType": null,
        "numberStart": "18",
        "numberEnd": "36",
        "latStart": 41.95237441,
        "lonStart": -72.18208659,
        "latEnd": 41.94893003,
        "lonEnd": -72.18084565,
        "length": 0,
        "surfacetype": 3
      }
    ],
    "id": 15662
  },
  {
    "type": 17,
    "icao": "CT75",
    "lat": 41.73343305,
    "lon": -72.79287528,
    "communications": [],
    "elevation": 338,
    "tower": false,
    "name": "[H] Hurlbrink",
    "runways": [
      {
        "type": 102,
        "width": 16.8,
        "surfaceType": 2,
        "numberStart": "H1",
        "numberEnd": null,
        "latStart": 41.73343305,
        "lonStart": -72.79287528,
        "latEnd": null,
        "lonEnd": null,
        "length": 16.8
      }
    ],
    "id": 15663
  },
  {
    "type": 17,
    "icao": "CT77",
    "lat": 41.43898611,
    "lon": -72.83787778,
    "communications": [],
    "elevation": 61,
    "tower": false,
    "name": "[H] American Cyanamid Co",
    "runways": [
      {
        "type": 102,
        "width": 30.5,
        "surfaceType": 1,
        "numberStart": "H1",
        "numberEnd": null,
        "latStart": 41.43898611,
        "lonStart": -72.83787778,
        "latEnd": null,
        "lonEnd": null,
        "length": 30.5
      }
    ],
    "id": 15665
  },
  {
    "type": 16,
    "icao": "CT78",
    "lat": 41.35148722,
    "lon": -72.35508362,
    "communications": [],
    "elevation": 0,
    "tower": false,
    "name": "[S] Lord Creek",
    "runways": [
      {
        "type": 101,
        "width": 30.48,
        "surfaceType": null,
        "numberStart": "15",
        "numberEnd": "33",
        "latStart": 41.35434827,
        "lonStart": -72.35876417,
        "latEnd": 41.34862617,
        "lonEnd": -72.35140307,
        "length": 0
      }
    ],
    "id": 15666
  },
  {
    "type": 17,
    "icao": "CT84",
    "lat": 41.37370805,
    "lon": -72.90871306,
    "communications": [],
    "elevation": 48,
    "tower": false,
    "name": "[H] Partyka Chevrolet",
    "runways": [
      {
        "type": 102,
        "width": 15.2,
        "surfaceType": 1,
        "numberStart": "H1",
        "numberEnd": null,
        "latStart": 41.37370805,
        "lonStart": -72.90871306,
        "latEnd": null,
        "lonEnd": null,
        "length": 15.2
      }
    ],
    "id": 15672
  },
  {
    "type": 1,
    "icao": "CT85",
    "lat": 41.88982,
    "lon": -72.61508973,
    "communications": [],
    "elevation": 37,
    "tower": false,
    "name": "Roberts Farm",
    "runways": [
      {
        "type": 100,
        "width": 15.24,
        "surfaceType": null,
        "numberStart": "08",
        "numberEnd": "26",
        "latStart": 41.88870433,
        "lonStart": -72.61845584,
        "latEnd": 41.89093567,
        "lonEnd": -72.61172362,
        "length": 0,
        "surfacetype": 3
      }
    ],
    "id": 15673
  },
  {
    "type": 17,
    "icao": "CT86",
    "lat": 41.4339875,
    "lon": -72.39397389,
    "communications": [],
    "elevation": 298,
    "tower": false,
    "name": "[H] Sanford",
    "runways": [
      {
        "type": 102,
        "width": 182.9,
        "surfaceType": 3,
        "numberStart": "H1",
        "numberEnd": null,
        "latStart": 41.4339875,
        "lonStart": -72.39397389,
        "latEnd": null,
        "lonEnd": null,
        "length": 243.8
      }
    ],
    "id": 15674
  },
  {
    "type": 16,
    "icao": "CT87",
    "lat": 41.99842944,
    "lon": -72.60592223,
    "communications": [],
    "elevation": 35,
    "tower": false,
    "name": "[S] Bootleggers",
    "runways": [
      {
        "type": 101,
        "width": 152.4,
        "surfaceType": null,
        "numberStart": "02",
        "numberEnd": "20",
        "latStart": 41.99159808,
        "lonStart": -72.60672645,
        "latEnd": 42.0052608,
        "lonEnd": -72.60511801,
        "length": 0
      }
    ],
    "id": 15675
  },
  {
    "type": 17,
    "icao": "CT88",
    "lat": 41.75333333,
    "lon": -72.62833334,
    "communications": [],
    "elevation": 46,
    "tower": false,
    "name": "[H] Rentschler",
    "runways": [
      {
        "type": 102,
        "width": 28.4,
        "surfaceType": 1,
        "numberStart": "H1",
        "numberEnd": null,
        "latStart": 41.75333333,
        "lonStart": -72.62833334,
        "latEnd": null,
        "lonEnd": null,
        "length": 28.4
      }
    ],
    "id": 15676
  },
  {
    "type": 17,
    "icao": "CT90",
    "lat": 41.98148527,
    "lon": -72.58508834,
    "communications": [],
    "elevation": 118,
    "tower": false,
    "name": "[H] Dairy Mart Farms Inc",
    "runways": [
      {
        "type": 102,
        "width": 9.8,
        "surfaceType": 2,
        "numberStart": "H1",
        "numberEnd": null,
        "latStart": 41.98148527,
        "lonStart": -72.58508834,
        "latEnd": null,
        "lonEnd": null,
        "length": 9.8
      }
    ],
    "id": 15678
  },
  {
    "type": 17,
    "icao": "CT92",
    "lat": 41.62287694,
    "lon": -72.60064639,
    "communications": [],
    "elevation": 160,
    "tower": false,
    "name": "[H] Bemer",
    "runways": [
      {
        "type": 102,
        "width": 5.5,
        "surfaceType": 1,
        "numberStart": "H1",
        "numberEnd": null,
        "latStart": 41.62287694,
        "lonStart": -72.60064639,
        "latEnd": null,
        "lonEnd": null,
        "length": 5.5
      }
    ],
    "id": 15680
  },
  {
    "type": 17,
    "icao": "CT95",
    "lat": 41.53343083,
    "lon": -72.80982112,
    "communications": [],
    "elevation": 145,
    "tower": false,
    "name": "[H] Meriden-Wallingford Hospital",
    "runways": [
      {
        "type": 102,
        "width": 19.5,
        "surfaceType": 2,
        "numberStart": "H1",
        "numberEnd": null,
        "latStart": 41.53343083,
        "lonStart": -72.80982112,
        "latEnd": null,
        "lonEnd": null,
        "length": 19.5
      }
    ],
    "id": 15681
  },
  {
    "type": 1,
    "icao": "CT96",
    "lat": 41.70843138,
    "lon": -72.97121528,
    "communications": [],
    "elevation": 950,
    "tower": false,
    "name": "Green Acres",
    "runways": [
      {
        "type": 100,
        "width": 7.32,
        "surfaceType": null,
        "numberStart": "16",
        "numberEnd": "34",
        "latStart": 41.71047801,
        "lonStart": -72.97306444,
        "latEnd": 41.70638475,
        "lonEnd": -72.96936612,
        "length": 0,
        "surfacetype": 1
      }
    ],
    "id": 15682
  },
  {
    "type": 17,
    "icao": "CT97",
    "lat": 41.32898777,
    "lon": -72.42814195,
    "communications": [],
    "elevation": 59,
    "tower": false,
    "name": "[H] Shoreline Clinic",
    "runways": [
      {
        "type": 102,
        "width": 18.3,
        "surfaceType": 1,
        "numberStart": "H1",
        "numberEnd": null,
        "latStart": 41.32898777,
        "lonStart": -72.42814195,
        "latEnd": null,
        "lonEnd": null,
        "length": 18.3
      }
    ],
    "id": 15683
  },
  {
    "type": 17,
    "icao": "CT98",
    "lat": 41.55454305,
    "lon": -72.64675973,
    "communications": [],
    "elevation": 64,
    "tower": false,
    "name": "[H] Middlesex Hospital",
    "runways": [
      {
        "type": 102,
        "width": 18.3,
        "surfaceType": 1,
        "numberStart": "H1",
        "numberEnd": null,
        "latStart": 41.55454305,
        "lonStart": -72.64675973,
        "latEnd": null,
        "lonEnd": null,
        "length": 18.3
      }
    ],
    "id": 15684
  },
  {
    "type": 17,
    "icao": "CT99",
    "lat": 41.29065388,
    "lon": -72.37897334,
    "communications": [],
    "elevation": 16,
    "tower": false,
    "name": "[H] Old Saybrook Police",
    "runways": [
      {
        "type": 102,
        "width": 18.3,
        "surfaceType": 1,
        "numberStart": "H1",
        "numberEnd": null,
        "latStart": 41.29065388,
        "lonStart": -72.37897334,
        "latEnd": null,
        "lonEnd": null,
        "length": 18.3
      }
    ],
    "id": 15685
  },
  {
    "type": 1,
    "icao": "N04",
    "lat": 41.27117972,
    "lon": -72.549720965,
    "communications": [],
    "elevation": 15,
    "tower": false,
    "name": "Griswold",
    "runways": [
      {
        "type": 100,
        "width": 15.24,
        "surfaceType": null,
        "numberStart": "06",
        "numberEnd": "24",
        "latStart": 41.26936944,
        "lonStart": -72.55211416,
        "latEnd": 41.27299,
        "lonEnd": -72.54732777,
        "length": 0,
        "surfacetype": 1
      }
    ],
    "id": 22137
  },
  {
    "type": 17,
    "icao": "NK48",
    "lat": 41.11148777,
    "lon": -72.33563806,
    "communications": [],
    "elevation": 4,
    "tower": false,
    "name": "[H] Eastern Long Island",
    "runways": [
      {
        "type": 102,
        "width": 12.2,
        "surfaceType": 2,
        "numberStart": "H1",
        "numberEnd": null,
        "latStart": 41.11148777,
        "lonStart": -72.33563806,
        "latEnd": null,
        "lonEnd": null,
        "length": 12.2
      }
    ],
    "id": 22749
  }
]