[
  {
    "type": 17,
    "icao": "CT77",
    "lat": 41.43898611,
    "lon": -72.83787778,
    "communications": [],
    "elevation": 61,
    "tower": false,
    "name": "[H] American Cyanamid Co",
    "runways": [
      {
        "type": 102,
        "width": 30.5,
        "surfaceType": 1,
        "numberStart": "H1",
        "numberEnd": null,
        "latStart": 41.43898611,
        "lonStart": -72.83787778,
        "latEnd": null,
        "lonEnd": null,
        "length": 30.5
      }
    ],
    "id": 28121
  },
  {
    "type": 17,
    "icao": "CT92",
    "lat": 41.62287694,
    "lon": -72.60064639,
    "communications": [],
    "elevation": 160,
    "tower": false,
    "name": "[H] Bemer",
    "runways": [
      {
        "type": 102,
        "width": 5.5,
        "surfaceType": 1,
        "numberStart": "H1",
        "numberEnd": null,
        "latStart": 41.62287694,
        "lonStart": -72.60064639,
        "latEnd": null,
        "lonEnd": null,
        "length": 5.5
      }
    ],
    "id": 28421
  },
  {
    "type": 17,
    "icao": "CT40",
    "lat": 41.36981916,
    "lon": -72.91732445,
    "communications": [],
    "elevation": 80,
    "tower": false,
    "name": "[H] Bob Thomas Ford",
    "runways": [
      {
        "type": 102,
        "width": 18.3,
        "surfaceType": 1,
        "numberStart": "H1",
        "numberEnd": null,
        "latStart": 41.36981916,
        "lonStart": -72.91732445,
        "latEnd": null,
        "lonEnd": null,
        "length": 18.3
      }
    ],
    "id": 28512
  },
  {
    "type": 17,
    "icao": "0CT1",
    "lat": 41.48481972,
    "lon": -72.75620834,
    "communications": [],
    "elevation": 350,
    "tower": false,
    "name": "[H] Bristol-Myers Squibb Company",
    "runways": [
      {
        "type": 102,
        "width": 15.2,
        "surfaceType": 1,
        "numberStart": "H1",
        "numberEnd": null,
        "latStart": 41.48481972,
        "lonStart": -72.75620834,
        "latEnd": null,
        "lonEnd": null,
        "length": 15.2
      }
    ],
    "id": 28588
  },
  {
    "type": 17,
    "icao": "0CT4",
    "lat": 41.50620805,
    "lon": -72.93982584,
    "communications": [],
    "elevation": 398,
    "tower": false,
    "name": "[H] Burke",
    "runways": [
      {
        "type": 102,
        "width": 4.9,
        "surfaceType": 2,
        "numberStart": "H1",
        "numberEnd": null,
        "latStart": 41.50620805,
        "lonStart": -72.93982584,
        "latEnd": null,
        "lonEnd": null,
        "length": 15.2
      }
    ],
    "id": 28625
  },
  {
    "type": 17,
    "icao": "CT21",
    "lat": 41.50787527,
    "lon": -72.77065334,
    "communications": [],
    "elevation": 333,
    "tower": false,
    "name": "[H] C N Flagg",
    "runways": [
      {
        "type": 102,
        "width": 15.2,
        "surfaceType": 2,
        "numberStart": "H1",
        "numberEnd": null,
        "latStart": 41.50787527,
        "lonStart": -72.77065334,
        "latEnd": null,
        "lonEnd": null,
        "length": 15.2
      }
    ],
    "id": 28663
  },
  {
    "type": 17,
    "icao": "CT72",
    "lat": 41.81954361,
    "lon": -72.74815056,
    "communications": [],
    "elevation": 148,
    "tower": false,
    "name": "[H] Cigna",
    "runways": [
      {
        "type": 102,
        "width": 22.9,
        "surfaceType": 1,
        "numberStart": "H1",
        "numberEnd": null,
        "latStart": 41.81954361,
        "lonStart": -72.74815056,
        "latEnd": null,
        "lonEnd": null,
        "length": 22.9
      }
    ],
    "id": 28958
  },
  {
    "type": 17,
    "icao": "CT33",
    "lat": 41.48148611,
    "lon": -72.80593223,
    "communications": [],
    "elevation": 125,
    "tower": false,
    "name": "[H] Clark",
    "runways": [
      {
        "type": 102,
        "width": 30.5,
        "surfaceType": 2,
        "numberStart": "H1",
        "numberEnd": null,
        "latStart": 41.48148611,
        "lonStart": -72.80593223,
        "latEnd": null,
        "lonEnd": null,
        "length": 30.5
      }
    ],
    "id": 28989
  },
  {
    "type": 17,
    "icao": "CT38",
    "lat": 41.71232166,
    "lon": -72.58786723,
    "communications": [],
    "elevation": 104,
    "tower": false,
    "name": "[H] Corporate Center",
    "runways": [
      {
        "type": 102,
        "width": 13.1,
        "surfaceType": 3,
        "numberStart": "H1",
        "numberEnd": null,
        "latStart": 41.71232166,
        "lonStart": -72.58786723,
        "latEnd": null,
        "lonEnd": null,
        "length": 13.1
      }
    ],
    "id": 29147
  },
  {
    "type": 17,
    "icao": "CT26",
    "lat": 41.64871027,
    "lon": -72.66342639,
    "communications": [],
    "elevation": 180,
    "tower": false,
    "name": "[H] Corporate Ridge",
    "runways": [
      {
        "type": 102,
        "width": 19.5,
        "surfaceType": 2,
        "numberStart": "H1",
        "numberEnd": null,
        "latStart": 41.64871027,
        "lonStart": -72.66342639,
        "latEnd": null,
        "lonEnd": null,
        "length": 19.5
      }
    ],
    "id": 29148
  },
  {
    "type": 17,
    "icao": "CT90",
    "lat": 41.98148527,
    "lon": -72.58508834,
    "communications": [],
    "elevation": 118,
    "tower": false,
    "name": "[H] Dairy Mart Farms Inc",
    "runways": [
      {
        "type": 102,
        "width": 9.8,
        "surfaceType": 2,
        "numberStart": "H1",
        "numberEnd": null,
        "latStart": 41.98148527,
        "lonStart": -72.58508834,
        "latEnd": null,
        "lonEnd": null,
        "length": 9.8
      }
    ],
    "id": 29244
  },
  {
    "type": 17,
    "icao": "CT23",
    "lat": 41.94009694,
    "lon": -72.60592251,
    "communications": [],
    "elevation": 115,
    "tower": false,
    "name": "[H] Della",
    "runways": [
      {
        "type": 102,
        "width": 24.4,
        "surfaceType": 3,
        "numberStart": "H1",
        "numberEnd": null,
        "latStart": 41.94009694,
        "lonStart": -72.60592251,
        "latEnd": null,
        "lonEnd": null,
        "length": 24.4
      }
    ],
    "id": 29309
  },
  {
    "type": 17,
    "icao": "CT06",
    "lat": 41.78898833,
    "lon": -72.6606475,
    "communications": [],
    "elevation": 20,
    "tower": false,
    "name": "[H] Delta One",
    "runways": [
      {
        "type": 102,
        "width": 18.3,
        "surfaceType": 1,
        "numberStart": "H1",
        "numberEnd": null,
        "latStart": 41.78898833,
        "lonStart": -72.6606475,
        "latEnd": null,
        "lonEnd": null,
        "length": 24.4
      }
    ],
    "id": 29314
  },
  {
    "type": 17,
    "icao": "NK48",
    "lat": 41.11148777,
    "lon": -72.33563806,
    "communications": [],
    "elevation": 4,
    "tower": false,
    "name": "[H] Eastern Long Island",
    "runways": [
      {
        "type": 102,
        "width": 12.2,
        "surfaceType": 2,
        "numberStart": "H1",
        "numberEnd": null,
        "latStart": 41.11148777,
        "lonStart": -72.33563806,
        "latEnd": null,
        "lonEnd": null,
        "length": 12.2
      }
    ],
    "id": 29460
  },
  {
    "type": 17,
    "icao": "CT22",
    "lat": 41.660655,
    "lon": -72.72842862,
    "communications": [],
    "elevation": 140,
    "tower": false,
    "name": "[H] H O Penn-1",
    "runways": [
      {
        "type": 102,
        "width": 21.3,
        "surfaceType": 4,
        "numberStart": "H1",
        "numberEnd": null,
        "latStart": 41.660655,
        "lonStart": -72.72842862,
        "latEnd": null,
        "lonEnd": null,
        "length": 30.5
      }
    ],
    "id": 30064
  },
  {
    "type": 17,
    "icao": "5CT2",
    "lat": 41.25259694,
    "lon": -72.99565917,
    "communications": [],
    "elevation": 88,
    "tower": false,
    "name": "[H] HIS",
    "runways": [
      {
        "type": 102,
        "width": 25.9,
        "surfaceType": 1,
        "numberStart": "H1",
        "numberEnd": null,
        "latStart": 41.25259694,
        "lonStart": -72.99565917,
        "latEnd": null,
        "lonEnd": null,
        "length": 25.9
      }
    ],
    "id": 30076
  },
  {
    "type": 17,
    "icao": "CT35",
    "lat": 41.93343027,
    "lon": -72.69953695,
    "communications": [],
    "elevation": 171,
    "tower": false,
    "name": "[H] Hamilton Standard",
    "runways": [
      {
        "type": 102,
        "width": 18.3,
        "surfaceType": 1,
        "numberStart": "H1",
        "numberEnd": null,
        "latStart": 41.93343027,
        "lonStart": -72.69953695,
        "latEnd": null,
        "lonEnd": null,
        "length": 18.3
      }
    ],
    "id": 30108
  },
  {
    "type": 17,
    "icao": "0CT9",
    "lat": 41.75454444,
    "lon": -72.67870389,
    "communications": [],
    "elevation": 209,
    "tower": false,
    "name": "[H] Hartford Hospital",
    "runways": [
      {
        "type": 102,
        "width": 22.9,
        "surfaceType": 2,
        "numberStart": "H1",
        "numberEnd": null,
        "latStart": 41.75454444,
        "lonStart": -72.67870389,
        "latEnd": null,
        "lonEnd": null,
        "length": 18.3
      }
    ],
    "id": 30143
  },
  {
    "type": 17,
    "icao": "CT75",
    "lat": 41.73343305,
    "lon": -72.79287528,
    "communications": [],
    "elevation": 338,
    "tower": false,
    "name": "[H] Hurlbrink",
    "runways": [
      {
        "type": 102,
        "width": 16.8,
        "surfaceType": 2,
        "numberStart": "H1",
        "numberEnd": null,
        "latStart": 41.73343305,
        "lonStart": -72.79287528,
        "latEnd": null,
        "lonEnd": null,
        "length": 16.8
      }
    ],
    "id": 30434
  },
  {
    "type": 17,
    "icao": "CT05",
    "lat": 41.86204277,
    "lon": -72.69981528,
    "communications": [],
    "elevation": 164,
    "tower": false,
    "name": "[H] Kaman Aerospace Corp",
    "runways": [
      {
        "type": 102,
        "width": 61,
        "surfaceType": 3,
        "numberStart": "H1",
        "numberEnd": null,
        "latStart": 41.86204277,
        "lonStart": -72.69981528,
        "latEnd": null,
        "lonEnd": null,
        "length": 792.5
      }
    ],
    "id": 30686
  },
  {
    "type": 17,
    "icao": "CT50",
    "lat": 41.94287472,
    "lon": -72.70620389,
    "communications": [],
    "elevation": 148,
    "tower": false,
    "name": "[H] Marks",
    "runways": [
      {
        "type": 102,
        "width": 9.1,
        "surfaceType": 2,
        "numberStart": "H1",
        "numberEnd": null,
        "latStart": 41.94287472,
        "lonStart": -72.70620389,
        "latEnd": null,
        "lonEnd": null,
        "length": 9.1
      }
    ],
    "id": 31096
  },
  {
    "type": 17,
    "icao": "CT95",
    "lat": 41.53343083,
    "lon": -72.80982112,
    "communications": [],
    "elevation": 145,
    "tower": false,
    "name": "[H] Meriden-Wallingford Hospital",
    "runways": [
      {
        "type": 102,
        "width": 19.5,
        "surfaceType": 2,
        "numberStart": "H1",
        "numberEnd": null,
        "latStart": 41.53343083,
        "lonStart": -72.80982112,
        "latEnd": null,
        "lonEnd": null,
        "length": 19.5
      }
    ],
    "id": 31286
  },
  {
    "type": 17,
    "icao": "CT98",
    "lat": 41.55454305,
    "lon": -72.64675973,
    "communications": [],
    "elevation": 64,
    "tower": false,
    "name": "[H] Middlesex Hospital",
    "runways": [
      {
        "type": 102,
        "width": 18.3,
        "surfaceType": 1,
        "numberStart": "H1",
        "numberEnd": null,
        "latStart": 41.55454305,
        "lonStart": -72.64675973,
        "latEnd": null,
        "lonEnd": null,
        "length": 18.3
      }
    ],
    "id": 31346
  },
  {
    "type": 17,
    "icao": "0CT6",
    "lat": 41.59676555,
    "lon": -72.70453917,
    "communications": [],
    "elevation": 111,
    "tower": false,
    "name": "[H] Middletown",
    "runways": [
      {
        "type": 102,
        "width": 19.8,
        "surfaceType": 1,
        "numberStart": "H1",
        "numberEnd": null,
        "latStart": 41.59676555,
        "lonStart": -72.70453917,
        "latEnd": null,
        "lonEnd": null,
        "length": 19.8
      }
    ],
    "id": 31347
  },
  {
    "type": 17,
    "icao": "0CT3",
    "lat": 41.66162694,
    "lon": -72.78787528,
    "communications": [],
    "elevation": 431,
    "tower": false,
    "name": "[H] N B G H",
    "runways": [
      {
        "type": 102,
        "width": 18.3,
        "surfaceType": 2,
        "numberStart": "H1",
        "numberEnd": null,
        "latStart": 41.66162694,
        "lonStart": -72.78787528,
        "latEnd": null,
        "lonEnd": null,
        "length": 18.3
      }
    ],
    "id": 31512
  },
  {
    "type": 17,
    "icao": "CT69",
    "lat": 41.72537638,
    "lon": -72.19174445,
    "communications": [],
    "elevation": 242,
    "tower": false,
    "name": "[H] Nasin",
    "runways": [
      {
        "type": 102,
        "width": 7.6,
        "surfaceType": 2,
        "numberStart": "H1",
        "numberEnd": null,
        "latStart": 41.72537638,
        "lonStart": -72.19174445,
        "latEnd": null,
        "lonEnd": null,
        "length": 15.2
      }
    ],
    "id": 31554
  },
  {
    "type": 17,
    "icao": "CT54",
    "lat": 41.3356525,
    "lon": -72.79065362,
    "communications": [],
    "elevation": 253,
    "tower": false,
    "name": "[H] North Branford",
    "runways": [
      {
        "type": 102,
        "width": 30.5,
        "surfaceType": 1,
        "numberStart": "H1",
        "numberEnd": null,
        "latStart": 41.3356525,
        "lonStart": -72.79065362,
        "latEnd": null,
        "lonEnd": null,
        "length": 30.5
      }
    ],
    "id": 31642
  },
  {
    "type": 17,
    "icao": "CT55",
    "lat": 41.36731916,
    "lon": -72.88010112,
    "communications": [],
    "elevation": 8,
    "tower": false,
    "name": "[H] North Haven",
    "runways": [
      {
        "type": 102,
        "width": 30.5,
        "surfaceType": 1,
        "numberStart": "H1",
        "numberEnd": null,
        "latStart": 41.36731916,
        "lonStart": -72.88010112,
        "latEnd": null,
        "lonEnd": null,
        "length": 30.5
      }
    ],
    "id": 31647
  },
  {
    "type": 17,
    "icao": "CT57",
    "lat": 41.30482055,
    "lon": -72.37175084,
    "communications": [],
    "elevation": 100,
    "tower": false,
    "name": "[H] Old Saybrook",
    "runways": [
      {
        "type": 102,
        "width": 22.9,
        "surfaceType": 1,
        "numberStart": "H1",
        "numberEnd": null,
        "latStart": 41.30482055,
        "lonStart": -72.37175084,
        "latEnd": null,
        "lonEnd": null,
        "length": 30.5
      }
    ],
    "id": 31739
  },
  {
    "type": 17,
    "icao": "CT99",
    "lat": 41.29065388,
    "lon": -72.37897334,
    "communications": [],
    "elevation": 16,
    "tower": false,
    "name": "[H] Old Saybrook Police",
    "runways": [
      {
        "type": 102,
        "width": 18.3,
        "surfaceType": 1,
        "numberStart": "H1",
        "numberEnd": null,
        "latStart": 41.29065388,
        "lonStart": -72.37897334,
        "latEnd": null,
        "lonEnd": null,
        "length": 18.3
      }
    ],
    "id": 31740
  },
  {
    "type": 17,
    "icao": "CT71",
    "lat": 41.70843277,
    "lon": -72.80232,
    "communications": [],
    "elevation": 360,
    "tower": false,
    "name": "[H] Otis Helistop Division of Utc",
    "runways": [
      {
        "type": 102,
        "width": 24.4,
        "surfaceType": 1,
        "numberStart": "H1",
        "numberEnd": null,
        "latStart": 41.70843277,
        "lonStart": -72.80232,
        "latEnd": null,
        "lonEnd": null,
        "length": 24.4
      }
    ],
    "id": 31780
  },
  {
    "type": 17,
    "icao": "CT84",
    "lat": 41.37370805,
    "lon": -72.90871306,
    "communications": [],
    "elevation": 48,
    "tower": false,
    "name": "[H] Partyka Chevrolet",
    "runways": [
      {
        "type": 102,
        "width": 15.2,
        "surfaceType": 1,
        "numberStart": "H1",
        "numberEnd": null,
        "latStart": 41.37370805,
        "lonStart": -72.90871306,
        "latEnd": null,
        "lonEnd": null,
        "length": 15.2
      }
    ],
    "id": 31918
  },
  {
    "type": 17,
    "icao": "CT49",
    "lat": 41.66759888,
    "lon": -72.83232139,
    "communications": [],
    "elevation": 240,
    "tower": false,
    "name": "[H] Plainville",
    "runways": [
      {
        "type": 102,
        "width": 22.9,
        "surfaceType": 1,
        "numberStart": "H1",
        "numberEnd": null,
        "latStart": 41.66759888,
        "lonStart": -72.83232139,
        "latEnd": null,
        "lonEnd": null,
        "length": 22.9
      }
    ],
    "id": 32050
  },
  {
    "type": 17,
    "icao": "CT58",
    "lat": 41.56593194,
    "lon": -72.64148167,
    "communications": [],
    "elevation": 40,
    "tower": false,
    "name": "[H] Portland",
    "runways": [
      {
        "type": 102,
        "width": 30.5,
        "surfaceType": 3,
        "numberStart": "H1",
        "numberEnd": null,
        "latStart": 41.56593194,
        "lonStart": -72.64148167,
        "latEnd": null,
        "lonEnd": null,
        "length": 30.5
      }
    ],
    "id": 32115
  },
  {
    "type": 17,
    "icao": "CT65",
    "lat": 41.46954194,
    "lon": -72.74204112,
    "communications": [],
    "elevation": 325,
    "tower": false,
    "name": "[H] Reeds Gap",
    "runways": [
      {
        "type": 102,
        "width": 27.4,
        "surfaceType": 1,
        "numberStart": "H1",
        "numberEnd": null,
        "latStart": 41.46954194,
        "lonStart": -72.74204112,
        "latEnd": null,
        "lonEnd": null,
        "length": 30.5
      }
    ],
    "id": 32293
  },
  {
    "type": 17,
    "icao": "CT88",
    "lat": 41.75333333,
    "lon": -72.62833334,
    "communications": [],
    "elevation": 46,
    "tower": false,
    "name": "[H] Rentschler",
    "runways": [
      {
        "type": 102,
        "width": 28.4,
        "surfaceType": 1,
        "numberStart": "H1",
        "numberEnd": null,
        "latStart": 41.75333333,
        "lonStart": -72.62833334,
        "latEnd": null,
        "lonEnd": null,
        "length": 28.4
      }
    ],
    "id": 32313
  },
  {
    "type": 17,
    "icao": "CT86",
    "lat": 41.4339875,
    "lon": -72.39397389,
    "communications": [],
    "elevation": 298,
    "tower": false,
    "name": "[H] Sanford",
    "runways": [
      {
        "type": 102,
        "width": 182.9,
        "surfaceType": 3,
        "numberStart": "H1",
        "numberEnd": null,
        "latStart": 41.4339875,
        "lonStart": -72.39397389,
        "latEnd": null,
        "lonEnd": null,
        "length": 243.8
      }
    ],
    "id": 32553
  },
  {
    "type": 17,
    "icao": "CT97",
    "lat": 41.32898777,
    "lon": -72.42814195,
    "communications": [],
    "elevation": 59,
    "tower": false,
    "name": "[H] Shoreline Clinic",
    "runways": [
      {
        "type": 102,
        "width": 18.3,
        "surfaceType": 1,
        "numberStart": "H1",
        "numberEnd": null,
        "latStart": 41.32898777,
        "lonStart": -72.42814195,
        "latEnd": null,
        "lonEnd": null,
        "length": 18.3
      }
    ],
    "id": 32700
  },
  {
    "type": 17,
    "icao": "0CT5",
    "lat": 41.77454416,
    "lon": -72.69898223,
    "communications": [],
    "elevation": 184,
    "tower": false,
    "name": "[H] St Francis Hospital",
    "runways": [
      {
        "type": 102,
        "width": 15.2,
        "surfaceType": 2,
        "numberStart": "H1",
        "numberEnd": null,
        "latStart": 41.77454416,
        "lonStart": -72.69898223,
        "latEnd": null,
        "lonEnd": null,
        "length": 15.2
      }
    ],
    "id": 32880
  },
  {
    "type": 17,
    "icao": "CT18",
    "lat": 41.76482194,
    "lon": -72.68203723,
    "communications": [],
    "elevation": 63,
    "tower": false,
    "name": "[H] State Emergency",
    "runways": [
      {
        "type": 102,
        "width": 61,
        "surfaceType": 3,
        "numberStart": "H1",
        "numberEnd": null,
        "latStart": 41.76482194,
        "lonStart": -72.68203723,
        "latEnd": null,
        "lonEnd": null,
        "length": 152.4
      }
    ],
    "id": 33041
  },
  {
    "type": 17,
    "icao": "CT17",
    "lat": 41.76565527,
    "lon": -72.67342584,
    "communications": [],
    "elevation": 351,
    "tower": false,
    "name": "[H] United Technology Corp.",
    "runways": [
      {
        "type": 102,
        "width": 28.4,
        "surfaceType": 2,
        "numberStart": "H1",
        "numberEnd": null,
        "latStart": 41.76565527,
        "lonStart": -72.67342584,
        "latEnd": null,
        "lonEnd": null,
        "length": 28.4
      }
    ],
    "id": 33495
  },
  {
    "type": 17,
    "icao": "CT34",
    "lat": 41.33843027,
    "lon": -72.86815612,
    "communications": [],
    "elevation": 12,
    "tower": false,
    "name": "[H] Ussc North Haven",
    "runways": [
      {
        "type": 102,
        "width": 18.3,
        "surfaceType": 1,
        "numberStart": "H1",
        "numberEnd": null,
        "latStart": 41.33843027,
        "lonStart": -72.86815612,
        "latEnd": null,
        "lonEnd": null,
        "length": 18.3
      }
    ],
    "id": 33540
  },
  {
    "type": 17,
    "icao": "CT28",
    "lat": 41.6584325,
    "lon": -72.64759223,
    "communications": [],
    "elevation": 148,
    "tower": false,
    "name": "[H] Veterans Home & Hospital",
    "runways": [
      {
        "type": 102,
        "width": 30.5,
        "surfaceType": 3,
        "numberStart": "H1",
        "numberEnd": null,
        "latStart": 41.6584325,
        "lonStart": -72.64759223,
        "latEnd": null,
        "lonEnd": null,
        "length": 30.5
      }
    ],
    "id": 33617
  },
  {
    "type": 17,
    "icao": "0CT2",
    "lat": 41.71704305,
    "lon": -72.22591167,
    "communications": [],
    "elevation": 330,
    "tower": false,
    "name": "[H] Windham Hospital",
    "runways": [
      {
        "type": 102,
        "width": 12.2,
        "surfaceType": 1,
        "numberStart": "H1",
        "numberEnd": null,
        "latStart": 41.71704305,
        "lonStart": -72.22591167,
        "latEnd": null,
        "lonEnd": null,
        "length": 12.2
      }
    ],
    "id": 33874
  },
  {
    "type": 17,
    "icao": "1CT2",
    "lat": 41.30379138,
    "lon": -72.93576889,
    "communications": [],
    "elevation": 219,
    "tower": false,
    "name": "[H] Yale New Haven Hospital",
    "runways": [
      {
        "type": 102,
        "width": 22,
        "surfaceType": 1,
        "numberStart": "H1",
        "numberEnd": null,
        "latStart": 41.30379138,
        "lonStart": -72.93576889,
        "latEnd": null,
        "lonEnd": null,
        "length": 14.6
      }
    ],
    "id": 33924
  }
]