[
  {
    "type": 1,
    "icao": "FY08",
    "lat": -22.7333,
    "lon": 16.1333,
    "communications": [],
    "elevation": 5200,
    "tower": false,
    "name": "Auanis",
    "runways": [
      {
        "type": 100,
        "width": 10.06,
        "surfaceType": null,
        "numberStart": "09",
        "numberEnd": "27",
        "latStart": -22.7333,
        "lonStart": 16.1302,
        "latEnd": -22.7333,
        "lonEnd": 16.1364,
        "length": 0,
        "surfacetype": 4
      }
    ],
    "id": 1308
  },
  {
    "type": 1,
    "icao": "FY1M",
    "lat": -22.9472,
    "lon": 16.6556,
    "communications": [],
    "elevation": 5889,
    "tower": false,
    "name": "Hohenhorst",
    "runways": [
      {
        "type": 100,
        "width": 10.06,
        "surfaceType": null,
        "numberStart": "09",
        "numberEnd": "27",
        "latStart": -22.9472,
        "lonStart": 16.6517,
        "latEnd": -22.9472,
        "lonEnd": 16.6595,
        "length": 0,
        "surfacetype": 5
      }
    ],
    "id": 11940
  },
  {
    "type": 1,
    "icao": "FYNB",
    "lat": -22.04165,
    "lon": 16.1811,
    "communications": [],
    "elevation": 4101,
    "tower": false,
    "name": "Kansimba",
    "runways": [
      {
        "type": 100,
        "width": 99.97,
        "surfaceType": null,
        "numberStart": "04",
        "numberEnd": "22",
        "latStart": -22.0451,
        "lonStart": 16.178,
        "latEnd": -22.0382,
        "lonEnd": 16.1842,
        "length": 0,
        "surfacetype": 5
      }
    ],
    "id": 13593
  },
  {
    "type": 1,
    "icao": "FY2J",
    "lat": -22.31785,
    "lon": 16.3052,
    "communications": [
      {
        "type": 51,
        "frequency": 12340,
        "name": "RDO"
      }
    ],
    "elevation": 3200,
    "tower": false,
    "name": "Mount Lieven Safari Ranch",
    "runways": [
      {
        "type": 100,
        "width": 10.06,
        "surfaceType": null,
        "numberStart": "06",
        "numberEnd": "24",
        "latStart": -22.3201,
        "lonStart": 16.301,
        "latEnd": -22.3156,
        "lonEnd": 16.3094,
        "length": 0,
        "surfacetype": 4
      }
    ],
    "id": 17611
  },
  {
    "type": 1,
    "icao": "FY2T",
    "lat": -22.36665,
    "lon": 16.3333,
    "communications": [],
    "elevation": 3281,
    "tower": false,
    "name": "Okanduka Ranch",
    "runways": [
      {
        "type": 100,
        "width": 10.06,
        "surfaceType": null,
        "numberStart": "12",
        "numberEnd": "30",
        "latStart": -22.3644,
        "lonStart": 16.3291,
        "latEnd": -22.3689,
        "lonEnd": 16.3375,
        "length": 0,
        "surfacetype": 5
      }
    ],
    "id": 18858
  },
  {
    "type": 1,
    "icao": "FYOD",
    "lat": -22.168,
    "lon": 16.30125,
    "communications": [],
    "elevation": 2210,
    "tower": false,
    "name": "Okomitundu",
    "runways": [
      {
        "type": 100,
        "width": 39.93,
        "surfaceType": null,
        "numberStart": "08",
        "numberEnd": "26",
        "latStart": -22.1689,
        "lonStart": 16.2955,
        "latEnd": -22.1671,
        "lonEnd": 16.307,
        "length": 0,
        "surfacetype": 4
      }
    ],
    "id": 18876
  },
  {
    "type": 1,
    "icao": "FYSN",
    "lat": -22.1096,
    "lon": 16.97435,
    "communications": [],
    "elevation": 4900,
    "tower": false,
    "name": "Osona",
    "runways": [
      {
        "type": 100,
        "width": 10.06,
        "surfaceType": null,
        "numberStart": "09",
        "numberEnd": "27",
        "latStart": -22.1096,
        "lonStart": 16.97,
        "latEnd": -22.1096,
        "lonEnd": 16.9787,
        "length": 0,
        "surfacetype": 3
      }
    ],
    "id": 19062
  },
  {
    "type": 1,
    "icao": "FYGW",
    "lat": -22.3667,
    "lon": 16.1333,
    "communications": [],
    "elevation": 3000,
    "tower": false,
    "name": "Otjimbingwe",
    "runways": [
      {
        "type": 100,
        "width": 10.06,
        "surfaceType": null,
        "numberStart": "09",
        "numberEnd": "27",
        "latStart": -22.3667,
        "lonStart": 16.1299,
        "latEnd": -22.3667,
        "lonEnd": 16.1367,
        "length": 0,
        "surfacetype": 4
      }
    ],
    "id": 19070
  },
  {
    "type": 1,
    "icao": "FY44",
    "lat": -22.8333,
    "lon": 16.583350000000003,
    "communications": [],
    "elevation": 5500,
    "tower": false,
    "name": "Simmenau",
    "runways": [
      {
        "type": 100,
        "width": 10.06,
        "surfaceType": null,
        "numberStart": "09",
        "numberEnd": "27",
        "latStart": -22.8333,
        "lonStart": 16.5833,
        "latEnd": -22.8333,
        "lonEnd": 16.5834,
        "length": 0,
        "surfacetype": 3
      }
    ],
    "id": 23525
  },
  {
    "type": 1,
    "icao": "FY4T",
    "lat": -22.6667,
    "lon": 16.13335,
    "communications": [],
    "elevation": 4000,
    "tower": false,
    "name": "Tsammams",
    "runways": [
      {
        "type": 100,
        "width": 10.06,
        "surfaceType": null,
        "numberStart": "09",
        "numberEnd": "27",
        "latStart": -22.6667,
        "lonStart": 16.129,
        "latEnd": -22.6667,
        "lonEnd": 16.1377,
        "length": 0,
        "surfacetype": 4
      }
    ],
    "id": 25645
  }
]