[
  {
    "type": 1,
    "icao": "SKMD",
    "lat": 6.22047775,
    "lon": -34.68171805,
    "communications": [
      {
        "type": 53,
        "frequency": 12190,
        "name": "GND"
      },
      {
        "type": 54,
        "frequency": 11890,
        "name": "TWR"
      },
      {
        "type": 55,
        "frequency": 12110,
        "name": "MEDELLIN APP"
      }
    ],
    "elevation": 4939,
    "tower": true,
    "name": "Medellin Olaya Herrera",
    "runways": [
      {
        "type": 100,
        "width": 38,
        "surfaceType": null,
        "numberStart": "02",
        "numberEnd": "20",
        "latStart": 6.2124472,
        "lonStart": -75.5919444,
        "latEnd": 6.2285083,
        "lonEnd": -75.5889056,
        "length": 0,
        "surfacetype": 1
      }
    ],
    "id": 17009
  },
  {
    "type": 1,
    "icao": "SKPN",
    "lat": 6.210020500000001,
    "lon": -34.191677999999996,
    "communications": [],
    "elevation": 476,
    "tower": false,
    "name": "PUERTO NARE",
    "runways": [
      {
        "type": 100,
        "width": 10.67,
        "surfaceType": null,
        "numberStart": "06",
        "numberEnd": "24",
        "latStart": 6.208508,
        "lonStart": -74.594889,
        "latEnd": 6.211533,
        "lonEnd": -74.586292,
        "length": 0,
        "surfacetype": 1
      }
    ],
    "id": 19587
  }
]