[
  {
    "type": 1,
    "icao": "PABE",
    "lat": 60.779492683636356,
    "lon": -60.649802466363646,
    "communications": [
      {
        "type": 50,
        "frequency": 11980,
        "name": "ATIS"
      },
      {
        "type": 51,
        "frequency": 11870,
        "name": "CTAF/BETHEL WX"
      },
      {
        "type": 51,
        "frequency": 12200,
        "name": "CTAF/BETHEL WX"
      },
      {
        "type": 53,
        "frequency": 12170,
        "name": "Bethel Ground"
      },
      {
        "type": 54,
        "frequency": 11870,
        "name": "Bethel Tower"
      },
      {
        "type": 55,
        "frequency": 12520,
        "name": "Anchorage ARTCC"
      },
      {
        "type": 56,
        "frequency": 12520,
        "name": "Anchorage ARTCC"
      }
    ],
    "elevation": 125,
    "tower": true,
    "name": "BETHEL",
    "runways": [
      {
        "type": 100,
        "width": 45.72,
        "surfaceType": null,
        "numberStart": "18",
        "numberEnd": "36",
        "latStart": 60.787828,
        "lonStart": -161.829247,
        "latEnd": 60.771769,
        "lonEnd": -161.843506,
        "length": 0,
        "surfacetype": 1
      },
      {
        "type": 100,
        "width": 22.86,
        "surfaceType": null,
        "numberStart": "11",
        "numberEnd": "29",
        "latStart": 60.781319,
        "lonStart": -161.847689,
        "latEnd": 60.77815,
        "lonEnd": -161.83955,
        "length": 0,
        "surfacetype": 5
      },
      {
        "type": 100,
        "width": 46.02,
        "surfaceType": null,
        "numberStart": "01L",
        "numberEnd": "19R",
        "latStart": 60.771275,
        "lonStart": -161.844004,
        "latEnd": 60.788336,
        "lonEnd": -161.828853,
        "length": 0,
        "surfacetype": 1
      },
      {
        "type": 100,
        "width": 22.86,
        "surfaceType": null,
        "numberStart": "01R",
        "numberEnd": "19L",
        "latStart": 60.771012,
        "lonStart": -161.839953,
        "latEnd": 60.781045,
        "lonEnd": -161.831054,
        "length": 0,
        "surfacetype": 1
      },
      {
        "type": 100,
        "width": 22.86,
        "surfaceType": null,
        "numberStart": "12",
        "numberEnd": "30",
        "latStart": 60.781319,
        "lonStart": -161.847689,
        "latEnd": 60.77780677,
        "lonEnd": -161.83871964,
        "length": 0,
        "surfacetype": 1
      },
      {
        "type": 102,
        "width": 39,
        "surfaceType": 1,
        "numberStart": "H71",
        "numberEnd": null,
        "latStart": 60.78455975,
        "lonStart": -161.8363519,
        "latEnd": null,
        "lonEnd": null,
        "length": 39
      }
    ],
    "id": 1677
  }
]