[
  {
    "type": 1,
    "icao": "TS50",
    "lat": 29.41745444,
    "lon": -94.99825917,
    "communications": [],
    "elevation": 15,
    "tower": false,
    "name": "Austinia",
    "runways": [
      {
        "type": 100,
        "width": 30.48,
        "surfaceType": null,
        "numberStart": "18",
        "numberEnd": "36",
        "latStart": 29.42038699,
        "lonStart": -94.99790532,
        "latEnd": 29.41452189,
        "lonEnd": -94.99861302,
        "length": 0,
        "surfacetype": 3
      }
    ],
    "id": 1348
  },
  {
    "type": 1,
    "icao": "1TS3",
    "lat": 29.496063330000002,
    "lon": -94.95048084,
    "communications": [],
    "elevation": 16,
    "tower": false,
    "name": "B & S",
    "runways": [
      {
        "type": 100,
        "width": 9.14,
        "surfaceType": null,
        "numberStart": "16",
        "numberEnd": "34",
        "latStart": 29.49669411,
        "lonStart": -94.95066153,
        "latEnd": 29.49543255,
        "lonEnd": -94.95030015,
        "length": 0,
        "surfacetype": 3
      },
      {
        "type": 100,
        "width": 9.14,
        "surfaceType": null,
        "numberStart": "01",
        "numberEnd": "19",
        "latStart": 29.49547007,
        "lonStart": -94.95067629,
        "latEnd": 29.49665659,
        "lonEnd": -94.95028539,
        "length": 0,
        "surfacetype": 3
      },
      {
        "type": 100,
        "width": 9.14,
        "surfaceType": null,
        "numberStart": "12",
        "numberEnd": "30",
        "latStart": 29.49640513,
        "lonStart": -94.95102135,
        "latEnd": 29.49572153,
        "lonEnd": -94.94994033,
        "length": 0,
        "surfacetype": 3
      }
    ],
    "id": 1404
  },
  {
    "type": 1,
    "icao": "KHPY",
    "lat": 29.78643971,
    "lon": -94.95375983999999,
    "communications": [
      {
        "type": 51,
        "frequency": 12280,
        "name": "CTAF/UNICOM"
      },
      {
        "type": 55,
        "frequency": 13445,
        "name": "HOUSTON APP/DEP"
      }
    ],
    "elevation": 34,
    "tower": false,
    "name": "BAYTOWN",
    "runways": [
      {
        "type": 100,
        "width": 18.29,
        "surfaceType": null,
        "numberStart": "14",
        "numberEnd": "32",
        "latStart": 29.790831,
        "lonStart": -94.956806,
        "latEnd": 29.781344,
        "lonEnd": -94.948536,
        "length": 0,
        "surfacetype": 1
      },
      {
        "type": 102,
        "width": 14.6,
        "surfaceType": 2,
        "numberStart": "H1",
        "numberEnd": null,
        "latStart": 29.78714413,
        "lonStart": -94.95593752,
        "latEnd": null,
        "lonEnd": null,
        "length": 14.6
      }
    ],
    "id": 1580
  },
  {
    "type": 1,
    "icao": "7T5",
    "lat": 29.91105083,
    "lon": -94.33907639,
    "communications": [],
    "elevation": 20,
    "tower": false,
    "name": "Broussard Farm",
    "runways": [
      {
        "type": 100,
        "width": 27.43,
        "surfaceType": null,
        "numberStart": "18",
        "numberEnd": "36",
        "latStart": 29.91419325,
        "lonStart": -94.33875922,
        "latEnd": 29.90790841,
        "lonEnd": -94.33939356,
        "length": 0,
        "surfacetype": 3
      }
    ],
    "id": 3261
  },
  {
    "type": 1,
    "icao": "T00",
    "lat": 29.770011750000002,
    "lon": -94.6638005,
    "communications": [
      {
        "type": 51,
        "frequency": 12290,
        "name": "CTAF"
      },
      {
        "type": 55,
        "frequency": 13445,
        "name": "HOUSTON APP/DEP"
      }
    ],
    "elevation": 20,
    "tower": false,
    "name": "CHAMBERS CO",
    "runways": [
      {
        "type": 100,
        "width": 18.29,
        "surfaceType": null,
        "numberStart": "12",
        "numberEnd": "30",
        "latStart": 29.772733,
        "lonStart": -94.6661,
        "latEnd": 29.767564,
        "lonEnd": -94.658714,
        "length": 0,
        "surfacetype": 1
      },
      {
        "type": 100,
        "width": 91.44,
        "surfaceType": null,
        "numberStart": "17",
        "numberEnd": "35",
        "latStart": 29.773,
        "lonStart": -94.665194,
        "latEnd": 29.76675,
        "lonEnd": -94.665194,
        "length": 0,
        "surfacetype": 3
      }
    ],
    "id": 3794
  },
  {
    "type": 1,
    "icao": "T90",
    "lat": 29.804167,
    "lon": -94.431111,
    "communications": [
      {
        "type": 51,
        "frequency": 12290,
        "name": "CTAF"
      }
    ],
    "elevation": 24,
    "tower": false,
    "name": "CHAMBERS CO WINNIE STOWELL",
    "runways": [
      {
        "type": 100,
        "width": 22.86,
        "surfaceType": null,
        "numberStart": "18",
        "numberEnd": "36",
        "latStart": 29.809167,
        "lonStart": -94.431111,
        "latEnd": 29.799167,
        "lonEnd": -94.431111,
        "length": 0,
        "surfacetype": 1
      }
    ],
    "id": 3795
  },
  {
    "type": 1,
    "icao": "1TS0",
    "lat": 29.67050333,
    "lon": -94.67075084000001,
    "communications": [],
    "elevation": 8,
    "tower": false,
    "name": "Eagle Air",
    "runways": [
      {
        "type": 100,
        "width": 18.29,
        "surfaceType": null,
        "numberStart": "09",
        "numberEnd": "27",
        "latStart": 29.67077826,
        "lonStart": -94.67436745,
        "latEnd": 29.6702284,
        "lonEnd": -94.66713423,
        "length": 0,
        "surfacetype": 3
      }
    ],
    "id": 6861
  },
  {
    "type": 1,
    "icao": "80R",
    "lat": 29.500230000000002,
    "lon": -94.95020306,
    "communications": [],
    "elevation": 15,
    "tower": false,
    "name": "Ellis",
    "runways": [
      {
        "type": 100,
        "width": 24.38,
        "surfaceType": null,
        "numberStart": "12",
        "numberEnd": "30",
        "latStart": 29.50111676,
        "lonStart": -94.95160538,
        "latEnd": 29.49934324,
        "lonEnd": -94.94880074,
        "length": 0,
        "surfacetype": 3
      }
    ],
    "id": 7115
  },
  {
    "type": 1,
    "icao": "25TA",
    "lat": 29.836613999999997,
    "lon": -94.96742797499999,
    "communications": [],
    "elevation": 35,
    "tower": false,
    "name": "FERRIS",
    "runways": [
      {
        "type": 100,
        "width": 22.86,
        "surfaceType": null,
        "numberStart": "09",
        "numberEnd": "27",
        "latStart": 29.836614,
        "lonStart": -94.973106,
        "latEnd": 29.836614,
        "lonEnd": -94.96175,
        "length": 0,
        "surfacetype": 2
      },
      {
        "type": 100,
        "width": 10.67,
        "surfaceType": null,
        "numberStart": "08",
        "numberEnd": "26",
        "latStart": 29.83575872,
        "lonStart": -94.97301969,
        "latEnd": 29.83746928,
        "lonEnd": -94.96183621,
        "length": 0,
        "surfacetype": 2
      }
    ],
    "id": 7543
  },
  {
    "type": 1,
    "icao": "3T6",
    "lat": 29.95160777,
    "lon": -94.90436917,
    "communications": [],
    "elevation": 53,
    "tower": false,
    "name": "Gum Island",
    "runways": [
      {
        "type": 100,
        "width": 30.48,
        "surfaceType": null,
        "numberStart": "16",
        "numberEnd": "34",
        "latStart": 29.95493465,
        "lonStart": -94.90532651,
        "latEnd": 29.94828089,
        "lonEnd": -94.90341183,
        "length": 0,
        "surfacetype": 3
      }
    ],
    "id": 10890
  },
  {
    "type": 1,
    "icao": "7T4",
    "lat": 29.91382805,
    "lon": -94.20823862,
    "communications": [],
    "elevation": 20,
    "tower": false,
    "name": "Kelley Crop Service",
    "runways": [
      {
        "type": 100,
        "width": 45.72,
        "surfaceType": null,
        "numberStart": "17",
        "numberEnd": "35",
        "latStart": 29.91669722,
        "lonStart": -94.20852822,
        "latEnd": 29.91095888,
        "lonEnd": -94.20794902,
        "length": 0,
        "surfacetype": 3
      }
    ],
    "id": 13716
  },
  {
    "type": 1,
    "icao": "54T",
    "lat": 29.76194725,
    "lon": -94.8482515,
    "communications": [
      {
        "type": 51,
        "frequency": 12270,
        "name": "CTAF/UNICOM"
      },
      {
        "type": 55,
        "frequency": 13445,
        "name": "HOUSTON APP/DEP"
      }
    ],
    "elevation": 30,
    "tower": false,
    "name": "R W J AIRPARK",
    "runways": [
      {
        "type": 100,
        "width": 12.19,
        "surfaceType": null,
        "numberStart": "08",
        "numberEnd": "26",
        "latStart": 29.761539,
        "lonStart": -94.854444,
        "latEnd": 29.761772,
        "lonEnd": -94.838578,
        "length": 0,
        "surfacetype": 1
      },
      {
        "type": 100,
        "width": 30.48,
        "surfaceType": null,
        "numberStart": "14",
        "numberEnd": "32",
        "latStart": 29.766336,
        "lonStart": -94.852978,
        "latEnd": 29.758142,
        "lonEnd": -94.847006,
        "length": 0,
        "surfacetype": 3
      }
    ],
    "id": 20747
  },
  {
    "type": 1,
    "icao": "9TA3",
    "lat": 29.87300027,
    "lon": -94.98964945,
    "communications": [],
    "elevation": 38,
    "tower": false,
    "name": "Rogers",
    "runways": [
      {
        "type": 100,
        "width": 91.44,
        "surfaceType": null,
        "numberStart": "07",
        "numberEnd": "25",
        "latStart": 29.87200489,
        "lonStart": -94.99425343,
        "latEnd": 29.87399565,
        "lonEnd": -94.98504547,
        "length": 0,
        "surfacetype": 3
      }
    ],
    "id": 21661
  },
  {
    "type": 1,
    "icao": "KBPT",
    "lat": 29.950881180000003,
    "lon": -94.02103640250002,
    "communications": [
      {
        "type": 50,
        "frequency": 12630,
        "name": "ATIS"
      },
      {
        "type": 51,
        "frequency": 11950,
        "name": "CTAF"
      },
      {
        "type": 51,
        "frequency": 12295,
        "name": "UNICOM"
      },
      {
        "type": 52,
        "frequency": 11830,
        "name": "CLNC DEL"
      },
      {
        "type": 53,
        "frequency": 12190,
        "name": "GND"
      },
      {
        "type": 54,
        "frequency": 11950,
        "name": "BEAUMONT TWR"
      },
      {
        "type": 55,
        "frequency": 12130,
        "name": "BEAUMONT APP/DEP"
      },
      {
        "type": 55,
        "frequency": 12485,
        "name": "BEAUMONT APP/DEP"
      }
    ],
    "elevation": 15,
    "tower": true,
    "name": "SOUTHEAST TEXAS RGNL",
    "runways": [
      {
        "type": 100,
        "width": 46.02,
        "surfaceType": null,
        "numberStart": "12",
        "numberEnd": "30",
        "latStart": 29.95529168,
        "lonStart": -94.02777943,
        "latEnd": 29.94577177,
        "lonEnd": -94.00952232,
        "length": 0,
        "surfacetype": 2
      },
      {
        "type": 100,
        "width": 46.02,
        "surfaceType": null,
        "numberStart": "16",
        "numberEnd": "34",
        "latStart": 29.95799459,
        "lonStart": -94.02536999,
        "latEnd": 29.94446668,
        "lonEnd": -94.02147387,
        "length": 0,
        "surfacetype": 1
      }
    ],
    "id": 22398
  },
  {
    "type": 1,
    "icao": "KGLS",
    "lat": 29.2653205,
    "lon": -94.8604125,
    "communications": [
      {
        "type": 50,
        "frequency": 11927,
        "name": "ASOS"
      },
      {
        "type": 51,
        "frequency": 12057,
        "name": "CTAF"
      },
      {
        "type": 51,
        "frequency": 12305,
        "name": "UNICOM"
      },
      {
        "type": 52,
        "frequency": 13535,
        "name": "CLNC DEL"
      },
      {
        "type": 53,
        "frequency": 11862,
        "name": "GND"
      },
      {
        "type": 54,
        "frequency": 12057,
        "name": "TWR"
      },
      {
        "type": 55,
        "frequency": 13445,
        "name": "HOUSTON APP/DEP"
      }
    ],
    "elevation": 5,
    "tower": true,
    "name": "Scholes INTL at Galveston",
    "runways": [
      {
        "type": 100,
        "width": 46.02,
        "surfaceType": null,
        "numberStart": "17",
        "numberEnd": "35",
        "latStart": 29.273506,
        "lonStart": -94.859069,
        "latEnd": 29.257003,
        "lonEnd": -94.859353,
        "length": 0,
        "surfacetype": 2
      },
      {
        "type": 100,
        "width": 46.02,
        "surfaceType": null,
        "numberStart": "14",
        "numberEnd": "32",
        "latStart": 29.271717,
        "lonStart": -94.867647,
        "latEnd": 29.259056,
        "lonEnd": -94.855581,
        "length": 0,
        "surfacetype": 1
      }
    ],
    "id": 23119
  },
  {
    "type": 1,
    "icao": "XS77",
    "lat": 29.465510000000002,
    "lon": -94.62741528,
    "communications": [],
    "elevation": 9,
    "tower": false,
    "name": "Seafood Warehouse Park",
    "runways": [
      {
        "type": 100,
        "width": 22.86,
        "surfaceType": null,
        "numberStart": "12",
        "numberEnd": "30",
        "latStart": 29.46728351,
        "lonStart": -94.63021896,
        "latEnd": 29.46373649,
        "lonEnd": -94.6246116,
        "length": 0,
        "surfacetype": 3
      }
    ],
    "id": 23187
  },
  {
    "type": 1,
    "icao": "4TX0",
    "lat": 29.86355416,
    "lon": -94.83436723,
    "communications": [],
    "elevation": 35,
    "tower": false,
    "name": "Slack",
    "runways": [
      {
        "type": 100,
        "width": 15.24,
        "surfaceType": null,
        "numberStart": "15",
        "numberEnd": "33",
        "latStart": 29.86793938,
        "lonStart": -94.83661861,
        "latEnd": 29.85916894,
        "lonEnd": -94.83211585,
        "length": 0,
        "surfacetype": 3
      }
    ],
    "id": 23685
  },
  {
    "type": 1,
    "icao": "XS29",
    "lat": 29.990770830000002,
    "lon": -94.42241222999999,
    "communications": [],
    "elevation": 35,
    "tower": false,
    "name": "Sonny Broussard Landing Strip",
    "runways": [
      {
        "type": 100,
        "width": 33.53,
        "surfaceType": null,
        "numberStart": "17",
        "numberEnd": "35",
        "latStart": 29.99323012,
        "lonStart": -94.42266065,
        "latEnd": 29.98831154,
        "lonEnd": -94.42216381,
        "length": 0,
        "surfacetype": 3
      }
    ],
    "id": 23848
  },
  {
    "type": 1,
    "icao": "5XS3",
    "lat": 29.76966583,
    "lon": -94.26129695,
    "communications": [],
    "elevation": 11,
    "tower": false,
    "name": "Wilber Farms",
    "runways": [
      {
        "type": 100,
        "width": 24.38,
        "surfaceType": null,
        "numberStart": "17",
        "numberEnd": "35",
        "latStart": 29.77335476,
        "lonStart": -94.26166876,
        "latEnd": 29.7659769,
        "lonEnd": -94.26092514,
        "length": 0,
        "surfacetype": 3
      }
    ],
    "id": 27264
  },
  {
    "type": 17,
    "icao": "15T",
    "lat": 29.61966944,
    "lon": -94.20712723,
    "communications": [],
    "elevation": 3,
    "tower": false,
    "name": "[H] Arco High Island",
    "runways": [
      {
        "type": 102,
        "width": 18.3,
        "surfaceType": 2,
        "numberStart": "H1",
        "numberEnd": null,
        "latStart": 29.61966944,
        "lonStart": -94.20712723,
        "latEnd": null,
        "lonEnd": null,
        "length": 18.3
      }
    ],
    "id": 28166
  },
  {
    "type": 17,
    "icao": "9TS2",
    "lat": 29.86133083,
    "lon": -94.70103028,
    "communications": [],
    "elevation": 22,
    "tower": false,
    "name": "[H] CIG 816",
    "runways": [
      {
        "type": 102,
        "width": 6.1,
        "surfaceType": 2,
        "numberStart": "H1",
        "numberEnd": null,
        "latStart": 29.86133083,
        "lonStart": -94.70103028,
        "latEnd": null,
        "lonEnd": null,
        "length": 6.1
      }
    ],
    "id": 28688
  },
  {
    "type": 17,
    "icao": "TA98",
    "lat": 29.82161222,
    "lon": -94.92298112,
    "communications": [],
    "elevation": 26,
    "tower": false,
    "name": "[H] Chevron Chemical Co",
    "runways": [
      {
        "type": 102,
        "width": 12.2,
        "surfaceType": 2,
        "numberStart": "H1",
        "numberEnd": null,
        "latStart": 29.82161222,
        "lonStart": -94.92298112,
        "latEnd": null,
        "lonEnd": null,
        "length": 12.2
      }
    ],
    "id": 28913
  },
  {
    "type": 17,
    "icao": "9T9",
    "lat": 29.32329166,
    "lon": -94.78297334,
    "communications": [],
    "elevation": 9,
    "tower": false,
    "name": "[H] Dresser Industries Magcobar",
    "runways": [
      {
        "type": 102,
        "width": 45.7,
        "surfaceType": 2,
        "numberStart": "H1",
        "numberEnd": null,
        "latStart": 29.32329166,
        "lonStart": -94.78297334,
        "latEnd": null,
        "lonEnd": null,
        "length": 61
      },
      {
        "type": 102,
        "width": 45.7,
        "surfaceType": 2,
        "numberStart": "H2",
        "numberEnd": null,
        "latStart": 29.32329166,
        "lonStart": -94.78297334,
        "latEnd": null,
        "lonEnd": null,
        "length": 61
      }
    ],
    "id": 29412
  },
  {
    "type": 17,
    "icao": "64TA",
    "lat": 29.33361111,
    "lon": -94.73361112,
    "communications": [],
    "elevation": 14,
    "tower": false,
    "name": "[H] Galvestonian",
    "runways": [
      {
        "type": 102,
        "width": 15.2,
        "surfaceType": 2,
        "numberStart": "H1",
        "numberEnd": null,
        "latStart": 29.33361111,
        "lonStart": -94.73361112,
        "latEnd": null,
        "lonEnd": null,
        "length": 15.2
      }
    ],
    "id": 29875
  },
  {
    "type": 17,
    "icao": "90XS",
    "lat": 29.38328972,
    "lon": -94.77352917,
    "communications": [],
    "elevation": 8,
    "tower": false,
    "name": "[H] Houston Oil & Minerals",
    "runways": [
      {
        "type": 102,
        "width": 10.7,
        "surfaceType": 2,
        "numberStart": "H1",
        "numberEnd": null,
        "latStart": 29.38328972,
        "lonStart": -94.77352917,
        "latEnd": null,
        "lonEnd": null,
        "length": 10.7
      }
    ],
    "id": 30390
  },
  {
    "type": 17,
    "icao": "0TA9",
    "lat": 29.39106722,
    "lon": -94.76408445,
    "communications": [],
    "elevation": 6,
    "tower": false,
    "name": "[H] Houston Oil & Minerals Port Bolivar Nr",
    "runways": [
      {
        "type": 102,
        "width": 10.7,
        "surfaceType": 2,
        "numberStart": "H1",
        "numberEnd": null,
        "latStart": 29.39106722,
        "lonStart": -94.76408445,
        "latEnd": null,
        "lonEnd": null,
        "length": 10.7
      }
    ],
    "id": 30391
  },
  {
    "type": 17,
    "icao": "96XS",
    "lat": 29.52884083,
    "lon": -94.76603001,
    "communications": [],
    "elevation": 7,
    "tower": false,
    "name": "[H] Houston Oil & Minerals Smith Point",
    "runways": [
      {
        "type": 102,
        "width": 10.7,
        "surfaceType": 2,
        "numberStart": "H1",
        "numberEnd": null,
        "latStart": 29.52884083,
        "lonStart": -94.76603001,
        "latEnd": null,
        "lonEnd": null,
        "length": 10.7
      }
    ],
    "id": 30392
  },
  {
    "type": 17,
    "icao": "46R",
    "lat": 29.39328888,
    "lon": -94.98520306,
    "communications": [],
    "elevation": 16,
    "tower": false,
    "name": "[H] Mainland Regional Health Care System",
    "runways": [
      {
        "type": 102,
        "width": 30.5,
        "surfaceType": 1,
        "numberStart": "H1",
        "numberEnd": null,
        "latStart": 29.39328888,
        "lonStart": -94.98520306,
        "latEnd": null,
        "lonEnd": null,
        "length": 30.5
      }
    ],
    "id": 31047
  },
  {
    "type": 17,
    "icao": "05R",
    "lat": 29.73772694,
    "lon": -94.98020528,
    "communications": [],
    "elevation": 19,
    "tower": false,
    "name": "[H] San Jacinto Methodist Hospital",
    "runways": [
      {
        "type": 102,
        "width": 15.2,
        "surfaceType": 2,
        "numberStart": "H1",
        "numberEnd": null,
        "latStart": 29.73772694,
        "lonStart": -94.98020528,
        "latEnd": null,
        "lonEnd": null,
        "length": 15.2
      }
    ],
    "id": 32541
  },
  {
    "type": 17,
    "icao": "TA20",
    "lat": 29.76883722,
    "lon": -94.97909389,
    "communications": [],
    "elevation": 22,
    "tower": false,
    "name": "[H] San Jacinto Methodist Hospital",
    "runways": [
      {
        "type": 102,
        "width": 18.3,
        "surfaceType": 2,
        "numberStart": "H1",
        "numberEnd": null,
        "latStart": 29.76883722,
        "lonStart": -94.97909389,
        "latEnd": null,
        "lonEnd": null,
        "length": 18.3
      }
    ],
    "id": 32542
  },
  {
    "type": 17,
    "icao": "9T8",
    "lat": 29.32273611,
    "lon": -94.78686223,
    "communications": [],
    "elevation": 9,
    "tower": false,
    "name": "[H] Shell Pelican Island",
    "runways": [
      {
        "type": 102,
        "width": 10.7,
        "surfaceType": 2,
        "numberStart": "H1",
        "numberEnd": null,
        "latStart": 29.32273611,
        "lonStart": -94.78686223,
        "latEnd": null,
        "lonEnd": null,
        "length": 10.7
      },
      {
        "type": 102,
        "width": 10.7,
        "surfaceType": 2,
        "numberStart": "H2",
        "numberEnd": null,
        "latStart": 29.32273611,
        "lonStart": -94.78686223,
        "latEnd": null,
        "lonEnd": null,
        "length": 10.7
      }
    ],
    "id": 32676
  },
  {
    "type": 17,
    "icao": "84TS",
    "lat": 29.24607138,
    "lon": -94.86464167,
    "communications": [],
    "elevation": 18,
    "tower": false,
    "name": "[H] Tourist Ride Services",
    "runways": [
      {
        "type": 102,
        "width": 15.2,
        "surfaceType": 3,
        "numberStart": "H1",
        "numberEnd": null,
        "latStart": 29.24607138,
        "lonStart": -94.86464167,
        "latEnd": null,
        "lonEnd": null,
        "length": 15.2
      }
    ],
    "id": 33356
  },
  {
    "type": 17,
    "icao": "9T7",
    "lat": 29.31301416,
    "lon": -94.77658417,
    "communications": [],
    "elevation": 16,
    "tower": false,
    "name": "[H] University of Texas Medical Branch Hos",
    "runways": [
      {
        "type": 102,
        "width": 15.2,
        "surfaceType": 2,
        "numberStart": "H1",
        "numberEnd": null,
        "latStart": 29.31301416,
        "lonStart": -94.77658417,
        "latEnd": null,
        "lonEnd": null,
        "length": 15.2
      }
    ],
    "id": 33521
  },
  {
    "type": 17,
    "icao": "9TA7",
    "lat": 29.31218083,
    "lon": -94.77825084,
    "communications": [],
    "elevation": 35,
    "tower": false,
    "name": "[H] Utmb - Main",
    "runways": [
      {
        "type": 102,
        "width": 16.8,
        "surfaceType": 2,
        "numberStart": "H1",
        "numberEnd": null,
        "latStart": 29.31218083,
        "lonStart": -94.77825084,
        "latEnd": null,
        "lonEnd": null,
        "length": 36.6
      }
    ],
    "id": 33543
  }
]