[
  {
    "type": 17,
    "icao": "15T",
    "lat": 29.61966944,
    "lon": -94.20712723,
    "communications": [],
    "elevation": 3,
    "tower": false,
    "name": "[H] Arco High Island",
    "runways": [
      {
        "type": 102,
        "width": 18.3,
        "surfaceType": 2,
        "numberStart": "H1",
        "numberEnd": null,
        "latStart": 29.61966944,
        "lonStart": -94.20712723,
        "latEnd": null,
        "lonEnd": null,
        "length": 18.3
      }
    ],
    "id": 28166
  },
  {
    "type": 17,
    "icao": "9TS2",
    "lat": 29.86133083,
    "lon": -94.70103028,
    "communications": [],
    "elevation": 22,
    "tower": false,
    "name": "[H] CIG 816",
    "runways": [
      {
        "type": 102,
        "width": 6.1,
        "surfaceType": 2,
        "numberStart": "H1",
        "numberEnd": null,
        "latStart": 29.86133083,
        "lonStart": -94.70103028,
        "latEnd": null,
        "lonEnd": null,
        "length": 6.1
      }
    ],
    "id": 28688
  },
  {
    "type": 17,
    "icao": "TA98",
    "lat": 29.82161222,
    "lon": -94.92298112,
    "communications": [],
    "elevation": 26,
    "tower": false,
    "name": "[H] Chevron Chemical Co",
    "runways": [
      {
        "type": 102,
        "width": 12.2,
        "surfaceType": 2,
        "numberStart": "H1",
        "numberEnd": null,
        "latStart": 29.82161222,
        "lonStart": -94.92298112,
        "latEnd": null,
        "lonEnd": null,
        "length": 12.2
      }
    ],
    "id": 28913
  },
  {
    "type": 17,
    "icao": "9T9",
    "lat": 29.32329166,
    "lon": -94.78297334,
    "communications": [],
    "elevation": 9,
    "tower": false,
    "name": "[H] Dresser Industries Magcobar",
    "runways": [
      {
        "type": 102,
        "width": 45.7,
        "surfaceType": 2,
        "numberStart": "H1",
        "numberEnd": null,
        "latStart": 29.32329166,
        "lonStart": -94.78297334,
        "latEnd": null,
        "lonEnd": null,
        "length": 61
      },
      {
        "type": 102,
        "width": 45.7,
        "surfaceType": 2,
        "numberStart": "H2",
        "numberEnd": null,
        "latStart": 29.32329166,
        "lonStart": -94.78297334,
        "latEnd": null,
        "lonEnd": null,
        "length": 61
      }
    ],
    "id": 29412
  },
  {
    "type": 17,
    "icao": "64TA",
    "lat": 29.33361111,
    "lon": -94.73361112,
    "communications": [],
    "elevation": 14,
    "tower": false,
    "name": "[H] Galvestonian",
    "runways": [
      {
        "type": 102,
        "width": 15.2,
        "surfaceType": 2,
        "numberStart": "H1",
        "numberEnd": null,
        "latStart": 29.33361111,
        "lonStart": -94.73361112,
        "latEnd": null,
        "lonEnd": null,
        "length": 15.2
      }
    ],
    "id": 29875
  },
  {
    "type": 17,
    "icao": "90XS",
    "lat": 29.38328972,
    "lon": -94.77352917,
    "communications": [],
    "elevation": 8,
    "tower": false,
    "name": "[H] Houston Oil & Minerals",
    "runways": [
      {
        "type": 102,
        "width": 10.7,
        "surfaceType": 2,
        "numberStart": "H1",
        "numberEnd": null,
        "latStart": 29.38328972,
        "lonStart": -94.77352917,
        "latEnd": null,
        "lonEnd": null,
        "length": 10.7
      }
    ],
    "id": 30390
  },
  {
    "type": 17,
    "icao": "0TA9",
    "lat": 29.39106722,
    "lon": -94.76408445,
    "communications": [],
    "elevation": 6,
    "tower": false,
    "name": "[H] Houston Oil & Minerals Port Bolivar Nr",
    "runways": [
      {
        "type": 102,
        "width": 10.7,
        "surfaceType": 2,
        "numberStart": "H1",
        "numberEnd": null,
        "latStart": 29.39106722,
        "lonStart": -94.76408445,
        "latEnd": null,
        "lonEnd": null,
        "length": 10.7
      }
    ],
    "id": 30391
  },
  {
    "type": 17,
    "icao": "96XS",
    "lat": 29.52884083,
    "lon": -94.76603001,
    "communications": [],
    "elevation": 7,
    "tower": false,
    "name": "[H] Houston Oil & Minerals Smith Point",
    "runways": [
      {
        "type": 102,
        "width": 10.7,
        "surfaceType": 2,
        "numberStart": "H1",
        "numberEnd": null,
        "latStart": 29.52884083,
        "lonStart": -94.76603001,
        "latEnd": null,
        "lonEnd": null,
        "length": 10.7
      }
    ],
    "id": 30392
  },
  {
    "type": 17,
    "icao": "46R",
    "lat": 29.39328888,
    "lon": -94.98520306,
    "communications": [],
    "elevation": 16,
    "tower": false,
    "name": "[H] Mainland Regional Health Care System",
    "runways": [
      {
        "type": 102,
        "width": 30.5,
        "surfaceType": 1,
        "numberStart": "H1",
        "numberEnd": null,
        "latStart": 29.39328888,
        "lonStart": -94.98520306,
        "latEnd": null,
        "lonEnd": null,
        "length": 30.5
      }
    ],
    "id": 31047
  },
  {
    "type": 17,
    "icao": "05R",
    "lat": 29.73772694,
    "lon": -94.98020528,
    "communications": [],
    "elevation": 19,
    "tower": false,
    "name": "[H] San Jacinto Methodist Hospital",
    "runways": [
      {
        "type": 102,
        "width": 15.2,
        "surfaceType": 2,
        "numberStart": "H1",
        "numberEnd": null,
        "latStart": 29.73772694,
        "lonStart": -94.98020528,
        "latEnd": null,
        "lonEnd": null,
        "length": 15.2
      }
    ],
    "id": 32541
  },
  {
    "type": 17,
    "icao": "TA20",
    "lat": 29.76883722,
    "lon": -94.97909389,
    "communications": [],
    "elevation": 22,
    "tower": false,
    "name": "[H] San Jacinto Methodist Hospital",
    "runways": [
      {
        "type": 102,
        "width": 18.3,
        "surfaceType": 2,
        "numberStart": "H1",
        "numberEnd": null,
        "latStart": 29.76883722,
        "lonStart": -94.97909389,
        "latEnd": null,
        "lonEnd": null,
        "length": 18.3
      }
    ],
    "id": 32542
  },
  {
    "type": 17,
    "icao": "9T8",
    "lat": 29.32273611,
    "lon": -94.78686223,
    "communications": [],
    "elevation": 9,
    "tower": false,
    "name": "[H] Shell Pelican Island",
    "runways": [
      {
        "type": 102,
        "width": 10.7,
        "surfaceType": 2,
        "numberStart": "H1",
        "numberEnd": null,
        "latStart": 29.32273611,
        "lonStart": -94.78686223,
        "latEnd": null,
        "lonEnd": null,
        "length": 10.7
      },
      {
        "type": 102,
        "width": 10.7,
        "surfaceType": 2,
        "numberStart": "H2",
        "numberEnd": null,
        "latStart": 29.32273611,
        "lonStart": -94.78686223,
        "latEnd": null,
        "lonEnd": null,
        "length": 10.7
      }
    ],
    "id": 32676
  },
  {
    "type": 17,
    "icao": "84TS",
    "lat": 29.24607138,
    "lon": -94.86464167,
    "communications": [],
    "elevation": 18,
    "tower": false,
    "name": "[H] Tourist Ride Services",
    "runways": [
      {
        "type": 102,
        "width": 15.2,
        "surfaceType": 3,
        "numberStart": "H1",
        "numberEnd": null,
        "latStart": 29.24607138,
        "lonStart": -94.86464167,
        "latEnd": null,
        "lonEnd": null,
        "length": 15.2
      }
    ],
    "id": 33356
  },
  {
    "type": 17,
    "icao": "9T7",
    "lat": 29.31301416,
    "lon": -94.77658417,
    "communications": [],
    "elevation": 16,
    "tower": false,
    "name": "[H] University of Texas Medical Branch Hos",
    "runways": [
      {
        "type": 102,
        "width": 15.2,
        "surfaceType": 2,
        "numberStart": "H1",
        "numberEnd": null,
        "latStart": 29.31301416,
        "lonStart": -94.77658417,
        "latEnd": null,
        "lonEnd": null,
        "length": 15.2
      }
    ],
    "id": 33521
  },
  {
    "type": 17,
    "icao": "9TA7",
    "lat": 29.31218083,
    "lon": -94.77825084,
    "communications": [],
    "elevation": 35,
    "tower": false,
    "name": "[H] Utmb - Main",
    "runways": [
      {
        "type": 102,
        "width": 16.8,
        "surfaceType": 2,
        "numberStart": "H1",
        "numberEnd": null,
        "latStart": 29.31218083,
        "lonStart": -94.77825084,
        "latEnd": null,
        "lonEnd": null,
        "length": 36.6
      }
    ],
    "id": 33543
  }
]