[
  {
    "type": 1,
    "icao": "LPAV",
    "lat": 40.6541725,
    "lon": -8.7435515,
    "communications": [],
    "elevation": 25,
    "tower": false,
    "name": "AVEIRO",
    "runways": [
      {
        "type": 100,
        "width": 49.99,
        "surfaceType": null,
        "numberStart": "17",
        "numberEnd": "35",
        "latStart": 40.660264,
        "lonStart": -8.745639,
        "latEnd": 40.648081,
        "lonEnd": -8.741464,
        "length": 0,
        "surfacetype": 1
      }
    ],
    "id": 487
  },
  {
    "type": 1,
    "icao": "LPCO",
    "lat": 40.157222000000004,
    "lon": -8.47,
    "communications": [
      {
        "type": 54,
        "frequency": 12290,
        "name": "RDO"
      }
    ],
    "elevation": 586,
    "tower": false,
    "name": "COIMBRA",
    "runways": [
      {
        "type": 100,
        "width": 29.87,
        "surfaceType": null,
        "numberStart": "16",
        "numberEnd": "34",
        "latStart": 40.161036,
        "lonStart": -8.472108,
        "latEnd": 40.153408,
        "lonEnd": -8.467892,
        "length": 0,
        "surfacetype": 2
      }
    ],
    "id": 4024
  },
  {
    "type": 1,
    "icao": "LPOV",
    "lat": 40.9159195,
    "lon": -8.645924999999998,
    "communications": [
      {
        "type": 54,
        "frequency": 12210,
        "name": "TWR"
      },
      {
        "type": 55,
        "frequency": 11860,
        "name": "APP"
      }
    ],
    "elevation": 56,
    "tower": true,
    "name": "OVAR",
    "runways": [
      {
        "type": 100,
        "width": 45.11,
        "surfaceType": null,
        "numberStart": "18",
        "numberEnd": "36",
        "latStart": 40.926828,
        "lonStart": -8.646897,
        "latEnd": 40.905011,
        "lonEnd": -8.644953,
        "length": 0,
        "surfacetype": 2
      }
    ],
    "id": 18748
  },
  {
    "type": 1,
    "icao": "LPIN",
    "lat": 40.9666672,
    "lon": -8.6499977,
    "communications": [],
    "elevation": 10,
    "tower": false,
    "name": "Paramos Airfield",
    "runways": [
      {
        "type": 100,
        "width": 39.93,
        "surfaceType": null,
        "numberStart": "18",
        "numberEnd": "36",
        "latStart": 40.97330194,
        "lonStart": -8.65162621,
        "latEnd": 40.96003246,
        "lonEnd": -8.64836919,
        "length": 0,
        "surfacetype": 1
      }
    ],
    "id": 19764
  }
]