[
  {
    "type": 1,
    "icao": "MYCA",
    "lat": 24.629416499999998,
    "lon": -25.528805999999996,
    "communications": [],
    "elevation": 18,
    "tower": true,
    "name": "ARTHURS TOWN",
    "runways": [
      {
        "type": 100,
        "width": 45.72,
        "surfaceType": null,
        "numberStart": "12",
        "numberEnd": "30",
        "latStart": 24.632889,
        "lonStart": -75.683556,
        "latEnd": 24.625944,
        "lonEnd": -75.663972,
        "length": 0,
        "surfacetype": 1
      }
    ],
    "id": 409
  },
  {
    "type": 1,
    "icao": "MYCX",
    "lat": 24.14999166,
    "lon": -25.627396929999996,
    "communications": [],
    "elevation": 2,
    "tower": true,
    "name": "Cutlass Bay",
    "runways": [
      {
        "type": 100,
        "width": 45.72,
        "surfaceType": null,
        "numberStart": "12",
        "numberEnd": "30",
        "latStart": 24.15146465,
        "lonStart": -75.40331253,
        "latEnd": 24.14851867,
        "lonEnd": -75.39669301,
        "length": 0,
        "surfacetype": 2
      }
    ],
    "id": 5615
  },
  {
    "type": 1,
    "icao": "MYE4",
    "lat": 24.149991659999998,
    "lon": -25.685930070000005,
    "communications": [],
    "elevation": 3,
    "tower": true,
    "name": "Hawks Nest",
    "runways": [
      {
        "type": 100,
        "width": 45.72,
        "surfaceType": null,
        "numberStart": "08",
        "numberEnd": "26",
        "latStart": 24.14846541,
        "lonStart": -75.52337805,
        "latEnd": 24.15151791,
        "lonEnd": -75.50996083,
        "length": 0,
        "surfacetype": 2
      }
    ],
    "id": 11575
  },
  {
    "type": 1,
    "icao": "MYCB",
    "lat": 24.3152905,
    "lon": -25.572086,
    "communications": [
      {
        "type": 51,
        "frequency": 12280,
        "name": "UNICOM"
      }
    ],
    "elevation": 5,
    "tower": true,
    "name": "NEW BIGHT",
    "runways": [
      {
        "type": 100,
        "width": 30.48,
        "surfaceType": null,
        "numberStart": "09",
        "numberEnd": "27",
        "latStart": 24.314764,
        "lonStart": -75.459989,
        "latEnd": 24.315817,
        "lonEnd": -75.444672,
        "length": 0,
        "surfacetype": 1
      }
    ],
    "id": 17901
  },
  {
    "type": 1,
    "icao": "MYER",
    "lat": 24.891699000000003,
    "lon": -25.648269499999998,
    "communications": [
      {
        "type": 51,
        "frequency": 12280,
        "name": "UNICOM"
      },
      {
        "type": 55,
        "frequency": 12100,
        "name": "NASSAU APCH"
      }
    ],
    "elevation": 10,
    "tower": true,
    "name": "ROCK SOUND",
    "runways": [
      {
        "type": 100,
        "width": 45.72,
        "surfaceType": null,
        "numberStart": "09",
        "numberEnd": "27",
        "latStart": 24.891331,
        "lonStart": -76.188606,
        "latEnd": 24.892067,
        "lonEnd": -76.166869,
        "length": 0,
        "surfacetype": 1
      }
    ],
    "id": 20999
  },
  {
    "type": 1,
    "icao": "MYSM",
    "lat": 24.0632875,
    "lon": -25.236809540000003,
    "communications": [
      {
        "type": 51,
        "frequency": 12280,
        "name": "UNICOM"
      },
      {
        "type": 50,
        "frequency": 11870,
        "name": "AWOS"
      }
    ],
    "elevation": 24,
    "tower": true,
    "name": "SAN SALVADOR ISLAND",
    "runways": [
      {
        "type": 100,
        "width": 46.02,
        "surfaceType": null,
        "numberStart": "10",
        "numberEnd": "28",
        "latStart": 24.06426011,
        "lonStart": -74.53593397,
        "latEnd": 24.06231489,
        "lonEnd": -74.51199621,
        "length": 0,
        "surfacetype": 1
      }
    ],
    "id": 22007
  }
]