[
  {
    "type": 1,
    "icao": "DOI",
    "lat": -10.700934565,
    "lon": 70.00855128500001,
    "communications": [
      {
        "type": 50,
        "frequency": 12770,
        "name": "DOI AWOS"
      }
    ],
    "elevation": 10,
    "tower": false,
    "name": "Doini",
    "runways": [
      {
        "type": 100,
        "width": 42.06,
        "surfaceType": null,
        "numberStart": "08",
        "numberEnd": "26",
        "latStart": -10.70021054,
        "lonStart": 150.71876116,
        "latEnd": -10.70165859,
        "lonEnd": 150.72480642,
        "length": 0,
        "surfacetype": 4
      }
    ],
    "id": 6351
  },
  {
    "type": 1,
    "icao": "AYGN",
    "lat": -10.311531855,
    "lon": 70.015645835,
    "communications": [
      {
        "type": 50,
        "frequency": 12220,
        "name": "AYGN ATIS"
      },
      {
        "type": 51,
        "frequency": 11960,
        "name": "ACTIVATE LIGHTS ONLY MULTICOM"
      },
      {
        "type": 53,
        "frequency": 12290,
        "name": "GURNEY GND"
      },
      {
        "type": 54,
        "frequency": 11940,
        "name": "GURNEY TWR"
      }
    ],
    "elevation": 66,
    "tower": true,
    "name": "Gurney",
    "runways": [
      {
        "type": 100,
        "width": 29.87,
        "surfaceType": null,
        "numberStart": "09",
        "numberEnd": "27",
        "latStart": -10.31302166,
        "lonStart": 150.34133372,
        "latEnd": -10.31004205,
        "lonEnd": 150.32617745,
        "length": 0,
        "surfacetype": 1
      }
    ],
    "id": 10905
  }
]