[
  {
    "type": 1,
    "icao": "EGA",
    "lat": -6.9181740000000005,
    "lon": 146.10567,
    "communications": [
      {
        "type": 50,
        "frequency": 12770,
        "name": "EGA AWOS"
      }
    ],
    "elevation": 3300,
    "tower": false,
    "name": "Engati",
    "runways": [
      {
        "type": 100,
        "width": 30.48,
        "surfaceType": null,
        "numberStart": "17",
        "numberEnd": "35",
        "latStart": -6.91622366,
        "lonStart": 146.10532358,
        "latEnd": -6.92012434,
        "lonEnd": 146.10601642,
        "length": 0,
        "surfacetype": 4
      }
    ],
    "id": 7188
  },
  {
    "type": 1,
    "icao": "AYNZ",
    "lat": -6.568755629999999,
    "lon": 146.72737027,
    "communications": [
      {
        "type": 50,
        "frequency": 12770,
        "name": "LAE AWOS"
      }
    ],
    "elevation": 46,
    "tower": false,
    "name": "Nadzab",
    "runways": [
      {
        "type": 100,
        "width": 29.87,
        "surfaceType": null,
        "numberStart": "09",
        "numberEnd": "27",
        "latStart": -6.56887364,
        "lonStart": 146.71516587,
        "latEnd": -6.57078476,
        "lonEnd": 146.73715445,
        "length": 0,
        "surfacetype": 1
      },
      {
        "type": 102,
        "width": 9.14,
        "surfaceType": 1,
        "numberStart": "H1",
        "numberEnd": null,
        "latStart": -6.56660849,
        "lonStart": 146.72979049,
        "latEnd": null,
        "lonEnd": null,
        "length": 9.14
      }
    ],
    "id": 18050
  },
  {
    "type": 1,
    "icao": "ZEN",
    "lat": -6.952505,
    "lon": 146.616241,
    "communications": [
      {
        "type": 50,
        "frequency": 12770,
        "name": "ZEN AWOS"
      }
    ],
    "elevation": 3200,
    "tower": false,
    "name": "Zenag",
    "runways": [
      {
        "type": 100,
        "width": 30.48,
        "surfaceType": null,
        "numberStart": "17",
        "numberEnd": "35",
        "latStart": -6.95035093,
        "lonStart": 146.61581919,
        "latEnd": -6.95465907,
        "lonEnd": 146.61666281,
        "length": 0,
        "surfacetype": 4
      }
    ],
    "id": 27894
  }
]