[
  {
    "type": 1,
    "icao": "VGTJ",
    "lat": 23.7787835,
    "lon": 90.3826875,
    "communications": [
      {
        "type": 54,
        "frequency": 12300,
        "name": "TWR"
      },
      {
        "type": 54,
        "frequency": 12290,
        "name": "TWR"
      }
    ],
    "elevation": 24,
    "tower": true,
    "name": "TEJGAON",
    "runways": [
      {
        "type": 100,
        "width": 29.87,
        "surfaceType": null,
        "numberStart": "17",
        "numberEnd": "35",
        "latStart": 23.791131,
        "lonStart": 90.378953,
        "latEnd": 23.766436,
        "lonEnd": 90.386422,
        "length": 0,
        "surfacetype": 1
      }
    ],
    "id": 24636
  },
  {
    "type": 1,
    "icao": "VGZR",
    "lat": 23.843375,
    "lon": 90.39773600000001,
    "communications": [
      {
        "type": 50,
        "frequency": 12740,
        "name": "DHAKA ATIS"
      },
      {
        "type": 53,
        "frequency": 12180,
        "name": "DHAKA GND"
      },
      {
        "type": 54,
        "frequency": 11830,
        "name": "DHAKA TWR"
      },
      {
        "type": 55,
        "frequency": 12130,
        "name": "DHAKA APP"
      }
    ],
    "elevation": 28,
    "tower": true,
    "name": "ZIA INTL",
    "runways": [
      {
        "type": 100,
        "width": 45.72,
        "surfaceType": null,
        "numberStart": "14",
        "numberEnd": "32",
        "latStart": 23.855017,
        "lonStart": 90.388536,
        "latEnd": 23.831733,
        "lonEnd": 90.406936,
        "length": 0,
        "surfacetype": 1
      }
    ],
    "id": 27851
  }
]