[
  {
    "type": 1,
    "icao": "ENBR",
    "lat": 60.29226885666666,
    "lon": 5.222232876666667,
    "communications": [
      {
        "type": 50,
        "frequency": 12525,
        "name": "Flesland Information"
      },
      {
        "type": 53,
        "frequency": 12190,
        "name": "Flesland Ground"
      },
      {
        "type": 54,
        "frequency": 11910,
        "name": "Flesland Tower"
      },
      {
        "type": 55,
        "frequency": 12100,
        "name": "Flesland Radar"
      },
      {
        "type": 55,
        "frequency": 12500,
        "name": "Flesland Arrival"
      },
      {
        "type": 55,
        "frequency": 11885,
        "name": "Flesland Director"
      }
    ],
    "elevation": 165,
    "tower": true,
    "name": "Bergen Lufthavn Flesland",
    "runways": [
      {
        "type": 100,
        "width": 45.11,
        "surfaceType": null,
        "numberStart": "17",
        "numberEnd": "35",
        "latStart": 60.30662256,
        "lonStart": 5.2137245,
        "latEnd": 60.28014862,
        "lonEnd": 5.22260276,
        "length": 0,
        "surfacetype": 1
      },
      {
        "type": 102,
        "width": 23.9,
        "surfaceType": 1,
        "numberStart": "H8",
        "numberEnd": null,
        "latStart": 60.29222021,
        "lonStart": 5.22407554,
        "latEnd": null,
        "lonEnd": null,
        "length": 25.3
      },
      {
        "type": 102,
        "width": 23.9,
        "surfaceType": 1,
        "numberStart": "H5",
        "numberEnd": null,
        "latStart": 60.29120092,
        "lonStart": 5.2244655,
        "latEnd": null,
        "lonEnd": null,
        "length": 25.3
      },
      {
        "type": 102,
        "width": 23.9,
        "surfaceType": 1,
        "numberStart": "H6",
        "numberEnd": null,
        "latStart": 60.29154105,
        "lonStart": 5.22433149,
        "latEnd": null,
        "lonEnd": null,
        "length": 25.3
      },
      {
        "type": 102,
        "width": 23.9,
        "surfaceType": 1,
        "numberStart": "H7",
        "numberEnd": null,
        "latStart": 60.29187978,
        "lonStart": 5.22419747,
        "latEnd": null,
        "lonEnd": null,
        "length": 25.3
      }
    ],
    "id": 2578
  }
]