[
  {
    "type": 1,
    "icao": "AMG",
    "lat": -4.596223,
    "lon": 143.52221300000002,
    "communications": [
      {
        "type": 50,
        "frequency": 12770,
        "name": "AMG AWOS"
      }
    ],
    "elevation": 0,
    "tower": false,
    "name": "Amboin",
    "runways": [
      {
        "type": 100,
        "width": 60.05,
        "surfaceType": null,
        "numberStart": "14",
        "numberEnd": "32",
        "latStart": -4.59428342,
        "lonStart": 143.52026716,
        "latEnd": -4.59816258,
        "lonEnd": 143.52415884,
        "length": 0,
        "surfacetype": 4
      }
    ],
    "id": 14592
  },
  {
    "type": 1,
    "icao": "TBE",
    "lat": -4.190719,
    "lon": 143.51844799999998,
    "communications": [
      {
        "type": 50,
        "frequency": 12770,
        "name": "TBE AWOS"
      }
    ],
    "elevation": 0,
    "tower": false,
    "name": "Timbunke",
    "runways": [
      {
        "type": 100,
        "width": 30.48,
        "surfaceType": null,
        "numberStart": "12",
        "numberEnd": "30",
        "latStart": -4.18926544,
        "lonStart": 143.51611558,
        "latEnd": -4.19217256,
        "lonEnd": 143.52078042,
        "length": 0,
        "surfacetype": 4
      }
    ],
    "id": 29819
  },
  {
    "type": 1,
    "icao": "TCK",
    "lat": -4.090040999999999,
    "lon": 143.387726,
    "communications": [
      {
        "type": 50,
        "frequency": 12770,
        "name": "TCK AWOS"
      }
    ],
    "elevation": 0,
    "tower": false,
    "name": "Tinboli",
    "runways": [
      {
        "type": 100,
        "width": 30.48,
        "surfaceType": null,
        "numberStart": "03",
        "numberEnd": "21",
        "latStart": -4.09241649,
        "lonStart": 143.38635101,
        "latEnd": -4.08766551,
        "lonEnd": 143.38910099,
        "length": 0,
        "surfacetype": 4
      }
    ],
    "id": 29821
  }
]