[
  {
    "type": 1,
    "icao": "LEAB",
    "lat": 38.948449135000004,
    "lon": 18.534887665000003,
    "communications": [
      {
        "type": 53,
        "frequency": 12180,
        "name": "GND"
      },
      {
        "type": 54,
        "frequency": 12150,
        "name": "TWR"
      },
      {
        "type": 54,
        "frequency": 12210,
        "name": "TWR"
      },
      {
        "type": 54,
        "frequency": 13697,
        "name": "TWR"
      },
      {
        "type": 55,
        "frequency": 11872,
        "name": "APP"
      }
    ],
    "elevation": 2303,
    "tower": true,
    "name": "Albacete",
    "runways": [
      {
        "type": 100,
        "width": 60.05,
        "surfaceType": null,
        "numberStart": "09",
        "numberEnd": "27",
        "latStart": 38.947967,
        "lonStart": -1.87915594,
        "latEnd": 38.94893127,
        "lonEnd": -1.8479924,
        "length": 0,
        "surfacetype": 1
      }
    ],
    "id": 801
  },
  {
    "type": 1,
    "icao": "LEAL",
    "lat": 38.28216045,
    "lon": 18.85240224,
    "communications": [
      {
        "type": 54,
        "frequency": 11815,
        "name": "TWR"
      },
      {
        "type": 53,
        "frequency": 13065,
        "name": "GMC"
      },
      {
        "type": 55,
        "frequency": 12040,
        "name": "APP"
      }
    ],
    "elevation": 142,
    "tower": true,
    "name": "Alicante",
    "runways": [
      {
        "type": 100,
        "width": 45.33,
        "surfaceType": null,
        "numberStart": "10",
        "numberEnd": "28",
        "latStart": 38.28451834,
        "lonStart": -0.57499808,
        "latEnd": 38.27980256,
        "lonEnd": -0.54122719,
        "length": 0,
        "surfacetype": 1
      }
    ],
    "id": 871
  },
  {
    "type": 1,
    "icao": "LECQ",
    "lat": 38.0839729,
    "lon": 18.684770059999998,
    "communications": [],
    "elevation": 127,
    "tower": false,
    "name": "Ciudad Quesada Alic.",
    "runways": [
      {
        "type": 100,
        "width": 39.01,
        "surfaceType": null,
        "numberStart": "06",
        "numberEnd": "24",
        "latStart": 38.08174767,
        "lonStart": -0.71665801,
        "latEnd": 38.08619813,
        "lonEnd": -0.70602399,
        "length": 0,
        "surfacetype": 3
      }
    ],
    "id": 5034
  },
  {
    "type": 1,
    "icao": "LELM",
    "lat": 38.895240775,
    "lon": 18.888110694999998,
    "communications": [],
    "elevation": 2330,
    "tower": false,
    "name": "Medina",
    "runways": [
      {
        "type": 100,
        "width": 64.14,
        "surfaceType": null,
        "numberStart": "15",
        "numberEnd": "33",
        "latStart": 38.89819445,
        "lonStart": -1.11606571,
        "latEnd": 38.8922871,
        "lonEnd": -1.11135218,
        "length": 0,
        "surfacetype": 4
      }
    ],
    "id": 17013
  },
  {
    "type": 1,
    "icao": "LEMU",
    "lat": 38.440537,
    "lon": 18.97944539,
    "communications": [
      {
        "type": 54,
        "frequency": 12350,
        "name": "A/A"
      }
    ],
    "elevation": 475,
    "tower": true,
    "name": "Mutchamel",
    "runways": [
      {
        "type": 100,
        "width": 12.39,
        "surfaceType": null,
        "numberStart": "12",
        "numberEnd": "30",
        "latStart": 38.44238727,
        "lonStart": -0.47979595,
        "latEnd": 38.43868673,
        "lonEnd": -0.47057265,
        "length": 0,
        "surfacetype": 1
      }
    ],
    "id": 17763
  }
]