[
  {
    "type": 1,
    "icao": "ABP",
    "lat": -6.064831,
    "lon": 67.512713735,
    "communications": [
      {
        "type": 50,
        "frequency": 12770,
        "name": "ABP AWOS"
      }
    ],
    "elevation": 91,
    "tower": false,
    "name": "Atkamba",
    "runways": [
      {
        "type": 100,
        "width": 60.05,
        "surfaceType": null,
        "numberStart": "18",
        "numberEnd": "36",
        "latStart": -6.06249947,
        "lonStart": 141.09259,
        "latEnd": -6.06716253,
        "lonEnd": 141.09259,
        "length": 0,
        "surfacetype": 4
      }
    ],
    "id": 1296
  },
  {
    "type": 1,
    "icao": "WX55",
    "lat": -6.449308,
    "lon": 67.07124696,
    "communications": [],
    "elevation": 145,
    "tower": false,
    "name": "Butiptiri (ZGK)",
    "runways": [
      {
        "type": 100,
        "width": 14.94,
        "surfaceType": null,
        "numberStart": "11",
        "numberEnd": "29",
        "latStart": -6.44869257,
        "lonStart": 140.59241735,
        "latEnd": -6.44992343,
        "lonEnd": 140.59582065,
        "length": 0,
        "surfacetype": 3
      }
    ],
    "id": 3450
  },
  {
    "type": 1,
    "icao": "UNG",
    "lat": -6.125799,
    "lon": 67.57694906,
    "communications": [
      {
        "type": 50,
        "frequency": 12770,
        "name": "UNG AWOS"
      }
    ],
    "elevation": 102,
    "tower": false,
    "name": "Kiunga",
    "runways": [
      {
        "type": 100,
        "width": 30.48,
        "surfaceType": null,
        "numberStart": "07",
        "numberEnd": "25",
        "latStart": -6.12736287,
        "lonStart": 141.27813325,
        "latEnd": -6.12423513,
        "lonEnd": 141.28781475,
        "length": 0,
        "surfacetype": 4
      }
    ],
    "id": 13960
  },
  {
    "type": 1,
    "icao": "WAKT",
    "lat": -6.097155,
    "lon": 67.101405665,
    "communications": [],
    "elevation": 74,
    "tower": false,
    "name": "Tanah Merah (DGAC)",
    "runways": [
      {
        "type": 100,
        "width": 24.99,
        "surfaceType": null,
        "numberStart": "07",
        "numberEnd": "25",
        "latStart": -6.09848566,
        "lonStart": 140.29863567,
        "latEnd": -6.09582434,
        "lonEnd": 140.30775433,
        "length": 0,
        "surfacetype": 5
      }
    ],
    "id": 25023
  },
  {
    "type": 1,
    "icao": "WAJ",
    "lat": -6.9535800000000005,
    "lon": 67.85042683500001,
    "communications": [
      {
        "type": 50,
        "frequency": 12770,
        "name": "WAJ AWOS"
      }
    ],
    "elevation": 399,
    "tower": false,
    "name": "Wawoi Falls",
    "runways": [
      {
        "type": 100,
        "width": 30.48,
        "surfaceType": null,
        "numberStart": "13",
        "numberEnd": "31",
        "latStart": -6.95208343,
        "lonStart": 142.65593024,
        "latEnd": -6.95507657,
        "lonEnd": 142.65916376,
        "length": 0,
        "surfacetype": 4
      }
    ],
    "id": 26995
  }
]