[
  {
    "type": 1,
    "icao": "RJNF",
    "lat": 36.1428475,
    "lon": 136.22392200000002,
    "communications": [
      {
        "type": 55,
        "frequency": 12010,
        "name": "KOMATSU APP"
      }
    ],
    "elevation": 19,
    "tower": true,
    "name": "FUKUI",
    "runways": [
      {
        "type": 100,
        "width": 30.48,
        "surfaceType": null,
        "numberStart": "18",
        "numberEnd": "36",
        "latStart": 36.148778,
        "lonStart": 136.2234,
        "latEnd": 36.136917,
        "lonEnd": 136.224444,
        "length": 0,
        "surfacetype": 1
      }
    ],
    "id": 7728
  },
  {
    "type": 1,
    "icao": "RJNK",
    "lat": 36.39425025,
    "lon": 136.4068555,
    "communications": [
      {
        "type": 53,
        "frequency": 12170,
        "name": "GND"
      },
      {
        "type": 54,
        "frequency": 12620,
        "name": "TWR"
      },
      {
        "type": 54,
        "frequency": 11825,
        "name": "TWR"
      },
      {
        "type": 55,
        "frequency": 12795,
        "name": "TCA"
      },
      {
        "type": 55,
        "frequency": 12010,
        "name": "APP"
      },
      {
        "type": 55,
        "frequency": 12125,
        "name": "APP"
      },
      {
        "type": 56,
        "frequency": 12010,
        "name": "DEP"
      },
      {
        "type": 56,
        "frequency": 12125,
        "name": "DEP"
      }
    ],
    "elevation": 36,
    "tower": true,
    "name": "KOMATSU",
    "runways": [
      {
        "type": 100,
        "width": 45.11,
        "surfaceType": null,
        "numberStart": "06L",
        "numberEnd": "24R",
        "latStart": 36.387706,
        "lonStart": 136.394119,
        "latEnd": 36.401517,
        "lonEnd": 136.418972,
        "length": 0,
        "surfacetype": 1
      },
      {
        "type": 100,
        "width": 45.72,
        "surfaceType": null,
        "numberStart": "06",
        "numberEnd": "24",
        "latStart": 36.386989,
        "lonStart": 136.394742,
        "latEnd": 36.400789,
        "lonEnd": 136.419589,
        "length": 0,
        "surfacetype": 1
      }
    ],
    "id": 13452
  }
]