[
  {
    "type": 1,
    "icao": "EDAI",
    "lat": 52.82654609,
    "lon": 12.543625145,
    "communications": [],
    "elevation": 142,
    "tower": false,
    "name": "Segeletz",
    "runways": [
      {
        "type": 100,
        "width": 28,
        "surfaceType": null,
        "numberStart": "11",
        "numberEnd": "29",
        "latStart": 52.82746686,
        "lonStart": 12.53690121,
        "latEnd": 52.82562532,
        "lonEnd": 12.55034908,
        "length": 0,
        "surfacetype": 3
      }
    ],
    "id": 987
  },
  {
    "type": 1,
    "icao": "EDBE",
    "lat": 52.4370696,
    "lon": 12.593042085,
    "communications": [
      {
        "type": 54,
        "frequency": 11862,
        "name": "Brandenburg Info"
      }
    ],
    "elevation": 100,
    "tower": true,
    "name": "Brandenburg/Mühlenfeld",
    "runways": [
      {
        "type": 100,
        "width": 40,
        "surfaceType": null,
        "numberStart": "10",
        "numberEnd": "28",
        "latStart": 52.43770292,
        "lonStart": 12.58775512,
        "latEnd": 52.43643628,
        "lonEnd": 12.59832905,
        "length": 0,
        "surfacetype": 3
      }
    ],
    "id": 1006
  },
  {
    "type": 1,
    "icao": "EDBF",
    "lat": 52.79346891,
    "lon": 12.760283855,
    "communications": [
      {
        "type": 54,
        "frequency": 12250,
        "name": "Ruppiner Land Info"
      }
    ],
    "elevation": 138,
    "tower": true,
    "name": "Ruppiner Land",
    "runways": [
      {
        "type": 100,
        "width": 23,
        "surfaceType": null,
        "numberStart": "10",
        "numberEnd": "28",
        "latStart": 52.79447485,
        "lonStart": 12.75375824,
        "latEnd": 52.79246297,
        "lonEnd": 12.76680947,
        "length": 0,
        "surfacetype": 1
      }
    ],
    "id": 1007
  },
  {
    "type": 1,
    "icao": "EDBK",
    "lat": 52.918467535000005,
    "lon": 12.4252066,
    "communications": [
      {
        "type": 54,
        "frequency": 12272,
        "name": "Kyritz Info"
      }
    ],
    "elevation": 128,
    "tower": false,
    "name": "Kyritz",
    "runways": [
      {
        "type": 100,
        "width": 22.86,
        "surfaceType": null,
        "numberStart": "14",
        "numberEnd": "32",
        "latStart": 52.92227899,
        "lonStart": 12.42120118,
        "latEnd": 52.91501364,
        "lonEnd": 12.43000021,
        "length": 0,
        "surfacetype": 1
      },
      {
        "type": 100,
        "width": 29.87,
        "surfaceType": null,
        "numberStart": "14R",
        "numberEnd": "32L",
        "latStart": 52.92190965,
        "lonStart": 12.42042348,
        "latEnd": 52.91466786,
        "lonEnd": 12.42920153,
        "length": 0,
        "surfacetype": 3
      }
    ],
    "id": 1012
  },
  {
    "type": 1,
    "icao": "EDCL",
    "lat": 52.70875188333334,
    "lon": 12.073112426666667,
    "communications": [
      {
        "type": 54,
        "frequency": 12237,
        "name": "Klietz Info"
      }
    ],
    "elevation": 95,
    "tower": true,
    "name": "Klietz/Scharlibbe",
    "runways": [
      {
        "type": 100,
        "width": 25,
        "surfaceType": null,
        "numberStart": "17",
        "numberEnd": "35",
        "latStart": 52.71278117,
        "lonStart": 12.07309763,
        "latEnd": 52.70702337,
        "lonEnd": 12.07333132,
        "length": 0,
        "surfacetype": 3
      },
      {
        "type": 102,
        "width": 9,
        "surfaceType": 1,
        "numberStart": "H1",
        "numberEnd": null,
        "latStart": 52.70645111,
        "lonStart": 12.07290833,
        "latEnd": null,
        "lonEnd": null,
        "length": 9
      }
    ],
    "id": 1038
  },
  {
    "type": 1,
    "icao": "EDOI",
    "lat": 52.66123066,
    "lon": 12.74734104,
    "communications": [
      {
        "type": 54,
        "frequency": 12285,
        "name": "Bienenfarm Info"
      }
    ],
    "elevation": 102,
    "tower": true,
    "name": "Bienenfarm - Nauen",
    "runways": [
      {
        "type": 100,
        "width": 39.93,
        "surfaceType": null,
        "numberStart": "12",
        "numberEnd": "30",
        "latStart": 52.66367727,
        "lonStart": 12.74073798,
        "latEnd": 52.65878405,
        "lonEnd": 12.7539441,
        "length": 0,
        "surfacetype": 3
      }
    ],
    "id": 1243
  },
  {
    "type": 1,
    "icao": "EDOJ",
    "lat": 52.141612335000005,
    "lon": 12.67214824,
    "communications": [
      {
        "type": 54,
        "frequency": 12997,
        "name": "Lüsse Info"
      }
    ],
    "elevation": 214,
    "tower": true,
    "name": "Lüsse",
    "runways": [
      {
        "type": 100,
        "width": 40,
        "surfaceType": null,
        "numberStart": "06",
        "numberEnd": "24",
        "latStart": 52.13973688,
        "lonStart": 12.66532263,
        "latEnd": 52.14348779,
        "lonEnd": 12.67897385,
        "length": 0,
        "surfacetype": 3
      }
    ],
    "id": 1244
  },
  {
    "type": 1,
    "icao": "EDOR",
    "lat": 52.740794460000004,
    "lon": 12.39126351,
    "communications": [
      {
        "type": 54,
        "frequency": 12200,
        "name": "Stölln Info"
      }
    ],
    "elevation": 130,
    "tower": true,
    "name": "Stölln/Rhinow",
    "runways": [
      {
        "type": 100,
        "width": 45,
        "surfaceType": null,
        "numberStart": "08",
        "numberEnd": "26",
        "latStart": 52.7403692,
        "lonStart": 12.38505993,
        "latEnd": 52.74121972,
        "lonEnd": 12.39746709,
        "length": 0,
        "surfacetype": 3
      }
    ],
    "id": 1251
  },
  {
    "type": 1,
    "icao": "EDUA",
    "lat": 52.650840055,
    "lon": 12.487928675,
    "communications": [
      {
        "type": 54,
        "frequency": 12220,
        "name": "Stechow Info"
      }
    ],
    "elevation": 147,
    "tower": true,
    "name": "Stechow-Ferchesar",
    "runways": [
      {
        "type": 100,
        "width": 40,
        "surfaceType": null,
        "numberStart": "04",
        "numberEnd": "22",
        "latStart": 52.64912353,
        "lonStart": 12.48564777,
        "latEnd": 52.65255658,
        "lonEnd": 12.49020958,
        "length": 0,
        "surfacetype": 3
      }
    ],
    "id": 1361
  },
  {
    "type": 1,
    "icao": "EDUZ",
    "lat": 52.000337516,
    "lon": 12.149482072,
    "communications": [
      {
        "type": 54,
        "frequency": 12305,
        "name": "Zerbst Info"
      }
    ],
    "elevation": 266,
    "tower": true,
    "name": "Zerbst",
    "runways": [
      {
        "type": 100,
        "width": 30,
        "surfaceType": null,
        "numberStart": "07R",
        "numberEnd": "25L",
        "latStart": 51.99908617,
        "lonStart": 12.14493297,
        "latEnd": 52.00200231,
        "lonEnd": 12.15482,
        "length": 0,
        "surfacetype": 3
      },
      {
        "type": 100,
        "width": 30,
        "surfaceType": null,
        "numberStart": "07L",
        "numberEnd": "25R",
        "latStart": 51.99956766,
        "lonStart": 12.14453939,
        "latEnd": 52.0024776,
        "lonEnd": 12.15443148,
        "length": 0,
        "surfacetype": 2
      },
      {
        "type": 102,
        "width": 13.5,
        "surfaceType": 2,
        "numberStart": "H1",
        "numberEnd": null,
        "latStart": 51.99855384,
        "lonStart": 12.14868652,
        "latEnd": null,
        "lonEnd": null,
        "length": 14
      }
    ],
    "id": 1368
  }
]