[
  {
    "type": 1,
    "icao": "LB23",
    "lat": 42.1141435,
    "lon": 33.544814,
    "communications": [],
    "elevation": 604,
    "tower": false,
    "name": "CHESHNEGIROVO",
    "runways": [
      {
        "type": 100,
        "width": 51.82,
        "surfaceType": null,
        "numberStart": "10",
        "numberEnd": "28",
        "latStart": 42.116631,
        "lonStart": 24.977972,
        "latEnd": 42.111656,
        "lonEnd": 25.007903,
        "length": 0,
        "surfacetype": 2
      }
    ],
    "id": 3867
  },
  {
    "type": 1,
    "icao": "LB21",
    "lat": 42.2903015,
    "lon": 33.4943205,
    "communications": [],
    "elevation": 190,
    "tower": false,
    "name": "GRAF IGNATIEVO",
    "runways": [
      {
        "type": 100,
        "width": 82.3,
        "surfaceType": null,
        "numberStart": "08",
        "numberEnd": "26",
        "latStart": 42.288056,
        "lonStart": 24.696094,
        "latEnd": 42.292547,
        "lonEnd": 24.731867,
        "length": 0,
        "surfacetype": 1
      }
    ],
    "id": 10093
  },
  {
    "type": 1,
    "icao": "LB39",
    "lat": 42.26319,
    "lon": 33.48999,
    "communications": [],
    "elevation": 623,
    "tower": false,
    "name": "GRAF IGNATIEVO SOUTH",
    "runways": [
      {
        "type": 100,
        "width": 23.47,
        "surfaceType": null,
        "numberStart": "10",
        "numberEnd": "28",
        "latStart": 42.263519,
        "lonStart": 24.717119,
        "latEnd": 42.262861,
        "lonEnd": 24.721511,
        "length": 0,
        "surfacetype": 1
      }
    ],
    "id": 10094
  },
  {
    "type": 1,
    "icao": "LB32",
    "lat": 42.072389,
    "lon": 33.561389,
    "communications": [],
    "elevation": 500,
    "tower": false,
    "name": "KONUSH",
    "runways": [
      {
        "type": 100,
        "width": 22.86,
        "surfaceType": null,
        "numberStart": "10",
        "numberEnd": "28",
        "latStart": 42.072667,
        "lonStart": 25.050667,
        "latEnd": 42.072111,
        "lonEnd": 25.055917,
        "length": 0,
        "surfacetype": 1
      }
    ],
    "id": 13456
  },
  {
    "type": 1,
    "icao": "LB20",
    "lat": 42.8124305,
    "lon": 33.0488985,
    "communications": [],
    "elevation": 1738,
    "tower": false,
    "name": "KUMARITSA",
    "runways": [
      {
        "type": 100,
        "width": 53.34,
        "surfaceType": null,
        "numberStart": "09",
        "numberEnd": "27",
        "latStart": 42.813289,
        "lonStart": 23.286225,
        "latEnd": 42.811572,
        "lonEnd": 23.313042,
        "length": 0,
        "surfacetype": 2
      }
    ],
    "id": 13494
  },
  {
    "type": 1,
    "icao": "LBPD",
    "lat": 42.067856000000006,
    "lon": 33.4499105,
    "communications": [
      {
        "type": 54,
        "frequency": 11960,
        "name": "PLOVDIV TWR"
      }
    ],
    "elevation": 597,
    "tower": true,
    "name": "Plovdiv",
    "runways": [
      {
        "type": 100,
        "width": 49.99,
        "surfaceType": null,
        "numberStart": "12",
        "numberEnd": "30",
        "latStart": 42.074671,
        "lonStart": 24.83878,
        "latEnd": 42.061041,
        "lonEnd": 24.862848,
        "length": 0,
        "surfacetype": 1
      }
    ],
    "id": 20273
  },
  {
    "type": 1,
    "icao": "LBSF",
    "lat": 42.69713,
    "lon": 33.045387,
    "communications": [
      {
        "type": 50,
        "frequency": 12405,
        "name": "LBSF ATIS"
      },
      {
        "type": 54,
        "frequency": 11810,
        "name": "SOFIA TWR"
      },
      {
        "type": 54,
        "frequency": 12190,
        "name": "Sofia_East CNTR"
      },
      {
        "type": 54,
        "frequency": 13110,
        "name": "Sofia_West CNTR"
      },
      {
        "type": 55,
        "frequency": 12370,
        "name": "SOFIA APP"
      }
    ],
    "elevation": 1741,
    "tower": true,
    "name": "Sofia",
    "runways": [
      {
        "type": 100,
        "width": 45.11,
        "surfaceType": null,
        "numberStart": "09",
        "numberEnd": "27",
        "latStart": 42.69826,
        "lonStart": 23.394774,
        "latEnd": 42.696,
        "lonEnd": 23.43867,
        "length": 0,
        "surfacetype": 1
      }
    ],
    "id": 23805
  },
  {
    "type": 1,
    "icao": "LB11",
    "lat": 42.1877,
    "lon": 33.359683000000004,
    "communications": [],
    "elevation": 630,
    "tower": false,
    "name": "TSALAPITA",
    "runways": [
      {
        "type": 100,
        "width": 24.38,
        "surfaceType": null,
        "numberStart": "11",
        "numberEnd": "29",
        "latStart": 42.188531,
        "lonStart": 24.532497,
        "latEnd": 42.186869,
        "lonEnd": 24.537378,
        "length": 0,
        "surfacetype": 2
      }
    ],
    "id": 24882
  }
]