[
  {
    "type": 1,
    "icao": "LTCJ",
    "lat": 37.9289695,
    "lon": 41.1165845,
    "communications": [
      {
        "type": 53,
        "frequency": 12195,
        "name": "GND"
      },
      {
        "type": 54,
        "frequency": 12210,
        "name": "TWR"
      },
      {
        "type": 55,
        "frequency": 12210,
        "name": "DIYARBAKIR APP"
      }
    ],
    "elevation": 1821,
    "tower": true,
    "name": "BATMAN",
    "runways": [
      {
        "type": 100,
        "width": 45.72,
        "surfaceType": null,
        "numberStart": "02",
        "numberEnd": "20",
        "latStart": 37.916586,
        "lonStart": 41.109075,
        "latEnd": 37.941353,
        "lonEnd": 41.124094,
        "length": 0,
        "surfacetype": 1
      }
    ],
    "id": 1565
  },
  {
    "type": 1,
    "icao": "OSKL",
    "lat": 37.0206275,
    "lon": 41.191401,
    "communications": [
      {
        "type": 54,
        "frequency": 11822,
        "name": "TWR"
      }
    ],
    "elevation": 1480,
    "tower": true,
    "name": "KAMISHLY",
    "runways": [
      {
        "type": 100,
        "width": 45.72,
        "surfaceType": null,
        "numberStart": "03",
        "numberEnd": "21",
        "latStart": 37.007947,
        "lonStart": 41.178644,
        "latEnd": 37.033308,
        "lonEnd": 41.204158,
        "length": 0,
        "surfacetype": 1
      }
    ],
    "id": 13213
  },
  {
    "type": 1,
    "icao": "LTCL",
    "lat": 37.978370850000005,
    "lon": 41.838690854999996,
    "communications": [
      {
        "type": 55,
        "frequency": 12015,
        "name": "APP"
      },
      {
        "type": 54,
        "frequency": 13205,
        "name": "TWR"
      },
      {
        "type": 54,
        "frequency": 12190,
        "name": "GND"
      }
    ],
    "elevation": 2001,
    "tower": true,
    "name": "SIIRT",
    "runways": [
      {
        "type": 100,
        "width": 30,
        "surfaceType": null,
        "numberStart": "06",
        "numberEnd": "24",
        "latStart": 37.97495998,
        "lonStart": 41.82815058,
        "latEnd": 37.98178172,
        "lonEnd": 41.84923113,
        "length": 0,
        "surfacetype": 2
      }
    ],
    "id": 22274
  }
]