[
  {
    "type": 1,
    "icao": "NTTB",
    "lat": -16.4437765,
    "lon": -151.75476450000002,
    "communications": [
      {
        "type": 54,
        "frequency": 11890,
        "name": "TWR"
      },
      {
        "type": 55,
        "frequency": 13470,
        "name": "TAHITI CON"
      }
    ],
    "elevation": 9,
    "tower": true,
    "name": "Bora Bora",
    "runways": [
      {
        "type": 100,
        "width": 21.95,
        "surfaceType": null,
        "numberStart": "11",
        "numberEnd": "29",
        "latStart": -16.440525,
        "lonStart": -151.757114,
        "latEnd": -16.448231,
        "lonEnd": -151.745458,
        "length": 0,
        "surfacetype": 1
      },
      {
        "type": 100,
        "width": 42.67,
        "surfaceType": null,
        "numberStart": "17",
        "numberEnd": "35",
        "latStart": -16.439131,
        "lonStart": -151.757369,
        "latEnd": -16.447219,
        "lonEnd": -151.759117,
        "length": 0,
        "surfacetype": 4
      }
    ],
    "id": 22891
  },
  {
    "type": 1,
    "icao": "NTTH",
    "lat": -16.687240000000003,
    "lon": -151.021668,
    "communications": [
      {
        "type": 53,
        "frequency": 11930,
        "name": "GND"
      },
      {
        "type": 54,
        "frequency": 11930,
        "name": "TWR"
      },
      {
        "type": 55,
        "frequency": 13470,
        "name": "TAHITI CON"
      }
    ],
    "elevation": 7,
    "tower": true,
    "name": "Huahine",
    "runways": [
      {
        "type": 100,
        "width": 20.12,
        "surfaceType": null,
        "numberStart": "07",
        "numberEnd": "25",
        "latStart": -16.688486,
        "lonStart": -151.028639,
        "latEnd": -16.685994,
        "lonEnd": -151.014697,
        "length": 0,
        "surfacetype": 1
      }
    ],
    "id": 22894
  },
  {
    "type": 1,
    "icao": "NTTR",
    "lat": -16.722862499999998,
    "lon": -151.4658555,
    "communications": [
      {
        "type": 54,
        "frequency": 11850,
        "name": "TWR"
      },
      {
        "type": 55,
        "frequency": 13470,
        "name": "TAHITI CON"
      }
    ],
    "elevation": 3,
    "tower": true,
    "name": "Raiatea",
    "runways": [
      {
        "type": 100,
        "width": 29.87,
        "surfaceType": null,
        "numberStart": "07",
        "numberEnd": "25",
        "latStart": -16.723539,
        "lonStart": -151.472394,
        "latEnd": -16.722186,
        "lonEnd": -151.459317,
        "length": 0,
        "surfacetype": 1
      }
    ],
    "id": 22897
  }
]