[
  {
    "type": 1,
    "icao": "YLTV",
    "lat": -38.20824215166667,
    "lon": 146.471249295,
    "communications": [
      {
        "type": 51,
        "frequency": 12230,
        "name": "ACTIVATE LIGHTS ONLY MULTICOM"
      },
      {
        "type": 51,
        "frequency": 12600,
        "name": "LATROBE VALLEY CTAF"
      },
      {
        "type": 51,
        "frequency": 12400,
        "name": "MELBOURNE CENTRE MULTICOM"
      }
    ],
    "elevation": 179,
    "tower": true,
    "name": "Latrobe Valley",
    "runways": [
      {
        "type": 100,
        "width": 49.99,
        "surfaceType": null,
        "numberStart": "03L",
        "numberEnd": "21R",
        "latStart": -38.20996045,
        "lonStart": 146.47008299,
        "latEnd": -38.20656252,
        "lonEnd": 146.47442692,
        "length": 0,
        "surfacetype": 3
      },
      {
        "type": 100,
        "width": 22.86,
        "surfaceType": null,
        "numberStart": "09",
        "numberEnd": "27",
        "latStart": -38.20516332,
        "lonStart": 146.46605541,
        "latEnd": -38.20604719,
        "lonEnd": 146.47495917,
        "length": 0,
        "surfacetype": 4
      },
      {
        "type": 100,
        "width": 28.96,
        "surfaceType": null,
        "numberStart": "03",
        "numberEnd": "21",
        "latStart": -38.21552836,
        "lonStart": 146.46504392,
        "latEnd": -38.20619107,
        "lonEnd": 146.47692736,
        "length": 0,
        "surfacetype": 1
      }
    ],
    "id": 15006
  },
  {
    "type": 1,
    "icao": "YWSL",
    "lat": -38.093386991428574,
    "lon": 146.9654646757143,
    "communications": [
      {
        "type": 51,
        "frequency": 11830,
        "name": "CTAF"
      },
      {
        "type": 52,
        "frequency": 13360,
        "name": "SALE CLNC DEL"
      },
      {
        "type": 55,
        "frequency": 12330,
        "name": "SALE APP"
      }
    ],
    "elevation": 89,
    "tower": false,
    "name": "West Sale",
    "runways": [
      {
        "type": 100,
        "width": 30,
        "surfaceType": null,
        "numberStart": "09",
        "numberEnd": "27",
        "latStart": -38.08972649,
        "lonStart": 146.9568105,
        "latEnd": -38.09203635,
        "lonEnd": 146.97405279,
        "length": 0,
        "surfacetype": 1
      },
      {
        "type": 100,
        "width": 100.54,
        "surfaceType": null,
        "numberStart": "05",
        "numberEnd": "23",
        "latStart": -38.09504229,
        "lonStart": 146.96145412,
        "latEnd": -38.09195012,
        "lonEnd": 146.96735102,
        "length": 0,
        "surfacetype": 3
      },
      {
        "type": 100,
        "width": 94.44,
        "surfaceType": null,
        "numberStart": "14",
        "numberEnd": "32",
        "latStart": -38.09132376,
        "lonStart": 146.96381328,
        "latEnd": -38.09738373,
        "lonEnd": 146.96947693,
        "length": 0,
        "surfacetype": 3
      },
      {
        "type": 102,
        "width": 9,
        "surfaceType": 1,
        "numberStart": "H1",
        "numberEnd": null,
        "latStart": -38.0962462,
        "lonStart": 146.96529409,
        "latEnd": null,
        "lonEnd": null,
        "length": 9
      }
    ],
    "id": 27129
  },
  {
    "type": 1,
    "icao": "YYRM",
    "lat": -38.567979495,
    "lon": 146.7534426375,
    "communications": [
      {
        "type": 51,
        "frequency": 12670,
        "name": "CTAF"
      }
    ],
    "elevation": 46,
    "tower": false,
    "name": "Yarram",
    "runways": [
      {
        "type": 100,
        "width": 28.35,
        "surfaceType": null,
        "numberStart": "09",
        "numberEnd": "27",
        "latStart": -38.5661107,
        "lonStart": 146.74850133,
        "latEnd": -38.56729201,
        "lonEnd": 146.75770744,
        "length": 0,
        "surfacetype": 4
      },
      {
        "type": 100,
        "width": 65.75,
        "surfaceType": null,
        "numberStart": "05",
        "numberEnd": "23",
        "latStart": -38.57176664,
        "lonStart": 146.74768984,
        "latEnd": -38.56674863,
        "lonEnd": 146.75987194,
        "length": 0,
        "surfacetype": 3
      }
    ],
    "id": 27753
  },
  {
    "type": 17,
    "icao": "YFTR",
    "lat": -38.6563305,
    "lon": 146.20536976,
    "communications": [],
    "elevation": 107,
    "tower": false,
    "name": "[H] FOSTER",
    "runways": [
      {
        "type": 102,
        "width": 14.9,
        "surfaceType": 3,
        "numberStart": "H74",
        "numberEnd": null,
        "latStart": -38.6563305,
        "lonStart": 146.20536976,
        "latEnd": null,
        "lonEnd": null,
        "length": 14.9
      }
    ],
    "id": 29627
  },
  {
    "type": 17,
    "icao": "YSLI",
    "lat": -38.92660984,
    "lon": 146.66406285,
    "communications": [],
    "elevation": 3,
    "tower": false,
    "name": "[H] SEAL ISLAND",
    "runways": [
      {
        "type": 102,
        "width": 18,
        "surfaceType": 3,
        "numberStart": "H22",
        "numberEnd": null,
        "latStart": -38.92660984,
        "lonStart": 146.66406285,
        "latEnd": null,
        "lonEnd": null,
        "length": 18
      }
    ],
    "id": 32478
  },
  {
    "type": 17,
    "icao": "YSNI",
    "lat": -38.729023,
    "lon": 146.506514,
    "communications": [],
    "elevation": 2,
    "tower": false,
    "name": "[H] SNAKE ISLAND",
    "runways": [
      {
        "type": 102,
        "width": 18,
        "surfaceType": 3,
        "numberStart": "H15",
        "numberEnd": null,
        "latStart": -38.729023,
        "lonStart": 146.506514,
        "latEnd": null,
        "lonEnd": null,
        "length": 18
      }
    ],
    "id": 32488
  },
  {
    "type": 17,
    "icao": "YTPD",
    "lat": -38.286593,
    "lon": 146.175731,
    "communications": [],
    "elevation": 833,
    "tower": false,
    "name": "[H] THORPDALE",
    "runways": [
      {
        "type": 102,
        "width": 18,
        "surfaceType": 3,
        "numberStart": "H4",
        "numberEnd": null,
        "latStart": -38.286593,
        "lonStart": 146.175731,
        "latEnd": null,
        "lonEnd": null,
        "length": 18
      }
    ],
    "id": 33194
  },
  {
    "type": 17,
    "icao": "YRMT",
    "lat": -38.55651192,
    "lon": 146.67231562,
    "communications": [],
    "elevation": 88,
    "tower": false,
    "name": "[H] YARRAM",
    "runways": [
      {
        "type": 102,
        "width": 18,
        "surfaceType": 3,
        "numberStart": "H12",
        "numberEnd": null,
        "latStart": -38.55651192,
        "lonStart": 146.67231562,
        "latEnd": null,
        "lonEnd": null,
        "length": 18
      }
    ],
    "id": 33921
  }
]