[
  {
    "type": 1,
    "icao": "EGHF",
    "lat": 50.81589253666667,
    "lon": -1.2081209166666664,
    "communications": [
      {
        "type": 51,
        "frequency": 11892,
        "name": "Lee Radio"
      }
    ],
    "elevation": 32,
    "tower": false,
    "name": "Lee on Solent",
    "runways": [
      {
        "type": 100,
        "width": 46.02,
        "surfaceType": null,
        "numberStart": "05",
        "numberEnd": "23",
        "latStart": 50.81112277,
        "lonStart": -1.21387125,
        "latEnd": 50.81940628,
        "lonEnd": -1.20070404,
        "length": 0,
        "surfacetype": 1
      },
      {
        "type": 102,
        "width": 18,
        "surfaceType": 1,
        "numberStart": "H1",
        "numberEnd": null,
        "latStart": 50.81714856,
        "lonStart": -1.20978746,
        "latEnd": null,
        "lonEnd": null,
        "length": 18
      }
    ],
    "id": 1544
  },
  {
    "type": 1,
    "icao": "EGHH",
    "lat": 50.780068705,
    "lon": -1.8425058399999998,
    "communications": [
      {
        "type": 55,
        "frequency": 11947,
        "name": "Bournemouth Approach"
      },
      {
        "type": 50,
        "frequency": 13372,
        "name": "Bournemouth Information"
      },
      {
        "type": 53,
        "frequency": 12170,
        "name": "Bournemouth Ground"
      },
      {
        "type": 54,
        "frequency": 11947,
        "name": "Bournemouth Radar"
      },
      {
        "type": 54,
        "frequency": 12560,
        "name": "Bournemouth Tower"
      }
    ],
    "elevation": 38,
    "tower": true,
    "name": "Bournemouth",
    "runways": [
      {
        "type": 100,
        "width": 46.02,
        "surfaceType": null,
        "numberStart": "08",
        "numberEnd": "26",
        "latStart": 50.77747922,
        "lonStart": -1.85809344,
        "latEnd": 50.78265819,
        "lonEnd": -1.82691824,
        "length": 0,
        "surfacetype": 1
      }
    ],
    "id": 1546
  },
  {
    "type": 1,
    "icao": "EGHI",
    "lat": 50.9502555,
    "lon": -1.3568055,
    "communications": [
      {
        "type": 54,
        "frequency": 11820,
        "name": "Southampton Tower"
      }
    ],
    "elevation": 42,
    "tower": true,
    "name": "Southampton",
    "runways": [
      {
        "type": 100,
        "width": 36.88,
        "surfaceType": null,
        "numberStart": "02",
        "numberEnd": "20",
        "latStart": 50.94295,
        "lonStart": -1.360875,
        "latEnd": 50.957561,
        "lonEnd": -1.352736,
        "length": 0,
        "surfacetype": 1
      }
    ],
    "id": 1547
  },
  {
    "type": 1,
    "icao": "EGHJ",
    "lat": 50.6791865825,
    "lon": -1.1096586225,
    "communications": [
      {
        "type": 54,
        "frequency": 12325,
        "name": "Bembridge Radio"
      }
    ],
    "elevation": 55,
    "tower": true,
    "name": "Bembridge",
    "runways": [
      {
        "type": 100,
        "width": 20.93,
        "surfaceType": null,
        "numberStart": "05",
        "numberEnd": "23",
        "latStart": 50.6790664,
        "lonStart": -1.11169498,
        "latEnd": 50.68159014,
        "lonEnd": -1.10776829,
        "length": 0,
        "surfacetype": 3
      },
      {
        "type": 100,
        "width": 22.86,
        "surfaceType": null,
        "numberStart": "12",
        "numberEnd": "30",
        "latStart": 50.67980749,
        "lonStart": -1.11479203,
        "latEnd": 50.6762823,
        "lonEnd": -1.10437919,
        "length": 0,
        "surfacetype": 2
      }
    ],
    "id": 1548
  },
  {
    "type": 1,
    "icao": "EGHN",
    "lat": 50.65300036,
    "lon": -1.182151065,
    "communications": [
      {
        "type": 54,
        "frequency": 11927,
        "name": "Sandown Radio"
      }
    ],
    "elevation": 60,
    "tower": true,
    "name": "Sandown",
    "runways": [
      {
        "type": 100,
        "width": 42.06,
        "surfaceType": null,
        "numberStart": "05",
        "numberEnd": "23",
        "latStart": 50.65019137,
        "lonStart": -1.18658404,
        "latEnd": 50.65580935,
        "lonEnd": -1.17771809,
        "length": 0,
        "surfacetype": 3
      }
    ],
    "id": 1549
  },
  {
    "type": 17,
    "icao": "EGLH",
    "lat": 50.66167476,
    "lon": -1.59030635,
    "communications": [],
    "elevation": 36,
    "tower": false,
    "name": "[H] Needles Lighthouse",
    "runways": [
      {
        "type": 102,
        "width": 4.6,
        "surfaceType": 1,
        "numberStart": "H1",
        "numberEnd": null,
        "latStart": 50.66167476,
        "lonStart": -1.59030635,
        "latEnd": null,
        "lonEnd": null,
        "length": 4.6
      }
    ],
    "id": 16339
  }
]