[
  {
    "type": 1,
    "icao": "WX85",
    "lat": -0.8109120000000001,
    "lon": 65.80948012500001,
    "communications": [],
    "elevation": 1415,
    "tower": false,
    "name": "Fef (MAF)",
    "runways": [
      {
        "type": 100,
        "width": 17.98,
        "surfaceType": null,
        "numberStart": "13",
        "numberEnd": "31",
        "latStart": -0.80929764,
        "lonStart": 132.43148661,
        "latEnd": -0.81252636,
        "lonEnd": 132.43485139,
        "length": 0,
        "surfacetype": 3
      }
    ],
    "id": 9220
  },
  {
    "type": 1,
    "icao": "WT87",
    "lat": -0.3716315,
    "lon": 65.91174649999999,
    "communications": [],
    "elevation": 35,
    "tower": false,
    "name": "Klengso",
    "runways": [
      {
        "type": 100,
        "width": 21.03,
        "surfaceType": null,
        "numberStart": "18",
        "numberEnd": "36",
        "latStart": -0.370201,
        "lonStart": 132.196555,
        "latEnd": -0.373062,
        "lonEnd": 132.196384,
        "length": 0,
        "surfacetype": 4
      }
    ],
    "id": 13980
  },
  {
    "type": 1,
    "icao": "WASS",
    "lat": -0.926358,
    "lon": 65.0979,
    "communications": [
      {
        "type": 54,
        "frequency": 12240,
        "name": "TWR"
      }
    ],
    "elevation": 10,
    "tower": true,
    "name": "Sorong Jefman",
    "runways": [
      {
        "type": 100,
        "width": 29.87,
        "surfaceType": null,
        "numberStart": "04",
        "numberEnd": "22",
        "latStart": -0.932094,
        "lonStart": 131.116422,
        "latEnd": -0.920622,
        "lonEnd": 131.125969,
        "length": 0,
        "surfacetype": 2
      }
    ],
    "id": 23862
  },
  {
    "type": 1,
    "icao": "WA1A",
    "lat": -0.894002565,
    "lon": 65.19160223,
    "communications": [
      {
        "type": 54,
        "frequency": 12240,
        "name": "EDWARD TWR"
      },
      {
        "type": 54,
        "frequency": 12230,
        "name": "INFO"
      }
    ],
    "elevation": 10,
    "tower": true,
    "name": "Sorong Mainland",
    "runways": [
      {
        "type": 100,
        "width": 29.87,
        "surfaceType": null,
        "numberStart": "09",
        "numberEnd": "27",
        "latStart": -0.89346492,
        "lonStart": 131.27774467,
        "latEnd": -0.89454021,
        "lonEnd": 131.29438106,
        "length": 0,
        "surfacetype": 1
      }
    ],
    "id": 23863
  },
  {
    "type": 1,
    "icao": "WT28",
    "lat": -0.941944,
    "lon": 65.67662371,
    "communications": [],
    "elevation": 577,
    "tower": false,
    "name": "Suswa (MAF)",
    "runways": [
      {
        "type": 100,
        "width": 20.12,
        "surfaceType": null,
        "numberStart": "11",
        "numberEnd": "29",
        "latStart": -0.9410936,
        "lonStart": 132.29604182,
        "latEnd": -0.9427944,
        "lonEnd": 132.30008818,
        "length": 0,
        "surfacetype": 3
      }
    ],
    "id": 24426
  },
  {
    "type": 1,
    "icao": "WAJY",
    "lat": -0.42039099999999996,
    "lon": 65.883095335,
    "communications": [],
    "elevation": 35,
    "tower": false,
    "name": "Werur/Mar (SIL)",
    "runways": [
      {
        "type": 100,
        "width": 24.99,
        "surfaceType": null,
        "numberStart": "06",
        "numberEnd": "24",
        "latStart": -0.42151562,
        "lonStart": 132.18545705,
        "latEnd": -0.41926638,
        "lonEnd": 132.18935295,
        "length": 0,
        "surfacetype": 3
      }
    ],
    "id": 27101
  }
]