[
  {
    "type": 1,
    "icao": "BIRK",
    "lat": 64.12964356333333,
    "lon": -21.940608870000002,
    "communications": [
      {
        "type": 50,
        "frequency": 12810,
        "name": "ATIS"
      },
      {
        "type": 53,
        "frequency": 12170,
        "name": "GND"
      },
      {
        "type": 54,
        "frequency": 11800,
        "name": "TWR"
      },
      {
        "type": 50,
        "frequency": 11900,
        "name": "APP"
      },
      {
        "type": 56,
        "frequency": 11900,
        "name": "DEP"
      }
    ],
    "elevation": 46,
    "tower": true,
    "name": "Reykjavik",
    "runways": [
      {
        "type": 100,
        "width": 45.11,
        "surfaceType": null,
        "numberStart": "01",
        "numberEnd": "19",
        "latStart": 64.1219585,
        "lonStart": -21.936197,
        "latEnd": 64.1359675,
        "lonEnd": -21.93885367,
        "length": 0,
        "surfacetype": 1
      },
      {
        "type": 100,
        "width": 29.87,
        "surfaceType": null,
        "numberStart": "06",
        "numberEnd": "24",
        "latStart": 64.1272405,
        "lonStart": -21.94663,
        "latEnd": 64.1325355,
        "lonEnd": -21.93390479,
        "length": 0,
        "surfacetype": 1
      },
      {
        "type": 100,
        "width": 45.11,
        "surfaceType": null,
        "numberStart": "13",
        "numberEnd": "31",
        "latStart": 64.13252141,
        "lonStart": -21.95536147,
        "latEnd": 64.12763797,
        "lonEnd": -21.93270629,
        "length": 0,
        "surfacetype": 1
      }
    ],
    "id": 21398
  },
  {
    "type": 1,
    "icao": "BISS",
    "lat": 64.05963919166668,
    "lon": -21.57130800666667,
    "communications": [
      {
        "type": 54,
        "frequency": 11990,
        "name": "COM"
      }
    ],
    "elevation": 600,
    "tower": false,
    "name": "Sandskeid",
    "runways": [
      {
        "type": 100,
        "width": 45.72,
        "surfaceType": null,
        "numberStart": "01",
        "numberEnd": "19",
        "latStart": 64.06365968,
        "lonStart": -21.57561444,
        "latEnd": 64.056026,
        "lonEnd": -21.574804,
        "length": 0,
        "surfacetype": 3
      },
      {
        "type": 100,
        "width": 18,
        "surfaceType": null,
        "numberStart": "15",
        "numberEnd": "33",
        "latStart": 64.06179304,
        "lonStart": -21.57464545,
        "latEnd": 64.058211,
        "lonEnd": -21.560395,
        "length": 0,
        "surfacetype": 1
      },
      {
        "type": 100,
        "width": 49.99,
        "surfaceType": null,
        "numberStart": "15R",
        "numberEnd": "33L",
        "latStart": 64.06136849,
        "lonStart": -21.58032876,
        "latEnd": 64.05677694,
        "lonEnd": -21.56206039,
        "length": 0,
        "surfacetype": 3
      }
    ],
    "id": 22852
  },
  {
    "type": 1,
    "icao": "BISR",
    "lat": 64.63233894999999,
    "lon": -21.49138151,
    "communications": [
      {
        "type": 50,
        "frequency": 11810,
        "name": "AFIS"
      }
    ],
    "elevation": 164,
    "tower": false,
    "name": "Storikroppur",
    "runways": [
      {
        "type": 100,
        "width": 18,
        "surfaceType": null,
        "numberStart": "06",
        "numberEnd": "24",
        "latStart": 64.6298719,
        "lonStart": -21.49596302,
        "latEnd": 64.634806,
        "lonEnd": -21.4868,
        "length": 0,
        "surfacetype": 1
      }
    ],
    "id": 24241
  },
  {
    "type": 1,
    "icao": "BIMS",
    "lat": 64.18163,
    "lon": -21.706557,
    "communications": [
      {
        "type": 54,
        "frequency": 11820,
        "name": "COM"
      }
    ],
    "elevation": 18,
    "tower": true,
    "name": "Tungubakkar",
    "runways": [
      {
        "type": 100,
        "width": 45,
        "surfaceType": null,
        "numberStart": "07",
        "numberEnd": "25",
        "latStart": 64.180168,
        "lonStart": -21.711014,
        "latEnd": 64.183092,
        "lonEnd": -21.7021,
        "length": 0,
        "surfacetype": 3
      }
    ],
    "id": 25695
  }
]