[
  {
    "type": 1,
    "icao": "LTBY",
    "lat": 39.809822,
    "lon": 30.51843,
    "communications": [
      {
        "type": 52,
        "frequency": 12190,
        "name": "CLNC DEL"
      },
      {
        "type": 54,
        "frequency": 11810,
        "name": "TWR"
      },
      {
        "type": 54,
        "frequency": 12930,
        "name": "TWR"
      },
      {
        "type": 56,
        "frequency": 11950,
        "name": "DEP"
      }
    ],
    "elevation": 2599,
    "tower": true,
    "name": "Eskisehir Hasan Polatkan Airport",
    "runways": [
      {
        "type": 100,
        "width": 39.9,
        "surfaceType": null,
        "numberStart": "09",
        "numberEnd": "27",
        "latStart": 39.81048597,
        "lonStart": 30.50078704,
        "latEnd": 39.80915803,
        "lonEnd": 30.53607296,
        "length": 0,
        "surfacetype": 2
      }
    ],
    "id": 4012
  },
  {
    "type": 1,
    "icao": "LTBZ",
    "lat": 39.111463,
    "lon": 30.130236,
    "communications": [
      {
        "type": 53,
        "frequency": 12190,
        "name": "GND"
      },
      {
        "type": 54,
        "frequency": 11940,
        "name": "TWR"
      },
      {
        "type": 55,
        "frequency": 12090,
        "name": "APP"
      }
    ],
    "elevation": 3327,
    "tower": true,
    "name": "Zafer",
    "runways": [
      {
        "type": 100,
        "width": 45,
        "surfaceType": null,
        "numberStart": "13",
        "numberEnd": "31",
        "latStart": 39.12035,
        "lonStart": 30.117166,
        "latEnd": 39.102576,
        "lonEnd": 30.143306,
        "length": 0,
        "surfacetype": 1
      }
    ],
    "id": 4013
  },
  {
    "type": 1,
    "icao": "LTBI",
    "lat": 39.784206,
    "lon": 30.581934500000003,
    "communications": [
      {
        "type": 50,
        "frequency": 12242,
        "name": "ATIS"
      },
      {
        "type": 53,
        "frequency": 12195,
        "name": "GND"
      },
      {
        "type": 54,
        "frequency": 12210,
        "name": "TWR"
      },
      {
        "type": 55,
        "frequency": 12210,
        "name": "APP"
      }
    ],
    "elevation": 2581,
    "tower": true,
    "name": "ESKISEHIR",
    "runways": [
      {
        "type": 100,
        "width": 45.72,
        "surfaceType": null,
        "numberStart": "09",
        "numberEnd": "27",
        "latStart": 39.784106,
        "lonStart": 30.564133,
        "latEnd": 39.784306,
        "lonEnd": 30.599736,
        "length": 0,
        "surfacetype": 1
      }
    ],
    "id": 20914
  },
  {
    "type": 1,
    "icao": "LTBN",
    "lat": 39.426708500000004,
    "lon": 30.016873500000003,
    "communications": [
      {
        "type": 54,
        "frequency": 12210,
        "name": "TWR"
      }
    ],
    "elevation": 3026,
    "tower": true,
    "name": "KUTAHYA",
    "runways": [
      {
        "type": 100,
        "width": 40.23,
        "surfaceType": null,
        "numberStart": "16",
        "numberEnd": "34",
        "latStart": 39.432978,
        "lonStart": 30.013694,
        "latEnd": 39.420439,
        "lonEnd": 30.020053,
        "length": 0,
        "surfacetype": 1
      }
    ],
    "id": 20918
  }
]