[
  {
    "type": 1,
    "icao": "LTBY",
    "lat": 39.809907,
    "lon": 30.519393,
    "communications": [
      {
        "type": 54,
        "frequency": 12190,
        "name": "TWR"
      },
      {
        "type": 54,
        "frequency": 12375,
        "name": "TWR"
      }
    ],
    "elevation": 2587,
    "tower": true,
    "name": "ANADOLU",
    "runways": [
      {
        "type": 100,
        "width": 29.87,
        "surfaceType": null,
        "numberStart": "09",
        "numberEnd": "27",
        "latStart": 39.810453,
        "lonStart": 30.504694,
        "latEnd": 39.809361,
        "lonEnd": 30.534092,
        "length": 0,
        "surfacetype": 1
      }
    ],
    "id": 291
  },
  {
    "type": 1,
    "icao": "LTBI",
    "lat": 39.784206,
    "lon": 30.581934500000003,
    "communications": [
      {
        "type": 50,
        "frequency": 12242,
        "name": "ATIS"
      },
      {
        "type": 53,
        "frequency": 12195,
        "name": "GND"
      },
      {
        "type": 54,
        "frequency": 12210,
        "name": "TWR"
      },
      {
        "type": 55,
        "frequency": 12210,
        "name": "APP"
      }
    ],
    "elevation": 2581,
    "tower": true,
    "name": "ESKISEHIR",
    "runways": [
      {
        "type": 100,
        "width": 45.72,
        "surfaceType": null,
        "numberStart": "09",
        "numberEnd": "27",
        "latStart": 39.784106,
        "lonStart": 30.564133,
        "latEnd": 39.784306,
        "lonEnd": 30.599736,
        "length": 0,
        "surfacetype": 1
      }
    ],
    "id": 6812
  },
  {
    "type": 1,
    "icao": "LTBN",
    "lat": 39.426708500000004,
    "lon": 30.016873500000003,
    "communications": [
      {
        "type": 54,
        "frequency": 12210,
        "name": "TWR"
      }
    ],
    "elevation": 3026,
    "tower": true,
    "name": "KUTAHYA",
    "runways": [
      {
        "type": 100,
        "width": 40.23,
        "surfaceType": null,
        "numberStart": "16",
        "numberEnd": "34",
        "latStart": 39.432978,
        "lonStart": 30.013694,
        "latEnd": 39.420439,
        "lonEnd": 30.020053,
        "length": 0,
        "surfacetype": 1
      }
    ],
    "id": 13506
  }
]