[
  {
    "type": 1,
    "icao": "CYZE",
    "lat": 45.8852775,
    "lon": -18.3463905,
    "communications": [
      {
        "type": 50,
        "frequency": 12872,
        "name": "AWOS"
      },
      {
        "type": 51,
        "frequency": 12280,
        "name": "CTAF/UNICOM"
      }
    ],
    "elevation": 635,
    "tower": false,
    "name": "GORE BAY MANITOULIN",
    "runways": [
      {
        "type": 100,
        "width": 30.48,
        "surfaceType": null,
        "numberStart": "11",
        "numberEnd": "29",
        "latStart": 45.886111,
        "lonStart": -82.577225,
        "latEnd": 45.884444,
        "lonEnd": -82.558333,
        "length": 0,
        "surfacetype": 1
      }
    ],
    "id": 10079
  },
  {
    "type": 1,
    "icao": "CYEM",
    "lat": 45.842777999999996,
    "lon": -18.005972,
    "communications": [
      {
        "type": 51,
        "frequency": 12280,
        "name": "CTAF/UNICOM"
      }
    ],
    "elevation": 869,
    "tower": false,
    "name": "MANITOULIN EAST MUNI",
    "runways": [
      {
        "type": 100,
        "width": 30.48,
        "surfaceType": null,
        "numberStart": "02",
        "numberEnd": "20",
        "latStart": 45.838056,
        "lonStart": -81.859444,
        "latEnd": 45.8475,
        "lonEnd": -81.856667,
        "length": 0,
        "surfacetype": 1
      }
    ],
    "id": 15778
  },
  {
    "type": 1,
    "icao": "CNR4",
    "lat": 45.2334735,
    "lon": -18.203471,
    "communications": [
      {
        "type": 51,
        "frequency": 12280,
        "name": "CTAF/UNICOM"
      }
    ],
    "elevation": 700,
    "tower": false,
    "name": "TOBERMORY",
    "runways": [
      {
        "type": 100,
        "width": 18.29,
        "surfaceType": null,
        "numberStart": "12",
        "numberEnd": "30",
        "latStart": 45.234722,
        "lonStart": -81.639167,
        "latEnd": 45.232225,
        "lonEnd": -81.6275,
        "length": 0,
        "surfacetype": 1
      }
    ],
    "id": 24761
  }
]