[
  {
    "type": 1,
    "icao": "SNEM",
    "lat": -8.09583333,
    "lon": -21.49583005,
    "communications": [],
    "elevation": 10,
    "tower": false,
    "name": "Encanta Moca",
    "runways": [
      {
        "type": 100,
        "width": 22.86,
        "surfaceType": null,
        "numberStart": "16",
        "numberEnd": "34",
        "latStart": -8.09365628,
        "lonStart": -34.89364972,
        "latEnd": -8.09801038,
        "lonEnd": -34.88968362,
        "length": 0,
        "surfacetype": 1
      }
    ],
    "id": 7180
  },
  {
    "type": 1,
    "icao": "SDWI",
    "lat": -8.171666665,
    "lon": -21.905395155,
    "communications": [],
    "elevation": 1709,
    "tower": false,
    "name": "Fazenda Lagoa do Cavalo",
    "runways": [
      {
        "type": 100,
        "width": 17.98,
        "surfaceType": null,
        "numberStart": "14",
        "numberEnd": "32",
        "latStart": -8.16996584,
        "lonStart": -35.63742282,
        "latEnd": -8.17336749,
        "lonEnd": -35.63091052,
        "length": 0,
        "surfacetype": 1
      }
    ],
    "id": 8444
  },
  {
    "type": 1,
    "icao": "SIRF",
    "lat": -8.631111109999999,
    "lon": -21.95367152,
    "communications": [],
    "elevation": 479,
    "tower": false,
    "name": "Jose Mucio Monteiro",
    "runways": [
      {
        "type": 100,
        "width": 17.98,
        "surfaceType": null,
        "numberStart": "13",
        "numberEnd": "31",
        "latStart": -8.63001674,
        "lonStart": -35.27513756,
        "latEnd": -8.63220548,
        "lonEnd": -35.26819578,
        "length": 0,
        "surfacetype": 5
      }
    ],
    "id": 13111
  },
  {
    "type": 1,
    "icao": "SBRF",
    "lat": -8.12595347,
    "lon": -21.534359605,
    "communications": [
      {
        "type": 53,
        "frequency": 12185,
        "name": "RECIFE GND"
      },
      {
        "type": 54,
        "frequency": 11835,
        "name": "RECIFE TWR"
      },
      {
        "type": 54,
        "frequency": 12535,
        "name": "RECIFE CTR"
      },
      {
        "type": 55,
        "frequency": 11950,
        "name": "RECIFE APP"
      },
      {
        "type": 56,
        "frequency": 11950,
        "name": "RECIFE DEP"
      }
    ],
    "elevation": 33,
    "tower": true,
    "name": "Recife Intl Airport",
    "runways": [
      {
        "type": 100,
        "width": 45,
        "surfaceType": null,
        "numberStart": "18",
        "numberEnd": "36",
        "latStart": -8.11133245,
        "lonStart": -34.92814472,
        "latEnd": -8.14057449,
        "lonEnd": -34.91849201,
        "length": 0,
        "surfacetype": 1
      }
    ],
    "id": 21262
  }
]