[
  {
    "type": 1,
    "icao": "KEK",
    "lat": 59.353994439999994,
    "lon": -157.47440917,
    "communications": [],
    "elevation": 130,
    "tower": false,
    "name": "Ekwok",
    "runways": [
      {
        "type": 100,
        "width": 22.86,
        "surfaceType": null,
        "numberStart": "02",
        "numberEnd": "20",
        "latStart": 59.35117903,
        "lonStart": -157.47921051,
        "latEnd": 59.35680985,
        "lonEnd": -157.46960783,
        "length": 0,
        "surfacetype": 5
      }
    ],
    "id": 7025
  },
  {
    "type": 1,
    "icao": "PAJZ",
    "lat": 59.7266415,
    "lon": -157.25947250000002,
    "communications": [
      {
        "type": 50,
        "frequency": 11852,
        "name": "AWOS 3"
      },
      {
        "type": 51,
        "frequency": 12290,
        "name": "CTAF"
      },
      {
        "type": 55,
        "frequency": 13275,
        "name": "ANCHORAGE CNTR"
      }
    ],
    "elevation": 269,
    "tower": false,
    "name": "Koliganek",
    "runways": [
      {
        "type": 100,
        "width": 22.86,
        "surfaceType": null,
        "numberStart": "09",
        "numberEnd": "27",
        "latStart": 59.727764,
        "lonStart": -157.267289,
        "latEnd": 59.725519,
        "lonEnd": -157.251656,
        "length": 0,
        "surfacetype": 5
      }
    ],
    "id": 14054
  },
  {
    "type": 1,
    "icao": "PANW",
    "lat": 59.449875000000006,
    "lon": -157.328317,
    "communications": [
      {
        "type": 51,
        "frequency": 12290,
        "name": "CTAF"
      },
      {
        "type": 55,
        "frequency": 13275,
        "name": "ANCHORAGE CNTR"
      }
    ],
    "elevation": 302,
    "tower": false,
    "name": "NEW STUYAHOK",
    "runways": [
      {
        "type": 100,
        "width": 15.24,
        "surfaceType": null,
        "numberStart": "15",
        "numberEnd": "33",
        "latStart": 59.452319,
        "lonStart": -157.328928,
        "latEnd": 59.447431,
        "lonEnd": -157.327706,
        "length": 0,
        "surfacetype": 5
      }
    ],
    "id": 17927
  }
]