[
  {
    "type": 1,
    "icao": "VEBD",
    "lat": 26.681207,
    "lon": 88.3285665,
    "communications": [
      {
        "type": 54,
        "frequency": 12350,
        "name": "TWR"
      },
      {
        "type": 55,
        "frequency": 11970,
        "name": "APP"
      },
      {
        "type": 55,
        "frequency": 12270,
        "name": "APP"
      }
    ],
    "elevation": 412,
    "tower": true,
    "name": "BAGDOGRA",
    "runways": [
      {
        "type": 100,
        "width": 45.72,
        "surfaceType": null,
        "numberStart": "18",
        "numberEnd": "36",
        "latStart": 26.693561,
        "lonStart": 88.328919,
        "latEnd": 26.668853,
        "lonEnd": 88.328214,
        "length": 0,
        "surfacetype": 1
      }
    ],
    "id": 30812
  },
  {
    "type": 1,
    "icao": "VNCG",
    "lat": 26.570793000000002,
    "lon": 88.07900068500001,
    "communications": [
      {
        "type": 54,
        "frequency": 12230,
        "name": "AFIS"
      },
      {
        "type": 54,
        "frequency": 12250,
        "name": "AFIS"
      }
    ],
    "elevation": 314,
    "tower": true,
    "name": "BHADRAPUR / CHANDRAGADHI",
    "runways": [
      {
        "type": 100,
        "width": 28.96,
        "surfaceType": null,
        "numberStart": "10",
        "numberEnd": "28",
        "latStart": 26.57198816,
        "lonStart": 88.07157383,
        "latEnd": 26.56959784,
        "lonEnd": 88.08642754,
        "length": 0,
        "surfacetype": 1
      }
    ],
    "id": 30929
  }
]