[
  {
    "type": 1,
    "icao": "CZBB",
    "lat": 49.076063500000004,
    "lon": -123.01356025,
    "communications": [
      {
        "type": 50,
        "frequency": 12550,
        "name": "ATIS"
      },
      {
        "type": 53,
        "frequency": 12430,
        "name": "GND"
      },
      {
        "type": 54,
        "frequency": 11810,
        "name": "TWR"
      },
      {
        "type": 54,
        "frequency": 12760,
        "name": "TWR"
      },
      {
        "type": 55,
        "frequency": 13230,
        "name": "VANCOUVER ARR/DEP"
      }
    ],
    "elevation": 4,
    "tower": true,
    "name": "BOUNDARY BAY",
    "runways": [
      {
        "type": 100,
        "width": 30.48,
        "surfaceType": null,
        "numberStart": "12",
        "numberEnd": "30",
        "latStart": 49.0782,
        "lonStart": -123.019297,
        "latEnd": 49.069942,
        "lonEnd": -123.009944,
        "length": 0,
        "surfacetype": 1
      },
      {
        "type": 100,
        "width": 30.48,
        "surfaceType": null,
        "numberStart": "07",
        "numberEnd": "25",
        "latStart": 49.078056,
        "lonStart": -123.02,
        "latEnd": 49.078056,
        "lonEnd": -123.005,
        "length": 0,
        "surfacetype": 1
      }
    ],
    "id": 1857
  },
  {
    "type": 1,
    "icao": "CYCD",
    "lat": 49.05457006,
    "lon": -123.870095085,
    "communications": [
      {
        "type": 51,
        "frequency": 12210,
        "name": "NANAIMO RADIO"
      },
      {
        "type": 50,
        "frequency": 12842,
        "name": "ATIS"
      },
      {
        "type": 55,
        "frequency": 13395,
        "name": "VICTORIA TRML"
      }
    ],
    "elevation": 91,
    "tower": true,
    "name": "Nanaimo",
    "runways": [
      {
        "type": 100,
        "width": 45.72,
        "surfaceType": null,
        "numberStart": "16",
        "numberEnd": "34",
        "latStart": 49.06361689,
        "lonStart": -123.86988967,
        "latEnd": 49.04552323,
        "lonEnd": -123.8703005,
        "length": 0,
        "surfacetype": 1
      }
    ],
    "id": 18091
  },
  {
    "type": 1,
    "icao": "AP3",
    "lat": 49.456299,
    "lon": -123.71779599999999,
    "communications": [],
    "elevation": 250,
    "tower": false,
    "name": "Sechelt Gibsons",
    "runways": [
      {
        "type": 100,
        "width": 22.86,
        "surfaceType": null,
        "numberStart": "11",
        "numberEnd": "29",
        "latStart": 49.45845847,
        "lonStart": -123.72161766,
        "latEnd": 49.45413953,
        "lonEnd": -123.71397434,
        "length": 0,
        "surfacetype": 1
      }
    ],
    "id": 23200
  },
  {
    "type": 1,
    "icao": "CYSE",
    "lat": 49.7757,
    "lon": -123.15720400000001,
    "communications": [],
    "elevation": 171,
    "tower": false,
    "name": "Squamish",
    "runways": [
      {
        "type": 100,
        "width": 22.86,
        "surfaceType": null,
        "numberStart": "14",
        "numberEnd": "32",
        "latStart": 49.77881225,
        "lonStart": -123.15886344,
        "latEnd": 49.77258775,
        "lonEnd": -123.15554456,
        "length": 0,
        "surfacetype": 1
      }
    ],
    "id": 24011
  },
  {
    "type": 1,
    "icao": "CYVR",
    "lat": 49.188002583333336,
    "lon": -123.18086424833332,
    "communications": [
      {
        "type": 50,
        "frequency": 12315,
        "name": "VANCOUVER FSS"
      },
      {
        "type": 50,
        "frequency": 12670,
        "name": "VANCOUVER FSS"
      },
      {
        "type": 50,
        "frequency": 12460,
        "name": "CYVR ATIS"
      },
      {
        "type": 50,
        "frequency": 12475,
        "name": "CYVR ATIS"
      },
      {
        "type": 52,
        "frequency": 12140,
        "name": "VANCOUVER CLD"
      },
      {
        "type": 53,
        "frequency": 12170,
        "name": "VANCOUVER GND"
      },
      {
        "type": 53,
        "frequency": 12715,
        "name": "VANCOUVER GND"
      },
      {
        "type": 54,
        "frequency": 11870,
        "name": "VANCOUVER TWR"
      },
      {
        "type": 54,
        "frequency": 11955,
        "name": "VANCOUVER TWR"
      },
      {
        "type": 54,
        "frequency": 12400,
        "name": "VANCOUVER TWR"
      },
      {
        "type": 54,
        "frequency": 12565,
        "name": "VANCOUVER TWR"
      },
      {
        "type": 55,
        "frequency": 12520,
        "name": "VANCOUVER APP"
      },
      {
        "type": 55,
        "frequency": 12860,
        "name": "VANCOUVER APP"
      },
      {
        "type": 55,
        "frequency": 13310,
        "name": "VANCOUVER APP"
      },
      {
        "type": 56,
        "frequency": 12612,
        "name": "VANCOUVER DEP"
      },
      {
        "type": 56,
        "frequency": 13230,
        "name": "VANCOUVER DEP"
      }
    ],
    "elevation": 14,
    "tower": true,
    "name": "Vancouver Intl",
    "runways": [
      {
        "type": 100,
        "width": 60.96,
        "surfaceType": null,
        "numberStart": "08R",
        "numberEnd": "26L",
        "latStart": 49.190112,
        "lonStart": -123.207946,
        "latEnd": 49.184668,
        "lonEnd": -123.160492,
        "length": 0,
        "surfacetype": 1
      },
      {
        "type": 100,
        "width": 60.96,
        "surfaceType": null,
        "numberStart": "12",
        "numberEnd": "30",
        "latStart": 49.200326,
        "lonStart": -123.20138399,
        "latEnd": 49.1846,
        "lonEnd": -123.18252799,
        "length": 0,
        "surfacetype": 1
      },
      {
        "type": 100,
        "width": 22.86,
        "surfaceType": null,
        "numberStart": "08",
        "numberEnd": "26",
        "latStart": 49.187527,
        "lonStart": -123.202182,
        "latEnd": 49.185861,
        "lonEnd": -123.187742,
        "length": 0,
        "surfacetype": 2
      },
      {
        "type": 100,
        "width": 60.96,
        "surfaceType": null,
        "numberStart": "08L",
        "numberEnd": "26R",
        "latStart": 49.205093,
        "lonStart": -123.201313,
        "latEnd": 49.200463,
        "lonEnd": -123.160357,
        "length": 0,
        "surfacetype": 2
      },
      {
        "type": 101,
        "width": 46.02,
        "surfaceType": null,
        "numberStart": "07",
        "numberEnd": "25",
        "latStart": 49.178282,
        "lonStart": -123.182418,
        "latEnd": 49.175914,
        "lonEnd": -123.16179,
        "length": 0
      },
      {
        "type": 102,
        "width": 14.9,
        "surfaceType": 2,
        "numberStart": "H1",
        "numberEnd": null,
        "latStart": 49.180315,
        "lonStart": -123.155308,
        "latEnd": null,
        "lonEnd": null,
        "length": 14.9
      },
      {
        "type": 102,
        "width": 22.9,
        "surfaceType": 1,
        "numberStart": "H2",
        "numberEnd": null,
        "latStart": 49.18287,
        "lonStart": -123.166911,
        "latEnd": null,
        "lonEnd": null,
        "length": 22.9
      }
    ],
    "id": 26209
  },
  {
    "type": 16,
    "icao": "CYHC",
    "lat": 49.294946,
    "lon": -123.112493,
    "communications": [
      {
        "type": 50,
        "frequency": 12680,
        "name": "ATIS"
      },
      {
        "type": 51,
        "frequency": 12315,
        "name": "RDO"
      },
      {
        "type": 51,
        "frequency": 12670,
        "name": "RDO"
      },
      {
        "type": 54,
        "frequency": 11840,
        "name": "TWR"
      },
      {
        "type": 54,
        "frequency": 12535,
        "name": "TWR"
      }
    ],
    "elevation": 0,
    "tower": true,
    "name": "[S] Vancouver Harbour Water Airport",
    "runways": [
      {
        "type": 101,
        "width": 304.8,
        "surfaceType": null,
        "numberStart": "07",
        "numberEnd": "25",
        "latStart": 49.294946,
        "lonStart": -123.11880194,
        "latEnd": 49.294946,
        "lonEnd": -123.10618406,
        "length": 0
      }
    ],
    "id": 34507
  }
]