[
  {
    "type": 1,
    "icao": "SECO",
    "lat": -0.457884,
    "lon": -76.9893372,
    "communications": [
      {
        "type": 54,
        "frequency": 12350,
        "name": "COCA TWR"
      },
      {
        "type": 55,
        "frequency": 11970,
        "name": "QUITO APP"
      },
      {
        "type": 55,
        "frequency": 12120,
        "name": "QUITO APP"
      }
    ],
    "elevation": 833,
    "tower": true,
    "name": "FRANCISCO DE ORELLANA",
    "runways": [
      {
        "type": 100,
        "width": 27.43,
        "surfaceType": null,
        "numberStart": "16",
        "numberEnd": "34",
        "latStart": -0.448697,
        "lonStart": -76.9938434,
        "latEnd": -0.467071,
        "lonEnd": -76.984831,
        "length": 0,
        "surfacetype": 1
      }
    ],
    "id": 4868
  },
  {
    "type": 1,
    "icao": "SETR",
    "lat": -0.12210133000000001,
    "lon": -76.33871767000001,
    "communications": [
      {
        "type": 54,
        "frequency": 12910,
        "name": "TWR"
      }
    ],
    "elevation": 814,
    "tower": true,
    "name": "TARAPOA",
    "runways": [
      {
        "type": 100,
        "width": 14.94,
        "surfaceType": null,
        "numberStart": "12",
        "numberEnd": "30",
        "latStart": -0.119008,
        "lonStart": -76.343825,
        "latEnd": -0.126903,
        "lonEnd": -76.331672,
        "length": 0,
        "surfacetype": 1
      },
      {
        "type": 102,
        "width": 25,
        "surfaceType": 2,
        "numberStart": "H12",
        "numberEnd": null,
        "latStart": -0.12039299,
        "lonStart": -76.34065601,
        "latEnd": null,
        "lonEnd": null,
        "length": 25
      }
    ],
    "id": 4876
  },
  {
    "type": 1,
    "icao": "SELA",
    "lat": -0.092222,
    "lon": -76.8688889,
    "communications": [],
    "elevation": 981,
    "tower": true,
    "name": "Lago Agrio",
    "runways": [
      {
        "type": 100,
        "width": 32.92,
        "surfaceType": null,
        "numberStart": "05",
        "numberEnd": "23",
        "latStart": -0.09901173,
        "lonStart": -76.8766996,
        "latEnd": -0.08543227,
        "lonEnd": -76.8610782,
        "length": 0,
        "surfacetype": 2
      }
    ],
    "id": 25985
  }
]