[
  {
    "type": 1,
    "icao": "SUAA",
    "lat": -34.7890955,
    "lon": -45.529965,
    "communications": [
      {
        "type": 54,
        "frequency": 11840,
        "name": "ADAMI TWR"
      },
      {
        "type": 54,
        "frequency": 12210,
        "name": "ADAMI TWR"
      }
    ],
    "elevation": 173,
    "tower": true,
    "name": "ANGEL S ADAMI",
    "runways": [
      {
        "type": 100,
        "width": 22.86,
        "surfaceType": null,
        "numberStart": "18",
        "numberEnd": "36",
        "latStart": -34.783358,
        "lonStart": -56.265097,
        "latEnd": -34.794833,
        "lonEnd": -56.264308,
        "length": 0,
        "surfacetype": 2
      }
    ],
    "id": 315
  },
  {
    "type": 1,
    "icao": "SUMU",
    "lat": -34.83357275,
    "lon": -45.4297567475,
    "communications": [
      {
        "type": 54,
        "frequency": 11810,
        "name": "TWR"
      },
      {
        "type": 55,
        "frequency": 12020,
        "name": "APP"
      }
    ],
    "elevation": 104,
    "tower": true,
    "name": "Montevideo Carrasco Intl",
    "runways": [
      {
        "type": 100,
        "width": 45.11,
        "surfaceType": null,
        "numberStart": "01",
        "numberEnd": "19",
        "latStart": -34.841864,
        "lonStart": -56.030644,
        "latEnd": -34.821572,
        "lonEnd": -56.030992,
        "length": 0,
        "surfacetype": 1
      },
      {
        "type": 100,
        "width": 45.11,
        "surfaceType": null,
        "numberStart": "06",
        "numberEnd": "24",
        "latStart": -34.844036,
        "lonStart": -56.03999199,
        "latEnd": -34.826819,
        "lonEnd": -56.01191699,
        "length": 0,
        "surfacetype": 1
      }
    ],
    "id": 17425
  }
]