[
  {
    "type": 1,
    "icao": "UMMM",
    "lat": 53.864470999999995,
    "lon": 40.6933095,
    "communications": [
      {
        "type": 54,
        "frequency": 12800,
        "name": "START"
      }
    ],
    "elevation": 748,
    "tower": true,
    "name": "MINSK 1",
    "runways": [
      {
        "type": 100,
        "width": 60.05,
        "surfaceType": null,
        "numberStart": "12",
        "numberEnd": "30",
        "latStart": 53.869656,
        "lonStart": 27.527333,
        "latEnd": 53.859286,
        "lonEnd": 27.552031,
        "length": 0,
        "surfacetype": 1
      }
    ],
    "id": 16142
  },
  {
    "type": 1,
    "icao": "UMMS",
    "lat": 53.882549499999996,
    "lon": 40.941379999999995,
    "communications": [
      {
        "type": 50,
        "frequency": 12885,
        "name": "ATIS"
      },
      {
        "type": 53,
        "frequency": 12170,
        "name": "GND"
      },
      {
        "type": 54,
        "frequency": 11830,
        "name": "TWR"
      },
      {
        "type": 55,
        "frequency": 12525,
        "name": "MINSK RADAR"
      }
    ],
    "elevation": 669,
    "tower": true,
    "name": "Minsk Velikiydvor",
    "runways": [
      {
        "type": 100,
        "width": 60.05,
        "surfaceType": null,
        "numberStart": "13",
        "numberEnd": "31",
        "latStart": 53.894868,
        "lonStart": 28.012529,
        "latEnd": 53.870231,
        "lonEnd": 28.049042,
        "length": 0,
        "surfacetype": 2
      }
    ],
    "id": 17280
  }
]