[
  {
    "type": 1,
    "icao": "PABI",
    "lat": 63.99446016666666,
    "lon": -40.868086500000004,
    "communications": [
      {
        "type": 50,
        "frequency": 13565,
        "name": "ASOS"
      },
      {
        "type": 50,
        "frequency": 13207,
        "name": "ATIS"
      },
      {
        "type": 51,
        "frequency": 12290,
        "name": "CTAF"
      },
      {
        "type": 53,
        "frequency": 11822,
        "name": "FORT GREELY GND"
      },
      {
        "type": 54,
        "frequency": 12532,
        "name": "TWR"
      }
    ],
    "elevation": 1291,
    "tower": true,
    "name": "ALLEN AAF",
    "runways": [
      {
        "type": 100,
        "width": 45.72,
        "surfaceType": null,
        "numberStart": "18",
        "numberEnd": "36",
        "latStart": 64.008,
        "lonStart": -145.707,
        "latEnd": 63.986,
        "lonEnd": -145.735,
        "length": 0,
        "surfacetype": 1
      },
      {
        "type": 100,
        "width": 45.72,
        "surfaceType": null,
        "numberStart": "09",
        "numberEnd": "27",
        "latStart": 63.999761,
        "lonStart": -145.735519,
        "latEnd": 63.99,
        "lonEnd": -145.704,
        "length": 0,
        "surfacetype": 1
      },
      {
        "type": 100,
        "width": 45.72,
        "surfaceType": null,
        "numberStart": "06",
        "numberEnd": "24",
        "latStart": 63.992,
        "lonStart": -145.733,
        "latEnd": 63.991,
        "lonEnd": -145.704,
        "length": 0,
        "surfacetype": 1
      }
    ],
    "id": 223
  },
  {
    "type": 1,
    "icao": "45AK",
    "lat": 63.96182888,
    "lon": -40.75814181,
    "communications": [],
    "elevation": 1299,
    "tower": false,
    "name": "Cherokee",
    "runways": [
      {
        "type": 100,
        "width": 12.19,
        "surfaceType": null,
        "numberStart": "11",
        "numberEnd": "29",
        "latStart": 63.96452008,
        "lonStart": -145.4754213,
        "latEnd": 63.95913768,
        "lonEnd": -145.4647626,
        "length": 0,
        "surfacetype": 3
      }
    ],
    "id": 4871
  },
  {
    "type": 1,
    "icao": "11AK",
    "lat": 63.99960583,
    "lon": -40.754135444999996,
    "communications": [],
    "elevation": 1190,
    "tower": false,
    "name": "Delta Airmotive",
    "runways": [
      {
        "type": 100,
        "width": 9.14,
        "surfaceType": null,
        "numberStart": "08",
        "numberEnd": "26",
        "latStart": 64.00062298,
        "lonStart": -145.50945883,
        "latEnd": 63.99858868,
        "lonEnd": -145.49517673,
        "length": 0,
        "surfacetype": 5
      },
      {
        "type": 100,
        "width": 15.24,
        "surfaceType": null,
        "numberStart": "15",
        "numberEnd": "33",
        "latStart": 64.00234714,
        "lonStart": -145.50253615,
        "latEnd": 63.99686452,
        "lonEnd": -145.50209941,
        "length": 0,
        "surfacetype": 3
      }
    ],
    "id": 6173
  }
]