[
  {
    "type": 1,
    "icao": "MYX4",
    "lat": 25.383325,
    "lon": -26.208953365,
    "communications": [],
    "elevation": 13,
    "tower": true,
    "name": "Big Whale Cay",
    "runways": [
      {
        "type": 100,
        "width": 45.72,
        "surfaceType": null,
        "numberStart": "06",
        "numberEnd": "24",
        "latStart": 25.38140768,
        "lonStart": -77.80314905,
        "latEnd": 25.38524232,
        "lonEnd": -77.79685649,
        "length": 0,
        "surfacetype": 2
      }
    ],
    "id": 2711
  },
  {
    "type": 1,
    "icao": "MYBC",
    "lat": 25.417107,
    "lon": -26.236413500000005,
    "communications": [
      {
        "type": 51,
        "frequency": 12280,
        "name": "UNICOM"
      }
    ],
    "elevation": 5,
    "tower": true,
    "name": "CHUB CAY",
    "runways": [
      {
        "type": 100,
        "width": 23.77,
        "surfaceType": null,
        "numberStart": "11",
        "numberEnd": "29",
        "latStart": 25.418883,
        "lonStart": -77.888158,
        "latEnd": 25.415331,
        "lonEnd": -77.873539,
        "length": 0,
        "surfacetype": 1
      }
    ],
    "id": 3919
  },
  {
    "type": 1,
    "icao": "MYCC",
    "lat": 25.59999722,
    "lon": -26.83465982,
    "communications": [],
    "elevation": 2,
    "tower": true,
    "name": "Cat Cay",
    "runways": [
      {
        "type": 100,
        "width": 45.72,
        "surfaceType": null,
        "numberStart": "13",
        "numberEnd": "31",
        "latStart": 25.6010452,
        "lonStart": -79.26826888,
        "latEnd": 25.59894924,
        "lonEnd": -79.26507,
        "length": 0,
        "surfacetype": 2
      }
    ],
    "id": 4649
  },
  {
    "type": 1,
    "icao": "MYX5",
    "lat": 25.78333333,
    "lon": -26.052245525,
    "communications": [],
    "elevation": 16,
    "tower": true,
    "name": "Cistern Cay",
    "runways": [
      {
        "type": 100,
        "width": 45.72,
        "surfaceType": null,
        "numberStart": "16",
        "numberEnd": "34",
        "latStart": 25.78634033,
        "lonStart": -77.88481738,
        "latEnd": 25.78032633,
        "lonEnd": -77.88184372,
        "length": 0,
        "surfacetype": 2
      }
    ],
    "id": 5029
  },
  {
    "type": 1,
    "icao": "MYBG",
    "lat": 25.738329,
    "lon": -26.055493,
    "communications": [
      {
        "type": 51,
        "frequency": 12280,
        "name": "UNICOM"
      }
    ],
    "elevation": 18,
    "tower": true,
    "name": "GREAT HARBOUR CAY",
    "runways": [
      {
        "type": 100,
        "width": 24.38,
        "surfaceType": null,
        "numberStart": "13",
        "numberEnd": "31",
        "latStart": 25.741725,
        "lonStart": -77.845919,
        "latEnd": 25.734933,
        "lonEnd": -77.834306,
        "length": 0,
        "surfacetype": 1
      }
    ],
    "id": 10136
  },
  {
    "type": 1,
    "icao": "MYNN",
    "lat": 25.038507102500002,
    "lon": -26.222845142499995,
    "communications": [
      {
        "type": 50,
        "frequency": 11870,
        "name": "ATIS"
      },
      {
        "type": 51,
        "frequency": 12295,
        "name": "CTAF"
      },
      {
        "type": 51,
        "frequency": 12300,
        "name": "UNICOM"
      },
      {
        "type": 52,
        "frequency": 11830,
        "name": "CLNC DEL"
      },
      {
        "type": 53,
        "frequency": 12170,
        "name": "GND"
      },
      {
        "type": 54,
        "frequency": 11950,
        "name": "TWR"
      },
      {
        "type": 55,
        "frequency": 12100,
        "name": "APP"
      },
      {
        "type": 55,
        "frequency": 12530,
        "name": "APP"
      },
      {
        "type": 55,
        "frequency": 13255,
        "name": "APP"
      },
      {
        "type": 55,
        "frequency": 13455,
        "name": "APP"
      }
    ],
    "elevation": 16,
    "tower": true,
    "name": "Nassau Intl",
    "runways": [
      {
        "type": 100,
        "width": 45.72,
        "surfaceType": null,
        "numberStart": "14",
        "numberEnd": "32",
        "latStart": 25.05182914,
        "lonStart": -77.47563482,
        "latEnd": 25.03014581,
        "lonEnd": -77.45156206,
        "length": 0,
        "surfacetype": 1
      },
      {
        "type": 100,
        "width": 45.72,
        "surfaceType": null,
        "numberStart": "09",
        "numberEnd": "27",
        "latStart": 25.03595323,
        "lonStart": -77.48199179,
        "latEnd": 25.03610023,
        "lonEnd": -77.45685579,
        "length": 0,
        "surfacetype": 1
      }
    ],
    "id": 18146
  },
  {
    "type": 1,
    "icao": "MYAN",
    "lat": 25.053818,
    "lon": -26.502388500000002,
    "communications": [
      {
        "type": 51,
        "frequency": 12280,
        "name": "UNICOM"
      }
    ],
    "elevation": 5,
    "tower": true,
    "name": "SAN ANDROS",
    "runways": [
      {
        "type": 100,
        "width": 22.86,
        "surfaceType": null,
        "numberStart": "12",
        "numberEnd": "30",
        "latStart": 25.056369,
        "lonStart": -78.056044,
        "latEnd": 25.051267,
        "lonEnd": -78.04195,
        "length": 0,
        "surfacetype": 1
      }
    ],
    "id": 21951
  },
  {
    "type": 1,
    "icao": "MYBS",
    "lat": 25.699879,
    "lon": -26.786500000000004,
    "communications": [
      {
        "type": 51,
        "frequency": 12280,
        "name": "UNICOM"
      }
    ],
    "elevation": 10,
    "tower": true,
    "name": "SOUTH BIMINI",
    "runways": [
      {
        "type": 100,
        "width": 30.48,
        "surfaceType": null,
        "numberStart": "09",
        "numberEnd": "27",
        "latStart": 25.699886,
        "lonStart": -79.272872,
        "latEnd": 25.699872,
        "lonEnd": -79.256436,
        "length": 0,
        "surfacetype": 1
      }
    ],
    "id": 22388
  }
]