[
  {
    "type": 17,
    "icao": "7CA5",
    "lat": 36.90633583,
    "lon": -119.12872723,
    "communications": [],
    "elevation": 1603,
    "tower": false,
    "name": "[H] Balch Camp",
    "runways": [
      {
        "type": 102,
        "width": 24.7,
        "surfaceType": 1,
        "numberStart": "H1",
        "numberEnd": null,
        "latStart": 36.90633583,
        "lonStart": -119.12872723,
        "latEnd": null,
        "lonEnd": null,
        "length": 29.3
      }
    ],
    "id": 28287
  },
  {
    "type": 17,
    "icao": "CA83",
    "lat": 36.44272805,
    "lon": -119.31567139,
    "communications": [],
    "elevation": 310,
    "tower": false,
    "name": "[H] Gilbert Aviation",
    "runways": [
      {
        "type": 102,
        "width": 24.4,
        "surfaceType": 1,
        "numberStart": "H1",
        "numberEnd": null,
        "latStart": 36.44272805,
        "lonStart": -119.31567139,
        "latEnd": null,
        "lonEnd": null,
        "length": 18.3
      }
    ],
    "id": 29928
  },
  {
    "type": 17,
    "icao": "4CL8",
    "lat": 36.32994999,
    "lon": -119.65957362,
    "communications": [],
    "elevation": 250,
    "tower": false,
    "name": "[H] Hanford Community Medical Center Helis",
    "runways": [
      {
        "type": 102,
        "width": 16.8,
        "surfaceType": 2,
        "numberStart": "H1",
        "numberEnd": null,
        "latStart": 36.32994999,
        "lonStart": -119.65957362,
        "latEnd": null,
        "lonEnd": null,
        "length": 16.8
      }
    ],
    "id": 30115
  },
  {
    "type": 17,
    "icao": "5Q8",
    "lat": 36.86106083,
    "lon": -119.66347334,
    "communications": [],
    "elevation": 399,
    "tower": false,
    "name": "[H] Larsen",
    "runways": [
      {
        "type": 102,
        "width": 21.3,
        "surfaceType": 3,
        "numberStart": "H1",
        "numberEnd": null,
        "latStart": 36.86106083,
        "lonStart": -119.66347334,
        "latEnd": null,
        "lonEnd": null,
        "length": 27.4
      }
    ],
    "id": 30844
  },
  {
    "type": 17,
    "icao": "59Q",
    "lat": 36.84772611,
    "lon": -119.82542556,
    "communications": [],
    "elevation": 328,
    "tower": false,
    "name": "[H] Mc Carthy Ranch",
    "runways": [
      {
        "type": 102,
        "width": 22.9,
        "surfaceType": 3,
        "numberStart": "H1",
        "numberEnd": null,
        "latStart": 36.84772611,
        "lonStart": -119.82542556,
        "latEnd": null,
        "lonEnd": null,
        "length": 22.9
      }
    ],
    "id": 31138
  },
  {
    "type": 17,
    "icao": "9Q0",
    "lat": 36.71939388,
    "lon": -119.75986473,
    "communications": [],
    "elevation": 289,
    "tower": false,
    "name": "[H] PG&E Service Center",
    "runways": [
      {
        "type": 102,
        "width": 29,
        "surfaceType": 1,
        "numberStart": "H1",
        "numberEnd": null,
        "latStart": 36.71939388,
        "lonStart": -119.75986473,
        "latEnd": null,
        "lonEnd": null,
        "length": 29
      }
    ],
    "id": 31820
  },
  {
    "type": 17,
    "icao": "5Q7",
    "lat": 36.82383861,
    "lon": -119.66847306,
    "communications": [],
    "elevation": 370,
    "tower": false,
    "name": "[H] Rogers Helicopters Inc",
    "runways": [
      {
        "type": 102,
        "width": 61,
        "surfaceType": 3,
        "numberStart": "H1",
        "numberEnd": null,
        "latStart": 36.82383861,
        "lonStart": -119.66847306,
        "latEnd": null,
        "lonEnd": null,
        "length": 121.9
      }
    ],
    "id": 32403
  },
  {
    "type": 17,
    "icao": "CA31",
    "lat": 36.73217249,
    "lon": -119.55457639,
    "communications": [],
    "elevation": 374,
    "tower": false,
    "name": "[H] Sanger",
    "runways": [
      {
        "type": 102,
        "width": 7.6,
        "surfaceType": 2,
        "numberStart": "H1",
        "numberEnd": null,
        "latStart": 36.73217249,
        "lonStart": -119.55457639,
        "latEnd": null,
        "lonEnd": null,
        "length": 7.6
      }
    ],
    "id": 32554
  },
  {
    "type": 17,
    "icao": "65CA",
    "lat": 36.18217333,
    "lon": -119.33372612,
    "communications": [],
    "elevation": 277,
    "tower": false,
    "name": "[H] Sce San Joaquin",
    "runways": [
      {
        "type": 102,
        "width": 6.1,
        "surfaceType": 1,
        "numberStart": "H1",
        "numberEnd": null,
        "latStart": 36.18217333,
        "lonStart": -119.33372612,
        "latEnd": null,
        "lonEnd": null,
        "length": 6.1
      }
    ],
    "id": 32594
  },
  {
    "type": 17,
    "icao": "86CA",
    "lat": 36.73717194,
    "lon": -119.75375389,
    "communications": [],
    "elevation": 307,
    "tower": false,
    "name": "[H] Valley Medical Center",
    "runways": [
      {
        "type": 102,
        "width": 9.1,
        "surfaceType": 2,
        "numberStart": "H1",
        "numberEnd": null,
        "latStart": 36.73717194,
        "lonStart": -119.75375389,
        "latEnd": null,
        "lonEnd": null,
        "length": 9.1
      }
    ],
    "id": 33579
  }
]