[
  {
    "type": 1,
    "icao": "PADE",
    "lat": 66.06914925000001,
    "lon": -162.76702756999998,
    "communications": [
      {
        "type": 50,
        "frequency": 13550,
        "name": "ASOS"
      },
      {
        "type": 51,
        "frequency": 12290,
        "name": "CTAF"
      },
      {
        "type": 55,
        "frequency": 11920,
        "name": "ANCHORAGE CNTR"
      }
    ],
    "elevation": 21,
    "tower": false,
    "name": "DEERING",
    "runways": [
      {
        "type": 100,
        "width": 22.86,
        "surfaceType": null,
        "numberStart": "02",
        "numberEnd": "20",
        "latStart": 66.06518344,
        "lonStart": -162.77410125,
        "latEnd": 66.07236856,
        "lonEnd": -162.7603078,
        "length": 0,
        "surfacetype": 5
      },
      {
        "type": 100,
        "width": 22.86,
        "surfaceType": null,
        "numberStart": "11",
        "numberEnd": "29",
        "latStart": 66.07169278,
        "lonStart": -162.7740799,
        "latEnd": 66.06735222,
        "lonEnd": -162.75962133,
        "length": 0,
        "surfacetype": 5
      }
    ],
    "id": 5735
  },
  {
    "type": 1,
    "icao": "PAOT",
    "lat": 66.88518,
    "lon": -162.59705072333333,
    "communications": [
      {
        "type": 50,
        "frequency": 13545,
        "name": "ASOS"
      },
      {
        "type": 51,
        "frequency": 12360,
        "name": "CTAF"
      },
      {
        "type": 51,
        "frequency": 12280,
        "name": "UNICOM"
      },
      {
        "type": 55,
        "frequency": 11920,
        "name": "Anchorage ARTCC"
      }
    ],
    "elevation": 14,
    "tower": false,
    "name": "KOTZEBUE Ralph Wein Mem",
    "runways": [
      {
        "type": 100,
        "width": 45.72,
        "surfaceType": null,
        "numberStart": "08",
        "numberEnd": "26",
        "latStart": 66.889436,
        "lonStart": -162.609367,
        "latEnd": 66.886139,
        "lonEnd": -162.569197,
        "length": 0,
        "surfacetype": 1
      },
      {
        "type": 100,
        "width": 46.02,
        "surfaceType": null,
        "numberStart": "09",
        "numberEnd": "27",
        "latStart": 66.88944373,
        "lonStart": -162.60946121,
        "latEnd": 66.88613127,
        "lonEnd": -162.56910549,
        "length": 0,
        "surfacetype": 1
      },
      {
        "type": 100,
        "width": 27.13,
        "surfaceType": null,
        "numberStart": "18",
        "numberEnd": "36",
        "latStart": 66.88512535,
        "lonStart": -162.60933583,
        "latEnd": 66.87480465,
        "lonEnd": -162.61583781,
        "length": 0,
        "surfacetype": 5
      }
    ],
    "id": 13475
  }
]