[
  {
    "type": 1,
    "icao": "HL77",
    "lat": 32.47343825,
    "lon": 22.176222000000003,
    "communications": [],
    "elevation": 253,
    "tower": false,
    "name": "OKBA IBN NAFA",
    "runways": [
      {
        "type": 100,
        "width": 45.11,
        "surfaceType": null,
        "numberStart": "10L",
        "numberEnd": "28R",
        "latStart": 32.476478,
        "lonStart": 11.881008,
        "latEnd": 32.472969,
        "lonEnd": 11.914775,
        "length": 0,
        "surfacetype": 1
      },
      {
        "type": 100,
        "width": 45.11,
        "surfaceType": null,
        "numberStart": "10R",
        "numberEnd": "28L",
        "latStart": 32.473953,
        "lonStart": 11.880558,
        "latEnd": 32.470353,
        "lonEnd": 11.914775,
        "length": 0,
        "surfacetype": 1
      }
    ],
    "id": 18626
  },
  {
    "type": 1,
    "icao": "HL53",
    "lat": 32.494757,
    "lon": 22.888946999999998,
    "communications": [],
    "elevation": 490,
    "tower": false,
    "name": "SIDI SALIH",
    "runways": [
      {
        "type": 100,
        "width": 24.38,
        "surfaceType": null,
        "numberStart": "13",
        "numberEnd": "31",
        "latStart": 32.497528,
        "lonStart": 13.285908,
        "latEnd": 32.491986,
        "lonEnd": 13.294222,
        "length": 0,
        "surfacetype": 1
      }
    ],
    "id": 22260
  },
  {
    "type": 1,
    "icao": "HLLT",
    "lat": 32.6656585,
    "lon": 22.9016465,
    "communications": [
      {
        "type": 53,
        "frequency": 12010,
        "name": "GND"
      },
      {
        "type": 54,
        "frequency": 11810,
        "name": "TWR"
      },
      {
        "type": 54,
        "frequency": 12300,
        "name": "AFIS"
      },
      {
        "type": 55,
        "frequency": 12400,
        "name": "APP"
      }
    ],
    "elevation": 263,
    "tower": true,
    "name": "TRIPOLI INTL",
    "runways": [
      {
        "type": 100,
        "width": 44.2,
        "surfaceType": null,
        "numberStart": "09",
        "numberEnd": "27",
        "latStart": 32.663092,
        "lonStart": 13.128758,
        "latEnd": 32.663667,
        "lonEnd": 13.167158,
        "length": 0,
        "surfacetype": 1
      },
      {
        "type": 100,
        "width": 44.2,
        "surfaceType": null,
        "numberStart": "18",
        "numberEnd": "36",
        "latStart": 32.679806,
        "lonStart": 13.158092,
        "latEnd": 32.656069,
        "lonEnd": 13.159417,
        "length": 0,
        "surfacetype": 1
      }
    ],
    "id": 24869
  },
  {
    "type": 1,
    "icao": "HLZW",
    "lat": 32.952268000000004,
    "lon": 22.481757,
    "communications": [
      {
        "type": 54,
        "frequency": 11860,
        "name": "TWR"
      }
    ],
    "elevation": 0,
    "tower": true,
    "name": "ZWARA",
    "runways": [
      {
        "type": 100,
        "width": 45.11,
        "surfaceType": null,
        "numberStart": "06",
        "numberEnd": "24",
        "latStart": 32.948169,
        "lonStart": 12.007147,
        "latEnd": 32.956367,
        "lonEnd": 12.023789,
        "length": 0,
        "surfacetype": 1
      }
    ],
    "id": 27863
  }
]