[
  {
    "type": 1,
    "icao": "CYZF",
    "lat": 62.4656665,
    "lon": -114.44141675,
    "communications": [
      {
        "type": 51,
        "frequency": 13580,
        "name": "EDMONTON CNTR"
      },
      {
        "type": 51,
        "frequency": 12250,
        "name": "RDO"
      },
      {
        "type": 50,
        "frequency": 12840,
        "name": "ATIS"
      },
      {
        "type": 53,
        "frequency": 12190,
        "name": "GND"
      },
      {
        "type": 54,
        "frequency": 11850,
        "name": "MF"
      },
      {
        "type": 54,
        "frequency": 11850,
        "name": "TWR"
      }
    ],
    "elevation": 673,
    "tower": true,
    "name": "YELLOWKNIFE",
    "runways": [
      {
        "type": 100,
        "width": 45.72,
        "surfaceType": null,
        "numberStart": "15",
        "numberEnd": "33",
        "latStart": 62.473167,
        "lonStart": -114.444,
        "latEnd": 62.452833,
        "lonEnd": -114.440667,
        "length": 0,
        "surfacetype": 1
      },
      {
        "type": 100,
        "width": 45.72,
        "surfaceType": null,
        "numberStart": "09",
        "numberEnd": "27",
        "latStart": 62.471333,
        "lonStart": -114.4535,
        "latEnd": 62.465333,
        "lonEnd": -114.4275,
        "length": 0,
        "surfacetype": 1
      }
    ],
    "id": 27696
  }
]