[
  {
    "type": 1,
    "icao": "CYZF",
    "lat": 62.46563987,
    "lon": -114.44143128,
    "communications": [
      {
        "type": 51,
        "frequency": 13580,
        "name": "EDMONTON CNTR"
      },
      {
        "type": 51,
        "frequency": 12250,
        "name": "RDO"
      },
      {
        "type": 50,
        "frequency": 12840,
        "name": "ATIS"
      },
      {
        "type": 53,
        "frequency": 12190,
        "name": "GND"
      },
      {
        "type": 51,
        "frequency": 11850,
        "name": "MF"
      },
      {
        "type": 54,
        "frequency": 11850,
        "name": "TWR"
      }
    ],
    "elevation": 672,
    "tower": true,
    "name": "YELLOWKNIFE",
    "runways": [
      {
        "type": 100,
        "width": 45.72,
        "surfaceType": null,
        "numberStart": "16",
        "numberEnd": "34",
        "latStart": 62.47331278,
        "lonStart": -114.44415332,
        "latEnd": 62.45279099,
        "lonEnd": -114.44079068,
        "length": 0,
        "surfacetype": 1
      },
      {
        "type": 100,
        "width": 45.72,
        "surfaceType": null,
        "numberStart": "10",
        "numberEnd": "28",
        "latStart": 62.47129174,
        "lonStart": -114.45366606,
        "latEnd": 62.46516397,
        "lonEnd": -114.42711506,
        "length": 0,
        "surfacetype": 1
      }
    ],
    "id": 879
  }
]