[
  {
    "type": 1,
    "icao": "LGAD",
    "lat": 37.920708000000005,
    "lon": 29.597458,
    "communications": [
      {
        "type": 54,
        "frequency": 12210,
        "name": "TWR"
      },
      {
        "type": 54,
        "frequency": 12065,
        "name": "TWR"
      },
      {
        "type": 55,
        "frequency": 12065,
        "name": "APP"
      },
      {
        "type": 55,
        "frequency": 12210,
        "name": "APP"
      }
    ],
    "elevation": 55,
    "tower": true,
    "name": "ANDRAVIDA",
    "runways": [
      {
        "type": 100,
        "width": 45.11,
        "surfaceType": null,
        "numberStart": "16",
        "numberEnd": "34",
        "latStart": 37.934333,
        "lonStart": 21.287833,
        "latEnd": 37.907083,
        "lonEnd": 21.297333,
        "length": 0,
        "surfacetype": 1
      }
    ],
    "id": 306
  },
  {
    "type": 1,
    "icao": "LGKL",
    "lat": 37.0683195,
    "lon": 29.539225000000002,
    "communications": [
      {
        "type": 54,
        "frequency": 12210,
        "name": "TWR"
      },
      {
        "type": 54,
        "frequency": 12075,
        "name": "TWR"
      },
      {
        "type": 55,
        "frequency": 12075,
        "name": "APP"
      },
      {
        "type": 55,
        "frequency": 12210,
        "name": "APP"
      }
    ],
    "elevation": 26,
    "tower": true,
    "name": "KALAMATA",
    "runways": [
      {
        "type": 100,
        "width": 45.11,
        "surfaceType": null,
        "numberStart": "17R",
        "numberEnd": "35L",
        "latStart": 37.080814,
        "lonStart": 22.022625,
        "latEnd": 37.055825,
        "lonEnd": 22.028422,
        "length": 0,
        "surfacetype": 1
      }
    ],
    "id": 13192
  },
  {
    "type": 1,
    "icao": "LGZA",
    "lat": 37.75110935,
    "lon": 29.310978759999998,
    "communications": [
      {
        "type": 54,
        "frequency": 12542,
        "name": "ZAKINTHOS TWR"
      },
      {
        "type": 55,
        "frequency": 12065,
        "name": "ANDRAVIDA APP"
      }
    ],
    "elevation": 14,
    "tower": true,
    "name": "LGZA",
    "runways": [
      {
        "type": 100,
        "width": 45.11,
        "surfaceType": null,
        "numberStart": "16",
        "numberEnd": "34",
        "latStart": 37.76071935,
        "lonStart": 20.88045817,
        "latEnd": 37.74149935,
        "lonEnd": 20.88766324,
        "length": 0,
        "surfacetype": 1
      }
    ],
    "id": 14506
  },
  {
    "type": 1,
    "icao": "LG55",
    "lat": 37.094111,
    "lon": 29.538819500000002,
    "communications": [],
    "elevation": 36,
    "tower": false,
    "name": "TRIODHON",
    "runways": [
      {
        "type": 100,
        "width": 29.87,
        "surfaceType": null,
        "numberStart": "16",
        "numberEnd": "34",
        "latStart": 37.09825,
        "lonStart": 21.987667,
        "latEnd": 37.089972,
        "lonEnd": 21.993083,
        "length": 0,
        "surfacetype": 1
      }
    ],
    "id": 24866
  },
  {
    "type": 1,
    "icao": "LGTP",
    "lat": 37.530567000000005,
    "lon": 29.9690015,
    "communications": [
      {
        "type": 54,
        "frequency": 12210,
        "name": "TWR"
      }
    ],
    "elevation": 2113,
    "tower": true,
    "name": "TRIPOLIS",
    "runways": [
      {
        "type": 100,
        "width": 29.87,
        "surfaceType": null,
        "numberStart": "02",
        "numberEnd": "20",
        "latStart": 37.522503,
        "lonStart": 22.399372,
        "latEnd": 37.538631,
        "lonEnd": 22.407892,
        "length": 0,
        "surfacetype": 1
      }
    ],
    "id": 24870
  }
]