[
  {
    "type": 1,
    "icao": "LTAI",
    "lat": 36.898065948571436,
    "lon": 30.795795494285716,
    "communications": [
      {
        "type": 50,
        "frequency": 11827,
        "name": "ATIS"
      },
      {
        "type": 52,
        "frequency": 12375,
        "name": "CLNC DEL"
      },
      {
        "type": 53,
        "frequency": 12190,
        "name": "GND"
      },
      {
        "type": 54,
        "frequency": 12500,
        "name": "TWR"
      },
      {
        "type": 54,
        "frequency": 12610,
        "name": "TWR"
      },
      {
        "type": 55,
        "frequency": 12205,
        "name": "APP"
      },
      {
        "type": 55,
        "frequency": 12830,
        "name": "APP"
      }
    ],
    "elevation": 174,
    "tower": true,
    "name": "Antalya",
    "runways": [
      {
        "type": 100,
        "width": 45,
        "surfaceType": null,
        "numberStart": "18C",
        "numberEnd": "36C",
        "latStart": 36.91563293,
        "lonStart": 30.79477124,
        "latEnd": 36.8850826,
        "lonEnd": 30.79056587,
        "length": 0,
        "surfacetype": 2
      },
      {
        "type": 100,
        "width": 45,
        "surfaceType": null,
        "numberStart": "18L",
        "numberEnd": "36R",
        "latStart": 36.91131864,
        "lonStart": 30.8113945,
        "latEnd": 36.88090736,
        "lonEnd": 30.8072235,
        "length": 0,
        "surfacetype": 2
      },
      {
        "type": 100,
        "width": 44.8,
        "surfaceType": null,
        "numberStart": "18R",
        "numberEnd": "36L",
        "latStart": 36.91583604,
        "lonStart": 30.79241339,
        "latEnd": 36.88893639,
        "lonEnd": 30.78870748,
        "length": 0,
        "surfacetype": 1
      },
      {
        "type": 102,
        "width": 50,
        "surfaceType": 2,
        "numberStart": "H1",
        "numberEnd": null,
        "latStart": 36.88874768,
        "lonStart": 30.78549248,
        "latEnd": null,
        "lonEnd": null,
        "length": 50
      }
    ],
    "id": 3992
  }
]