[
  {
    "type": 1,
    "icao": "LTCK",
    "lat": 38.7477705,
    "lon": 40.191807999999995,
    "communications": [
      {
        "type": 53,
        "frequency": 12195,
        "name": "GND"
      },
      {
        "type": 54,
        "frequency": 12210,
        "name": "TWR"
      },
      {
        "type": 55,
        "frequency": 12210,
        "name": "APP"
      }
    ],
    "elevation": 4157,
    "tower": true,
    "name": "MUS",
    "runways": [
      {
        "type": 100,
        "width": 45.11,
        "surfaceType": null,
        "numberStart": "11",
        "numberEnd": "29",
        "latStart": 38.754847,
        "lonStart": 41.642922,
        "latEnd": 38.740694,
        "lonEnd": 41.679539,
        "length": 0,
        "surfacetype": 1
      }
    ],
    "id": 16396
  },
  {
    "type": 1,
    "icao": "LTCI",
    "lat": 38.468221,
    "lon": 40.9003445,
    "communications": [
      {
        "type": 53,
        "frequency": 12190,
        "name": "GND"
      },
      {
        "type": 54,
        "frequency": 12270,
        "name": "TWR"
      },
      {
        "type": 54,
        "frequency": 11810,
        "name": "TWR"
      },
      {
        "type": 55,
        "frequency": 12270,
        "name": "APP"
      },
      {
        "type": 55,
        "frequency": 11810,
        "name": "APP"
      }
    ],
    "elevation": 5479,
    "tower": true,
    "name": "VAN",
    "runways": [
      {
        "type": 100,
        "width": 45.11,
        "surfaceType": null,
        "numberStart": "03",
        "numberEnd": "21",
        "latStart": 38.458428,
        "lonStart": 43.322675,
        "latEnd": 38.478014,
        "lonEnd": 43.341925,
        "length": 0,
        "surfacetype": 1
      }
    ],
    "id": 26041
  }
]