[
  {
    "type": 1,
    "icao": "TAPA",
    "lat": 17.13656244,
    "lon": -22.33052223,
    "communications": [
      {
        "type": 53,
        "frequency": 12190,
        "name": "GND"
      },
      {
        "type": 54,
        "frequency": 11820,
        "name": "TWR"
      },
      {
        "type": 55,
        "frequency": 11910,
        "name": "APP"
      }
    ],
    "elevation": 62,
    "tower": true,
    "name": "Antigua - V C Bird Intl",
    "runways": [
      {
        "type": 100,
        "width": 45.11,
        "surfaceType": null,
        "numberStart": "07",
        "numberEnd": "25",
        "latStart": 17.12988888,
        "lonStart": -61.80428046,
        "latEnd": 17.143236,
        "lonEnd": -61.781658,
        "length": 0,
        "surfacetype": 1
      }
    ],
    "id": 1096
  },
  {
    "type": 1,
    "icao": "TAPH",
    "lat": 17.61609,
    "lon": -22.108876205,
    "communications": [],
    "elevation": 13,
    "tower": true,
    "name": "Barbuda/Codrington",
    "runways": [
      {
        "type": 100,
        "width": 14.94,
        "surfaceType": null,
        "numberStart": "08",
        "numberEnd": "26",
        "latStart": 17.61517496,
        "lonStart": -61.83475745,
        "latEnd": 17.61700504,
        "lonEnd": -61.83044453,
        "length": 0,
        "surfacetype": 1
      }
    ],
    "id": 2223
  },
  {
    "type": 1,
    "icao": "TAPT",
    "lat": 17.551661,
    "lon": -22.110889115,
    "communications": [],
    "elevation": 13,
    "tower": true,
    "name": "Cocoa Point",
    "runways": [
      {
        "type": 100,
        "width": 45.72,
        "surfaceType": null,
        "numberStart": "12",
        "numberEnd": "30",
        "latStart": 17.5527573,
        "lonStart": -61.77234293,
        "latEnd": 17.5505647,
        "lonEnd": -61.76432307,
        "length": 0,
        "surfacetype": 2
      }
    ],
    "id": 5147
  },
  {
    "type": 1,
    "icao": "TKPN",
    "lat": 17.205676500000003,
    "lon": -22.694936,
    "communications": [
      {
        "type": 53,
        "frequency": 12160,
        "name": "GND"
      },
      {
        "type": 54,
        "frequency": 12050,
        "name": "TWR"
      }
    ],
    "elevation": 14,
    "tower": true,
    "name": "Nevis/Amory Intl",
    "runways": [
      {
        "type": 100,
        "width": 29.87,
        "surfaceType": null,
        "numberStart": "10",
        "numberEnd": "28",
        "latStart": 17.205622,
        "lonStart": -62.595603,
        "latEnd": 17.205731,
        "lonEnd": -62.584136,
        "length": 0,
        "surfacetype": 1
      }
    ],
    "id": 18241
  },
  {
    "type": 1,
    "icao": "TNCE",
    "lat": 17.496491499999998,
    "lon": -22.741944500000002,
    "communications": [
      {
        "type": 51,
        "frequency": 11810,
        "name": "CTAF"
      }
    ],
    "elevation": 129,
    "tower": false,
    "name": "St Eustatius/F D Roosevelt",
    "runways": [
      {
        "type": 100,
        "width": 29.87,
        "surfaceType": null,
        "numberStart": "06",
        "numberEnd": "24",
        "latStart": 17.4927,
        "lonStart": -62.984172,
        "latEnd": 17.500283,
        "lonEnd": -62.974706,
        "length": 0,
        "surfacetype": 1
      }
    ],
    "id": 24035
  },
  {
    "type": 1,
    "icao": "TKPK",
    "lat": 17.3111945,
    "lon": -22.705472,
    "communications": [
      {
        "type": 53,
        "frequency": 12190,
        "name": "GND"
      },
      {
        "type": 54,
        "frequency": 11830,
        "name": "TWR"
      },
      {
        "type": 55,
        "frequency": 11960,
        "name": "APP"
      }
    ],
    "elevation": 170,
    "tower": true,
    "name": "St. Kitts/Bradshaw Intl",
    "runways": [
      {
        "type": 100,
        "width": 45.11,
        "surfaceType": null,
        "numberStart": "07",
        "numberEnd": "25",
        "latStart": 17.3055,
        "lonStart": -62.727833,
        "latEnd": 17.316889,
        "lonEnd": -62.7095,
        "length": 0,
        "surfacetype": 1
      }
    ],
    "id": 24068
  }
]