[
  {
    "type": 1,
    "icao": "LTBY",
    "lat": 39.809907,
    "lon": 35.1570275,
    "communications": [
      {
        "type": 54,
        "frequency": 12190,
        "name": "TWR"
      },
      {
        "type": 54,
        "frequency": 12375,
        "name": "TWR"
      }
    ],
    "elevation": 2587,
    "tower": true,
    "name": "ANADOLU",
    "runways": [
      {
        "type": 100,
        "width": 29.87,
        "surfaceType": null,
        "numberStart": "09",
        "numberEnd": "27",
        "latStart": 39.810453,
        "lonStart": 30.504694,
        "latEnd": 39.809361,
        "lonEnd": 30.534092,
        "length": 0,
        "surfacetype": 1
      }
    ],
    "id": 291
  },
  {
    "type": 1,
    "icao": "LTBI",
    "lat": 39.784206,
    "lon": 35.1742195,
    "communications": [
      {
        "type": 50,
        "frequency": 12242,
        "name": "ATIS"
      },
      {
        "type": 53,
        "frequency": 12195,
        "name": "GND"
      },
      {
        "type": 54,
        "frequency": 12210,
        "name": "TWR"
      },
      {
        "type": 55,
        "frequency": 12210,
        "name": "APP"
      }
    ],
    "elevation": 2581,
    "tower": true,
    "name": "ESKISEHIR",
    "runways": [
      {
        "type": 100,
        "width": 45.72,
        "surfaceType": null,
        "numberStart": "09",
        "numberEnd": "27",
        "latStart": 39.784106,
        "lonStart": 30.564133,
        "latEnd": 39.784306,
        "lonEnd": 30.599736,
        "length": 0,
        "surfacetype": 1
      }
    ],
    "id": 6812
  },
  {
    "type": 1,
    "icao": "LTAV",
    "lat": 39.4514415,
    "lon": 35.3961665,
    "communications": [
      {
        "type": 53,
        "frequency": 12195,
        "name": "GND"
      },
      {
        "type": 54,
        "frequency": 12210,
        "name": "TWR"
      },
      {
        "type": 55,
        "frequency": 12210,
        "name": "ESKISEHIR APP"
      }
    ],
    "elevation": 3185,
    "tower": true,
    "name": "SIVRIHISAR",
    "runways": [
      {
        "type": 100,
        "width": 29.87,
        "surfaceType": null,
        "numberStart": "11",
        "numberEnd": "29",
        "latStart": 39.457461,
        "lonStart": 31.346911,
        "latEnd": 39.445422,
        "lonEnd": 31.383236,
        "length": 0,
        "surfacetype": 1
      }
    ],
    "id": 22313
  }
]