[
  {
    "type": 1,
    "icao": "OTBK",
    "lat": 25.6295915,
    "lon": 38.562832,
    "communications": [
      {
        "type": 54,
        "frequency": 12045,
        "name": "TWR"
      }
    ],
    "elevation": 9,
    "tower": true,
    "name": "AL KHOR",
    "runways": [
      {
        "type": 100,
        "width": 29.87,
        "surfaceType": null,
        "numberStart": "14",
        "numberEnd": "32",
        "latStart": 25.635136,
        "lonStart": 51.501617,
        "latEnd": 25.624047,
        "lonEnd": 51.511825,
        "length": 0,
        "surfacetype": 1
      }
    ],
    "id": 156
  },
  {
    "type": 1,
    "icao": "OTBH",
    "lat": 25.1173155,
    "lon": 38.2048265,
    "communications": [
      {
        "type": 50,
        "frequency": 12375,
        "name": "ATIS"
      },
      {
        "type": 53,
        "frequency": 13550,
        "name": "GND"
      },
      {
        "type": 54,
        "frequency": 12550,
        "name": "TWR"
      },
      {
        "type": 54,
        "frequency": 12645,
        "name": "DOHA INFO"
      }
    ],
    "elevation": 129,
    "tower": true,
    "name": "AL UDEID AB",
    "runways": [
      {
        "type": 100,
        "width": 45.11,
        "surfaceType": null,
        "numberStart": "16",
        "numberEnd": "34",
        "latStart": 25.133014,
        "lonStart": 51.308036,
        "latEnd": 25.101617,
        "lonEnd": 51.321942,
        "length": 0,
        "surfacetype": 1
      }
    ],
    "id": 166
  },
  {
    "type": 1,
    "icao": "OTHH",
    "lat": 25.274480999999998,
    "lon": 38.425534750000004,
    "communications": [],
    "elevation": 3,
    "tower": true,
    "name": "New Doha International Airport",
    "runways": [
      {
        "type": 100,
        "width": 80,
        "surfaceType": null,
        "numberStart": "16L",
        "numberEnd": "34R",
        "latStart": 25.298647,
        "lonStart": 51.607761,
        "latEnd": 25.252921,
        "lonEnd": 51.627941,
        "length": 0,
        "surfacetype": 2
      },
      {
        "type": 100,
        "width": 80,
        "surfaceType": null,
        "numberStart": "16R",
        "numberEnd": "34L",
        "latStart": 25.293524,
        "lonStart": 51.588625,
        "latEnd": 25.252832,
        "lonEnd": 51.606582,
        "length": 0,
        "surfacetype": 2
      }
    ],
    "id": 18249
  },
  {
    "type": 1,
    "icao": "OBBS",
    "lat": 25.918366499999998,
    "lon": 38.242566499999995,
    "communications": [
      {
        "type": 53,
        "frequency": 12595,
        "name": "GND"
      },
      {
        "type": 54,
        "frequency": 12545,
        "name": "TWR"
      },
      {
        "type": 55,
        "frequency": 12495,
        "name": "APP"
      }
    ],
    "elevation": 136,
    "tower": true,
    "name": "SHAIKH ISA",
    "runways": [
      {
        "type": 100,
        "width": 44.81,
        "surfaceType": null,
        "numberStart": "15",
        "numberEnd": "33",
        "latStart": 25.933733,
        "lonStart": 50.582133,
        "latEnd": 25.903,
        "lonEnd": 50.598967,
        "length": 0,
        "surfacetype": 1
      }
    ],
    "id": 22191
  }
]