[
  {
    "type": 1,
    "icao": "MMCZ",
    "lat": 20.522844499999998,
    "lon": -86.92814225000001,
    "communications": [
      {
        "type": 54,
        "frequency": 11810,
        "name": "TWR"
      },
      {
        "type": 55,
        "frequency": 12040,
        "name": "CANCUN APP"
      },
      {
        "type": 55,
        "frequency": 12040,
        "name": "CANCUN ARR"
      },
      {
        "type": 56,
        "frequency": 11980,
        "name": "CANCUN DEP"
      }
    ],
    "elevation": 15,
    "tower": true,
    "name": "Cozumel Intl",
    "runways": [
      {
        "type": 100,
        "width": 45.11,
        "surfaceType": null,
        "numberStart": "05",
        "numberEnd": "23",
        "latStart": 20.522883,
        "lonStart": -86.9402,
        "latEnd": 20.538842,
        "lonEnd": -86.915794,
        "length": 0,
        "surfacetype": 1
      },
      {
        "type": 100,
        "width": 45.11,
        "surfaceType": null,
        "numberStart": "11",
        "numberEnd": "29",
        "latStart": 20.520111,
        "lonStart": -86.939967,
        "latEnd": 20.509542,
        "lonEnd": -86.916608,
        "length": 0,
        "surfacetype": 1
      }
    ],
    "id": 5445
  }
]