[
  {
    "type": 17,
    "icao": "2MD5",
    "lat": 39.64286555,
    "lon": -78.75112917,
    "communications": [],
    "elevation": 898,
    "tower": false,
    "name": "[H] Memorial Hospital of Cumberland",
    "runways": [
      {
        "type": 102,
        "width": 12.2,
        "surfaceType": 1,
        "numberStart": "H1",
        "numberEnd": null,
        "latStart": 39.64286555,
        "lonStart": -78.75112917,
        "latEnd": null,
        "lonEnd": null,
        "length": 12.2
      }
    ],
    "id": 31248
  },
  {
    "type": 17,
    "icao": "MD07",
    "lat": 39.6500875,
    "lon": -78.79974167,
    "communications": [],
    "elevation": 1428,
    "tower": false,
    "name": "[H] Sacred Heart Hospital",
    "runways": [
      {
        "type": 102,
        "width": 13.4,
        "surfaceType": 2,
        "numberStart": "H1",
        "numberEnd": null,
        "latStart": 39.6500875,
        "lonStart": -78.79974167,
        "latEnd": null,
        "lonEnd": null,
        "length": 13.4
      }
    ],
    "id": 32511
  },
  {
    "type": 17,
    "icao": "16VA",
    "lat": 39.15010472,
    "lon": -78.21639028,
    "communications": [],
    "elevation": 798,
    "tower": false,
    "name": "[H] Smith",
    "runways": [
      {
        "type": 102,
        "width": 15.2,
        "surfaceType": 1,
        "numberStart": "H1",
        "numberEnd": null,
        "latStart": 39.15010472,
        "lonStart": -78.21639028,
        "latEnd": null,
        "lonEnd": null,
        "length": 15.2
      }
    ],
    "id": 32751
  },
  {
    "type": 17,
    "icao": "96VA",
    "lat": 39.03732944,
    "lon": -78.36917167,
    "communications": [],
    "elevation": 833,
    "tower": false,
    "name": "[H] White Ox",
    "runways": [
      {
        "type": 102,
        "width": 10.7,
        "surfaceType": 3,
        "numberStart": "H1",
        "numberEnd": null,
        "latStart": 39.03732944,
        "lonStart": -78.36917167,
        "latEnd": null,
        "lonEnd": null,
        "length": 10.7
      }
    ],
    "id": 33835
  },
  {
    "type": 17,
    "icao": "2VA4",
    "lat": 39.19510361,
    "lon": -78.19194556,
    "communications": [],
    "elevation": 831,
    "tower": false,
    "name": "[H] Winchester Medical Center",
    "runways": [
      {
        "type": 102,
        "width": 17.7,
        "surfaceType": 2,
        "numberStart": "H1",
        "numberEnd": null,
        "latStart": 39.19510361,
        "lonStart": -78.19194556,
        "latEnd": null,
        "lonEnd": null,
        "length": 17.7
      }
    ],
    "id": 33872
  }
]