[
  {
    "type": 1,
    "icao": "NFNG",
    "lat": -18.115598555,
    "lon": 80.60973208,
    "communications": [],
    "elevation": 50,
    "tower": false,
    "name": "Gau",
    "runways": [
      {
        "type": 100,
        "width": 21.03,
        "surfaceType": null,
        "numberStart": "10",
        "numberEnd": "28",
        "latStart": -18.11383324,
        "lonStart": 179.33682803,
        "latEnd": -18.11736387,
        "lonEnd": 179.3428663,
        "length": 0,
        "surfacetype": 3
      }
    ],
    "id": 10353
  },
  {
    "type": 1,
    "icao": "NFMO",
    "lat": -18.5663799,
    "lon": 80.69039377499999,
    "communications": [],
    "elevation": 13,
    "tower": false,
    "name": "Moala",
    "runways": [
      {
        "type": 100,
        "width": 22.86,
        "surfaceType": null,
        "numberStart": "15",
        "numberEnd": "33",
        "latStart": -18.56377987,
        "lonStart": 179.94976748,
        "latEnd": -18.56897993,
        "lonEnd": 179.95159228,
        "length": 0,
        "surfacetype": 3
      }
    ],
    "id": 17331
  },
  {
    "type": 1,
    "icao": "NFNA",
    "lat": -18.04332836,
    "lon": 80.252402265,
    "communications": [
      {
        "type": 50,
        "frequency": 12850,
        "name": "TRML INFO"
      },
      {
        "type": 54,
        "frequency": 11970,
        "name": "TWR"
      },
      {
        "type": 55,
        "frequency": 11970,
        "name": "APP"
      }
    ],
    "elevation": 17,
    "tower": true,
    "name": "Nausori Intl",
    "runways": [
      {
        "type": 100,
        "width": 29.87,
        "surfaceType": null,
        "numberStart": "10",
        "numberEnd": "28",
        "latStart": -18.04055211,
        "lonStart": 178.55090914,
        "latEnd": -18.04610461,
        "lonEnd": 178.56758467,
        "length": 0,
        "surfacetype": 1
      }
    ],
    "id": 18154
  }
]