[
  {
    "type": 1,
    "icao": "3C8",
    "lat": 40.915175,
    "lon": -15.945129250000003,
    "communications": [],
    "elevation": 75,
    "tower": false,
    "name": "Calverton Executive Airpark",
    "runways": [
      {
        "type": 100,
        "width": 60.96,
        "surfaceType": null,
        "numberStart": "14",
        "numberEnd": "32",
        "latStart": 40.923831,
        "lonStart": -72.794022,
        "latEnd": 40.905769,
        "lonEnd": -72.766772,
        "length": 0,
        "surfacetype": 1
      },
      {
        "type": 100,
        "width": 60.96,
        "surfaceType": null,
        "numberStart": "05",
        "numberEnd": "23",
        "latStart": 40.907708,
        "lonStart": -72.815656,
        "latEnd": 40.923392,
        "lonEnd": -72.801022,
        "length": 0,
        "surfacetype": 1
      }
    ],
    "id": 4362
  },
  {
    "type": 1,
    "icao": "KHTO",
    "lat": 40.959614,
    "lon": -15.648831999999999,
    "communications": [
      {
        "type": 50,
        "frequency": 12270,
        "name": "AWOS-2"
      },
      {
        "type": 54,
        "frequency": 12522,
        "name": "Tower"
      },
      {
        "type": 53,
        "frequency": 12190,
        "name": "Ground"
      },
      {
        "type": 52,
        "frequency": 11895,
        "name": "NEW YORK CLNC DEL"
      },
      {
        "type": 55,
        "frequency": 13225,
        "name": "NEW YORK APP/DEP"
      }
    ],
    "elevation": 56,
    "tower": false,
    "name": "East Hampton",
    "runways": [
      {
        "type": 100,
        "width": 30.48,
        "surfaceType": null,
        "numberStart": "10",
        "numberEnd": "28",
        "latStart": 40.958883,
        "lonStart": -72.260306,
        "latEnd": 40.959103,
        "lonEnd": -72.244903,
        "length": 0,
        "surfacetype": 1
      },
      {
        "type": 100,
        "width": 22.86,
        "surfaceType": null,
        "numberStart": "16",
        "numberEnd": "34",
        "latStart": 40.962853,
        "lonStart": -72.251742,
        "latEnd": 40.957617,
        "lonEnd": -72.247608,
        "length": 0,
        "surfacetype": 1
      }
    ],
    "id": 6909
  },
  {
    "type": 1,
    "icao": "KFOK",
    "lat": 40.843214833333334,
    "lon": -15.8957755,
    "communications": [
      {
        "type": 50,
        "frequency": 11992,
        "name": "ASOS"
      },
      {
        "type": 51,
        "frequency": 12530,
        "name": "CTAF"
      },
      {
        "type": 51,
        "frequency": 12295,
        "name": "UNICOM"
      },
      {
        "type": 53,
        "frequency": 12180,
        "name": "GND"
      },
      {
        "type": 54,
        "frequency": 12530,
        "name": "TWR"
      },
      {
        "type": 55,
        "frequency": 11895,
        "name": "NEW YORK APP/DEP"
      }
    ],
    "elevation": 67,
    "tower": true,
    "name": "Francis S Gabreski",
    "runways": [
      {
        "type": 100,
        "width": 45.72,
        "surfaceType": null,
        "numberStart": "06",
        "numberEnd": "24",
        "latStart": 40.836239,
        "lonStart": -72.639008,
        "latEnd": 40.85445,
        "lonEnd": -72.617033,
        "length": 0,
        "surfacetype": 1
      },
      {
        "type": 100,
        "width": 45.72,
        "surfaceType": null,
        "numberStart": "01",
        "numberEnd": "19",
        "latStart": 40.834914,
        "lonStart": -72.636972,
        "latEnd": 40.848625,
        "lonEnd": -72.637764,
        "length": 0,
        "surfacetype": 1
      },
      {
        "type": 100,
        "width": 45.72,
        "surfaceType": null,
        "numberStart": "15",
        "numberEnd": "33",
        "latStart": 40.847167,
        "lonStart": -72.639642,
        "latEnd": 40.837894,
        "lonEnd": -72.626319,
        "length": 0,
        "surfacetype": 1
      }
    ],
    "id": 9663
  },
  {
    "type": 1,
    "icao": "21N",
    "lat": 40.987600549999996,
    "lon": -15.764043405000002,
    "communications": [],
    "elevation": 30,
    "tower": false,
    "name": "Mattituck Airbase",
    "runways": [
      {
        "type": 100,
        "width": 17.98,
        "surfaceType": null,
        "numberStart": "01",
        "numberEnd": "19",
        "latStart": 40.98459062,
        "lonStart": -72.51869729,
        "latEnd": 40.99061048,
        "lonEnd": -72.51925495,
        "length": 0,
        "surfacetype": 1
      }
    ],
    "id": 16817
  },
  {
    "type": 1,
    "icao": "1N2",
    "lat": 40.82634860500001,
    "lon": -15.961692449999997,
    "communications": [],
    "elevation": 50,
    "tower": false,
    "name": "Spadaro - Lufker",
    "runways": [
      {
        "type": 100,
        "width": 30.48,
        "surfaceType": null,
        "numberStart": "18L",
        "numberEnd": "36R",
        "latStart": 40.8217601,
        "lonStart": -72.74992458,
        "latEnd": 40.82788156,
        "lonEnd": -72.75194154,
        "length": 0,
        "surfacetype": 3
      },
      {
        "type": 100,
        "width": 6.1,
        "surfaceType": null,
        "numberStart": "18",
        "numberEnd": "36",
        "latStart": 40.83080403,
        "lonStart": -72.74967551,
        "latEnd": 40.82494873,
        "lonEnd": -72.74774617,
        "length": 0,
        "surfacetype": 1
      }
    ],
    "id": 23926
  },
  {
    "type": 1,
    "icao": "03NY",
    "lat": 40.95843166,
    "lon": -15.881319235000003,
    "communications": [],
    "elevation": 95,
    "tower": false,
    "name": "Talmage Fld",
    "runways": [
      {
        "type": 100,
        "width": 22.86,
        "surfaceType": null,
        "numberStart": "16",
        "numberEnd": "34",
        "latStart": 40.96070569,
        "lonStart": -72.7187961,
        "latEnd": 40.95615763,
        "lonEnd": -72.7147339,
        "length": 0,
        "surfacetype": 3
      }
    ],
    "id": 25001
  }
]