[
  {
    "type": 1,
    "icao": "3AK9",
    "lat": 70.5746425,
    "lon": -40.84544480500001,
    "communications": [],
    "elevation": 15,
    "tower": false,
    "name": "Kogru River",
    "runways": [
      {
        "type": 100,
        "width": 22.86,
        "surfaceType": null,
        "numberStart": "05",
        "numberEnd": "23",
        "latStart": 70.57412923,
        "lonStart": -152.26604538,
        "latEnd": 70.57515577,
        "lonEnd": -152.25152408,
        "length": 0,
        "surfacetype": 5
      }
    ],
    "id": 14037
  },
  {
    "type": 1,
    "icao": "PAQT",
    "lat": 70.2099445,
    "lon": -40.40502204,
    "communications": [
      {
        "type": 50,
        "frequency": 12250,
        "name": "ASOS"
      },
      {
        "type": 51,
        "frequency": 12280,
        "name": "CTAF"
      },
      {
        "type": 55,
        "frequency": 11940,
        "name": "ANCHORAGE CNTR"
      }
    ],
    "elevation": 38,
    "tower": false,
    "name": "NUIQSUT",
    "runways": [
      {
        "type": 100,
        "width": 27.13,
        "surfaceType": null,
        "numberStart": "04",
        "numberEnd": "22",
        "latStart": 70.20787868,
        "lonStart": -151.0220544,
        "latEnd": 70.21201032,
        "lonEnd": -150.98905329,
        "length": 0,
        "surfacetype": 5
      }
    ],
    "id": 18024
  }
]