[
  {
    "type": 1,
    "icao": "FCBB",
    "lat": -4.2516985,
    "lon": 15.253029000000002,
    "communications": [
      {
        "type": 54,
        "frequency": 12110,
        "name": "BRAZZAVILLE TWR"
      },
      {
        "type": 54,
        "frequency": 11870,
        "name": "BRAZZAVILLE TWR"
      }
    ],
    "elevation": 1048,
    "tower": true,
    "name": "MAYA MAYA",
    "runways": [
      {
        "type": 100,
        "width": 45.11,
        "surfaceType": null,
        "numberStart": "05",
        "numberEnd": "23",
        "latStart": -4.261272,
        "lonStart": 15.241625,
        "latEnd": -4.242125,
        "lonEnd": 15.264433,
        "length": 0,
        "surfacetype": 1
      }
    ],
    "id": 15944
  },
  {
    "type": 1,
    "icao": "FZAA",
    "lat": -4.38575,
    "lon": 15.4445695,
    "communications": [
      {
        "type": 53,
        "frequency": 12190,
        "name": "GND"
      },
      {
        "type": 54,
        "frequency": 11810,
        "name": "TWR"
      },
      {
        "type": 54,
        "frequency": 12810,
        "name": "A/G"
      },
      {
        "type": 54,
        "frequency": 11810,
        "name": "A/G"
      },
      {
        "type": 55,
        "frequency": 11970,
        "name": "APP"
      },
      {
        "type": 55,
        "frequency": 12050,
        "name": "APP"
      }
    ],
    "elevation": 1027,
    "tower": true,
    "name": "NDJILI INTL",
    "runways": [
      {
        "type": 100,
        "width": 60.05,
        "surfaceType": null,
        "numberStart": "06",
        "numberEnd": "24",
        "latStart": -4.397167,
        "lonStart": 15.426722,
        "latEnd": -4.374333,
        "lonEnd": 15.462417,
        "length": 0,
        "surfacetype": 2
      }
    ],
    "id": 17863
  },
  {
    "type": 1,
    "icao": "FZAB",
    "lat": -4.3266884999999995,
    "lon": 15.32734,
    "communications": [
      {
        "type": 54,
        "frequency": 11830,
        "name": "TWR"
      }
    ],
    "elevation": 915,
    "tower": true,
    "name": "NDOLO",
    "runways": [
      {
        "type": 100,
        "width": 29.87,
        "surfaceType": null,
        "numberStart": "08",
        "numberEnd": "26",
        "latStart": -4.329183,
        "lonStart": 15.320169,
        "latEnd": -4.324194,
        "lonEnd": 15.334511,
        "length": 0,
        "surfacetype": 1
      }
    ],
    "id": 17865
  }
]