[
  {
    "type": 1,
    "icao": "WBGJ",
    "lat": 4.8083015,
    "lon": 59.910061,
    "communications": [
      {
        "type": 53,
        "frequency": 12195,
        "name": "GND"
      },
      {
        "type": 54,
        "frequency": 11850,
        "name": "TWR"
      },
      {
        "type": 54,
        "frequency": 12430,
        "name": "TWR"
      }
    ],
    "elevation": 14,
    "tower": true,
    "name": "LIMBANG",
    "runways": [
      {
        "type": 100,
        "width": 29.87,
        "surfaceType": null,
        "numberStart": "04",
        "numberEnd": "22",
        "latStart": 4.802864,
        "lonStart": 115.006383,
        "latEnd": 4.813739,
        "lonEnd": 115.014492,
        "length": 0,
        "surfacetype": 1
      }
    ],
    "id": 14526
  },
  {
    "type": 1,
    "icao": "WBGD",
    "lat": 4.21517946,
    "lon": 59.903272990000005,
    "communications": [],
    "elevation": 2400,
    "tower": false,
    "name": "Long Semado",
    "runways": [
      {
        "type": 100,
        "width": 36.88,
        "surfaceType": null,
        "numberStart": "2",
        "numberEnd": "20",
        "latStart": 4.21309171,
        "lonStart": 115.58927877,
        "latEnd": 4.21726721,
        "lonEnd": 115.59143353,
        "length": 0,
        "surfacetype": 3
      }
    ],
    "id": 15470
  },
  {
    "type": 1,
    "icao": "WBMU",
    "lat": 4.0483335,
    "lon": 59.4275415,
    "communications": [
      {
        "type": 55,
        "frequency": 12170,
        "name": "TWR"
      },
      {
        "type": 55,
        "frequency": 12920,
        "name": "TWR"
      }
    ],
    "elevation": 80,
    "tower": false,
    "name": "MULU",
    "runways": [
      {
        "type": 100,
        "width": 30.48,
        "surfaceType": null,
        "numberStart": "03",
        "numberEnd": "21",
        "latStart": 4.04275,
        "lonStart": 114.801166,
        "latEnd": 4.053917,
        "lonEnd": 114.808834,
        "length": 0,
        "surfacetype": 1
      }
    ],
    "id": 16374
  },
  {
    "type": 1,
    "icao": "WBGM",
    "lat": 4.178507365,
    "lon": 59.252029154999995,
    "communications": [
      {
        "type": 54,
        "frequency": 12240,
        "name": "TWR"
      }
    ],
    "elevation": 52,
    "tower": true,
    "name": "Marudi",
    "runways": [
      {
        "type": 100,
        "width": 24.99,
        "surfaceType": null,
        "numberStart": "10",
        "numberEnd": "28",
        "latStart": 4.17958087,
        "lonStart": 114.32662445,
        "latEnd": 4.17743386,
        "lonEnd": 114.33577937,
        "length": 0,
        "surfacetype": 1
      }
    ],
    "id": 16762
  },
  {
    "type": 1,
    "icao": "WBGR",
    "lat": 4.322068,
    "lon": 59.157447,
    "communications": [
      {
        "type": 50,
        "frequency": 12700,
        "name": "ATIS"
      },
      {
        "type": 53,
        "frequency": 12190,
        "name": "GND"
      },
      {
        "type": 54,
        "frequency": 12330,
        "name": "TWR"
      },
      {
        "type": 55,
        "frequency": 12290,
        "name": "APP"
      },
      {
        "type": 55,
        "frequency": 12270,
        "name": "APP"
      }
    ],
    "elevation": 59,
    "tower": true,
    "name": "Miri",
    "runways": [
      {
        "type": 100,
        "width": 60.05,
        "surfaceType": null,
        "numberStart": "02",
        "numberEnd": "20",
        "latStart": 4.310828,
        "lonStart": 113.981586,
        "latEnd": 4.333308,
        "lonEnd": 113.992025,
        "length": 0,
        "surfacetype": 1
      }
    ],
    "id": 17293
  }
]