[
  {
    "type": 1,
    "icao": "EKRN",
    "lat": 55.06181951,
    "lon": 14.76429569,
    "communications": [
      {
        "type": 54,
        "frequency": 11832,
        "name": "RONNE TWR"
      }
    ],
    "elevation": 50,
    "tower": true,
    "name": "Bornholm Ronne",
    "runways": [
      {
        "type": 100,
        "width": 49.99,
        "surfaceType": null,
        "numberStart": "11",
        "numberEnd": "29",
        "latStart": 55.06541996,
        "lonStart": 14.75002692,
        "latEnd": 55.05821906,
        "lonEnd": 14.77856446,
        "length": 0,
        "surfacetype": 1
      }
    ],
    "id": 3022
  },
  {
    "type": 1,
    "icao": "ESMK",
    "lat": 55.9216865,
    "lon": 14.085535,
    "communications": [
      {
        "type": 54,
        "frequency": 12935,
        "name": "TWR"
      }
    ],
    "elevation": 75,
    "tower": true,
    "name": "Kristianstad",
    "runways": [
      {
        "type": 100,
        "width": 45.11,
        "surfaceType": null,
        "numberStart": "01",
        "numberEnd": "19",
        "latStart": 55.911817,
        "lonStart": 14.083331,
        "latEnd": 55.931556,
        "lonEnd": 14.087739,
        "length": 0,
        "surfacetype": 1
      }
    ],
    "id": 14140
  },
  {
    "type": 1,
    "icao": "EKRR",
    "lat": 55.21098734,
    "lon": 14.879577405,
    "communications": [],
    "elevation": 333,
    "tower": false,
    "name": "Roe",
    "runways": [
      {
        "type": 100,
        "width": 24.99,
        "surfaceType": null,
        "numberStart": "04",
        "numberEnd": "22",
        "latStart": 55.20929674,
        "lonStart": 14.87681945,
        "latEnd": 55.21267794,
        "lonEnd": 14.88233536,
        "length": 0,
        "surfacetype": 3
      }
    ],
    "id": 21656
  }
]