[
  {
    "type": 1,
    "icao": "PATU",
    "lat": 52.83053755,
    "lon": 113.00556211,
    "communications": [
      {
        "type": 51,
        "frequency": 12290,
        "name": "MULT"
      }
    ],
    "elevation": 39,
    "tower": false,
    "name": "Casco Cove CGS",
    "runways": [
      {
        "type": 100,
        "width": 46.02,
        "surfaceType": null,
        "numberStart": "02",
        "numberEnd": "20",
        "latStart": 52.82321555,
        "lonStart": 173.17326467,
        "latEnd": 52.83785955,
        "lonEnd": 173.18353467,
        "length": 0,
        "surfacetype": 1
      }
    ],
    "id": 4614
  },
  {
    "type": 1,
    "icao": "PASY",
    "lat": 52.712221,
    "lon": 113.400128,
    "communications": [
      {
        "type": 50,
        "frequency": 13565,
        "name": "ASOS"
      },
      {
        "type": 51,
        "frequency": 12720,
        "name": "CTAF"
      }
    ],
    "elevation": 98,
    "tower": true,
    "name": "EARECKSON AS",
    "runways": [
      {
        "type": 100,
        "width": 45.72,
        "surfaceType": null,
        "numberStart": "10",
        "numberEnd": "28",
        "latStart": 52.716228,
        "lonStart": 174.092042,
        "latEnd": 52.708214,
        "lonEnd": 174.135194,
        "length": 0,
        "surfacetype": 1
      }
    ],
    "id": 6623
  }
]