[
  {
    "type": 1,
    "icao": "VTSD",
    "lat": 10.505419360000001,
    "lon": 99.08499589499999,
    "communications": [],
    "elevation": 100,
    "tower": false,
    "name": "Chumphon West",
    "runways": [
      {
        "type": 100,
        "width": 14.94,
        "surfaceType": null,
        "numberStart": "6",
        "numberEnd": "24",
        "latStart": 10.50425481,
        "lonStart": 99.08280148,
        "latEnd": 10.50658391,
        "lonEnd": 99.08719031,
        "length": 0,
        "surfacetype": 3
      }
    ],
    "id": 31089
  },
  {
    "type": 1,
    "icao": "VTSE",
    "lat": 10.7112,
    "lon": 99.3617055,
    "communications": [
      {
        "type": 53,
        "frequency": 12215,
        "name": "GND"
      },
      {
        "type": 54,
        "frequency": 12215,
        "name": "TWR"
      },
      {
        "type": 55,
        "frequency": 11975,
        "name": "APP"
      },
      {
        "type": 55,
        "frequency": 12960,
        "name": "APP"
      }
    ],
    "elevation": 18,
    "tower": true,
    "name": "Chumphon",
    "runways": [
      {
        "type": 100,
        "width": 45.11,
        "surfaceType": null,
        "numberStart": "06",
        "numberEnd": "24",
        "latStart": 10.706453,
        "lonStart": 99.353372,
        "latEnd": 10.715947,
        "lonEnd": 99.370039,
        "length": 0,
        "surfacetype": 1
      }
    ],
    "id": 31090
  }
]