[
  {
    "type": 1,
    "icao": "PAAM",
    "lat": 53.97206833,
    "lon": -166.85750351500002,
    "communications": [],
    "elevation": 23,
    "tower": false,
    "name": "Driftwood Bay Air Force Station",
    "runways": [
      {
        "type": 100,
        "width": 30.48,
        "surfaceType": null,
        "numberStart": "15",
        "numberEnd": "33",
        "latStart": 53.97642811,
        "lonStart": -166.86097907,
        "latEnd": 53.96770855,
        "lonEnd": -166.85402796,
        "length": 0,
        "surfacetype": 5
      }
    ],
    "id": 4361
  },
  {
    "type": 1,
    "icao": "PADU",
    "lat": 53.898912415,
    "lon": -166.54498158,
    "communications": [
      {
        "type": 50,
        "frequency": 12580,
        "name": "AWOS 3"
      },
      {
        "type": 51,
        "frequency": 12260,
        "name": "CTAF"
      },
      {
        "type": 55,
        "frequency": 12140,
        "name": "ANCHORAGE APP"
      },
      {
        "type": 56,
        "frequency": 12140,
        "name": "ANCHORAGE DEP"
      }
    ],
    "elevation": 20,
    "tower": false,
    "name": "UNALASKA",
    "runways": [
      {
        "type": 100,
        "width": 30.48,
        "surfaceType": null,
        "numberStart": "13",
        "numberEnd": "31",
        "latStart": 53.90300564,
        "lonStart": -166.55177,
        "latEnd": 53.89481919,
        "lonEnd": -166.53819316,
        "length": 0,
        "surfacetype": 1
      }
    ],
    "id": 4367
  }
]