[
  {
    "type": 1,
    "icao": "TJAB",
    "lat": 18.450602019999998,
    "lon": -66.67602412,
    "communications": [
      {
        "type": 51,
        "frequency": 12280,
        "name": "CTAF/UNICOM"
      }
    ],
    "elevation": 22,
    "tower": false,
    "name": "Arecibo/Antonio Nery Juarbe Pol",
    "runways": [
      {
        "type": 100,
        "width": 22,
        "surfaceType": null,
        "numberStart": "08",
        "numberEnd": "26",
        "latStart": 18.44856002,
        "lonStart": -66.68130062,
        "latEnd": 18.45264402,
        "lonEnd": -66.67074762,
        "length": 0,
        "surfacetype": 1
      }
    ],
    "id": 5007
  },
  {
    "type": 1,
    "icao": "TJIG",
    "lat": 18.456789999999998,
    "lon": -66.09846200000001,
    "communications": [
      {
        "type": 50,
        "frequency": 12040,
        "name": "ATIS"
      },
      {
        "type": 51,
        "frequency": 13587,
        "name": "CTAF"
      },
      {
        "type": 53,
        "frequency": 12170,
        "name": "GND"
      },
      {
        "type": 54,
        "frequency": 13587,
        "name": "TWR"
      },
      {
        "type": 55,
        "frequency": 11940,
        "name": "SAN JUAN CNTR"
      },
      {
        "type": 55,
        "frequency": 12090,
        "name": "SAN JUAN CNTR"
      }
    ],
    "elevation": 9,
    "tower": true,
    "name": "Fernando Luis Ribas Dominicci",
    "runways": [
      {
        "type": 100,
        "width": 29.87,
        "surfaceType": null,
        "numberStart": "09",
        "numberEnd": "27",
        "latStart": 18.455835,
        "lonStart": -66.106395,
        "latEnd": 18.457745,
        "lonEnd": -66.090529,
        "length": 0,
        "surfacetype": 1
      }
    ],
    "id": 5010
  },
  {
    "type": 1,
    "icao": "TJPS",
    "lat": 18.00918099,
    "lon": -66.56325573999999,
    "communications": [
      {
        "type": 51,
        "frequency": 12270,
        "name": "CTAF/UNICOM"
      },
      {
        "type": 52,
        "frequency": 12190,
        "name": "CLNC DEL"
      },
      {
        "type": 54,
        "frequency": 11875,
        "name": "SAN JUAN CNTR"
      }
    ],
    "elevation": 28,
    "tower": true,
    "name": "Ponce/Mercedita",
    "runways": [
      {
        "type": 100,
        "width": 44,
        "surfaceType": null,
        "numberStart": "12",
        "numberEnd": "30",
        "latStart": 18.01217553,
        "lonStart": -66.57548259,
        "latEnd": 18.00539053,
        "lonEnd": -66.55357559,
        "length": 0,
        "surfacetype": 1
      },
      {
        "type": 102,
        "width": 20.5,
        "surfaceType": 15,
        "numberStart": "H49",
        "numberEnd": null,
        "latStart": 18.00997691,
        "lonStart": -66.56070904,
        "latEnd": null,
        "lonEnd": null,
        "length": 20.8
      }
    ],
    "id": 5012
  },
  {
    "type": 1,
    "icao": "TJSJ",
    "lat": 18.438734107500004,
    "lon": -66.002121405,
    "communications": [
      {
        "type": 50,
        "frequency": 12580,
        "name": "ATIS"
      },
      {
        "type": 51,
        "frequency": 12300,
        "name": "UNICOM"
      },
      {
        "type": 52,
        "frequency": 12640,
        "name": "SAN JUAN CLNC DEL"
      },
      {
        "type": 53,
        "frequency": 12190,
        "name": "GND"
      },
      {
        "type": 54,
        "frequency": 13205,
        "name": "SAN JUAN TWR"
      },
      {
        "type": 55,
        "frequency": 12090,
        "name": "SAN JUAN APP"
      }
    ],
    "elevation": 7,
    "tower": true,
    "name": "San Juan - Luis Munoz Marin Intl",
    "runways": [
      {
        "type": 100,
        "width": 60.96,
        "surfaceType": null,
        "numberStart": "08",
        "numberEnd": "26",
        "latStart": 18.43833219,
        "lonStart": -66.01590621,
        "latEnd": 18.44953724,
        "lonEnd": -65.98825141,
        "length": 0,
        "surfacetype": 1
      },
      {
        "type": 100,
        "width": 46.02,
        "surfaceType": null,
        "numberStart": "10",
        "numberEnd": "28",
        "latStart": 18.433561,
        "lonStart": -66.013728,
        "latEnd": 18.433506,
        "lonEnd": -65.9906,
        "length": 0,
        "surfacetype": 2
      }
    ],
    "id": 5014
  },
  {
    "type": 17,
    "icao": "PR11",
    "lat": 18.41522527,
    "lon": -66.12683306,
    "communications": [],
    "elevation": 60,
    "tower": false,
    "name": "[H] Rexach Office Building",
    "runways": [
      {
        "type": 102,
        "width": 11,
        "surfaceType": 2,
        "numberStart": "H1",
        "numberEnd": null,
        "latStart": 18.41522527,
        "lonStart": -66.12683306,
        "latEnd": null,
        "lonEnd": null,
        "length": 11
      }
    ],
    "id": 24161
  },
  {
    "type": 17,
    "icao": "PR12",
    "lat": 18.44938972,
    "lon": -66.06655445,
    "communications": [],
    "elevation": 269,
    "tower": false,
    "name": "[H] State Government Number One",
    "runways": [
      {
        "type": 102,
        "width": 15.2,
        "surfaceType": 2,
        "numberStart": "H1",
        "numberEnd": null,
        "latStart": 18.44938972,
        "lonStart": -66.06655445,
        "latEnd": null,
        "lonEnd": null,
        "length": 18.3
      }
    ],
    "id": 24162
  },
  {
    "type": 17,
    "icao": "PR13",
    "lat": 18.41744722,
    "lon": -66.07766584,
    "communications": [],
    "elevation": 166,
    "tower": false,
    "name": "[H] Insular Government Number Two",
    "runways": [
      {
        "type": 102,
        "width": 15.2,
        "surfaceType": 2,
        "numberStart": "H1",
        "numberEnd": null,
        "latStart": 18.41744722,
        "lonStart": -66.07766584,
        "latEnd": null,
        "lonEnd": null,
        "length": 18.3
      }
    ],
    "id": 24163
  },
  {
    "type": 17,
    "icao": "PR14",
    "lat": 18.21106749,
    "lon": -66.62933973,
    "communications": [],
    "elevation": 1461,
    "tower": false,
    "name": "[H] Orama-Iayuya",
    "runways": [
      {
        "type": 102,
        "width": 9.1,
        "surfaceType": 2,
        "numberStart": "H1",
        "numberEnd": null,
        "latStart": 18.21106749,
        "lonStart": -66.62933973,
        "latEnd": null,
        "lonEnd": null,
        "length": 9.1
      }
    ],
    "id": 24164
  },
  {
    "type": 17,
    "icao": "PR16",
    "lat": 18.42744638,
    "lon": -66.05877667,
    "communications": [],
    "elevation": 213,
    "tower": false,
    "name": "[H] Banco Popular Center",
    "runways": [
      {
        "type": 102,
        "width": 8.5,
        "surfaceType": 2,
        "numberStart": "H1",
        "numberEnd": null,
        "latStart": 18.42744638,
        "lonStart": -66.05877667,
        "latEnd": null,
        "lonEnd": null,
        "length": 9.4
      }
    ],
    "id": 24166
  },
  {
    "type": 17,
    "icao": "PR17",
    "lat": 18.41411361,
    "lon": -66.04377667,
    "communications": [],
    "elevation": 163,
    "tower": false,
    "name": "[H] Prasa-Barbosa",
    "runways": [
      {
        "type": 102,
        "width": 13.4,
        "surfaceType": 2,
        "numberStart": "H1",
        "numberEnd": null,
        "latStart": 18.41411361,
        "lonStart": -66.04377667,
        "latEnd": null,
        "lonEnd": null,
        "length": 13.4
      }
    ],
    "id": 24167
  },
  {
    "type": 17,
    "icao": "PR19",
    "lat": 18.2266225,
    "lon": -66.39433695,
    "communications": [],
    "elevation": 1715,
    "tower": false,
    "name": "[H] Orocovis Health Center",
    "runways": [
      {
        "type": 102,
        "width": 15.9,
        "surfaceType": 2,
        "numberStart": "H1",
        "numberEnd": null,
        "latStart": 18.2266225,
        "lonStart": -66.39433695,
        "latEnd": null,
        "lonEnd": null,
        "length": 18.3
      }
    ],
    "id": 24169
  },
  {
    "type": 17,
    "icao": "PR20",
    "lat": 18.46327833,
    "lon": -66.11072167,
    "communications": [],
    "elevation": 48,
    "tower": false,
    "name": "[H] Old San Juan",
    "runways": [
      {
        "type": 102,
        "width": 18.3,
        "surfaceType": 2,
        "numberStart": "H1",
        "numberEnd": null,
        "latStart": 18.46327833,
        "lonStart": -66.11072167,
        "latEnd": null,
        "lonEnd": null,
        "length": 45.7
      }
    ],
    "id": 24170
  },
  {
    "type": 17,
    "icao": "PR21",
    "lat": 18.415,
    "lon": -66.13194445,
    "communications": [],
    "elevation": 33,
    "tower": false,
    "name": "[H] Fort Buchanan",
    "runways": [
      {
        "type": 102,
        "width": 15.2,
        "surfaceType": 2,
        "numberStart": "H1",
        "numberEnd": null,
        "latStart": 18.415,
        "lonStart": -66.13194445,
        "latEnd": null,
        "lonEnd": null,
        "length": 15.2
      }
    ],
    "id": 24171
  },
  {
    "type": 17,
    "icao": "PR23",
    "lat": 18.13968166,
    "lon": -66.26627917,
    "communications": [],
    "elevation": 1834,
    "tower": false,
    "name": "[H] Baxter-Aibonito",
    "runways": [
      {
        "type": 102,
        "width": 18.3,
        "surfaceType": 2,
        "numberStart": "H1",
        "numberEnd": null,
        "latStart": 18.13968166,
        "lonStart": -66.26627917,
        "latEnd": null,
        "lonEnd": null,
        "length": 18.3
      }
    ],
    "id": 24172
  },
  {
    "type": 17,
    "icao": "PR30",
    "lat": 18.41105888,
    "lon": -66.10155501,
    "communications": [],
    "elevation": 173,
    "tower": false,
    "name": "[H] PRTC Office Building",
    "runways": [
      {
        "type": 102,
        "width": 9.1,
        "surfaceType": 2,
        "numberStart": "H1",
        "numberEnd": null,
        "latStart": 18.41105888,
        "lonStart": -66.10155501,
        "latEnd": null,
        "lonEnd": null,
        "length": 14.3
      }
    ],
    "id": 24175
  },
  {
    "type": 17,
    "icao": "PR31",
    "lat": 18.4280025,
    "lon": -66.10544389,
    "communications": [],
    "elevation": 60,
    "tower": false,
    "name": "[H] San Juan Steam Plant",
    "runways": [
      {
        "type": 102,
        "width": 12.2,
        "surfaceType": 1,
        "numberStart": "H1",
        "numberEnd": null,
        "latStart": 18.4280025,
        "lonStart": -66.10544389,
        "latEnd": null,
        "lonEnd": null,
        "length": 12.2
      }
    ],
    "id": 24176
  },
  {
    "type": 17,
    "icao": "X62",
    "lat": 18.36744972,
    "lon": -66.15377806,
    "communications": [],
    "elevation": 108,
    "tower": false,
    "name": "[H] Bayamon Regional Hospital",
    "runways": [
      {
        "type": 102,
        "width": 12.2,
        "surfaceType": 1,
        "numberStart": "H1",
        "numberEnd": null,
        "latStart": 18.36744972,
        "lonStart": -66.15377806,
        "latEnd": null,
        "lonEnd": null,
        "length": 12.2
      }
    ],
    "id": 32385
  }
]