[
  {
    "type": 1,
    "icao": "GMMB",
    "lat": 33.6554235,
    "lon": -7.2214485,
    "communications": [
      {
        "type": 54,
        "frequency": 11820,
        "name": "TWR"
      },
      {
        "type": 55,
        "frequency": 12130,
        "name": "APP"
      }
    ],
    "elevation": 626,
    "tower": true,
    "name": "BEN SLIMANE",
    "runways": [
      {
        "type": 100,
        "width": 45.72,
        "surfaceType": null,
        "numberStart": "14",
        "numberEnd": "32",
        "latStart": 33.666244,
        "lonStart": -7.231803,
        "latEnd": 33.644603,
        "lonEnd": -7.211094,
        "length": 0,
        "surfacetype": 1
      }
    ],
    "id": 17770
  },
  {
    "type": 1,
    "icao": "GMMN",
    "lat": 33.367465749999994,
    "lon": -7.589964,
    "communications": [
      {
        "type": 50,
        "frequency": 12630,
        "name": "ATIS"
      },
      {
        "type": 54,
        "frequency": 11990,
        "name": "TWR"
      },
      {
        "type": 54,
        "frequency": 11850,
        "name": "TWR"
      },
      {
        "type": 55,
        "frequency": 12130,
        "name": "APP"
      }
    ],
    "elevation": 655,
    "tower": true,
    "name": "Casablanca Mohammed V Intl",
    "runways": [
      {
        "type": 100,
        "width": 45.11,
        "surfaceType": null,
        "numberStart": "17L",
        "numberEnd": "35R",
        "latStart": 33.384044,
        "lonStart": -7.593517,
        "latEnd": 33.351836,
        "lonEnd": -7.582486,
        "length": 0,
        "surfacetype": 1
      },
      {
        "type": 100,
        "width": 45.11,
        "surfaceType": null,
        "numberStart": "17R",
        "numberEnd": "35L",
        "latStart": 33.383058,
        "lonStart": -7.597431,
        "latEnd": 33.350925,
        "lonEnd": -7.586422,
        "length": 0,
        "surfacetype": 1
      }
    ],
    "id": 17773
  }
]