[
  {
    "type": 1,
    "icao": "LFAC",
    "lat": 50.96065000000001,
    "lon": 18.287876666666666,
    "communications": [
      {
        "type": 50,
        "frequency": 13544,
        "name": "LFAC ATIS"
      },
      {
        "type": 51,
        "frequency": 12892,
        "name": "CALAIS-DUNKERQUE MULT"
      },
      {
        "type": 54,
        "frequency": 12892,
        "name": "CALAIS TWR"
      },
      {
        "type": 55,
        "frequency": 12027,
        "name": "LILLE APP"
      }
    ],
    "elevation": 9,
    "tower": true,
    "name": "Calais Dunkerque",
    "runways": [
      {
        "type": 100,
        "width": 45.11,
        "surfaceType": null,
        "numberStart": "06",
        "numberEnd": "24",
        "latStart": 50.958751,
        "lonStart": 1.945139,
        "latEnd": 50.965445,
        "lonEnd": 1.964289,
        "length": 0,
        "surfacetype": 1
      },
      {
        "type": 102,
        "width": 21.3,
        "surfaceType": 1,
        "numberStart": "H1",
        "numberEnd": null,
        "latStart": 50.957754,
        "lonStart": 1.953046,
        "latEnd": null,
        "lonEnd": null,
        "length": 21.3
      }
    ],
    "id": 4332
  },
  {
    "type": 1,
    "icao": "EGKA",
    "lat": 50.83528090636364,
    "lon": 18.298269512727273,
    "communications": [
      {
        "type": 50,
        "frequency": 12530,
        "name": "Shoreham Information"
      },
      {
        "type": 54,
        "frequency": 12315,
        "name": "Shoreham Tower"
      },
      {
        "type": 54,
        "frequency": 12540,
        "name": "Shoreham Tower"
      },
      {
        "type": 55,
        "frequency": 12315,
        "name": "Shoreham Apporach"
      }
    ],
    "elevation": 6,
    "tower": true,
    "name": "Shoreham",
    "runways": [
      {
        "type": 100,
        "width": 17.98,
        "surfaceType": null,
        "numberStart": "02",
        "numberEnd": "20",
        "latStart": 50.83133847,
        "lonStart": -0.29994016,
        "latEnd": 50.8400063,
        "lonEnd": -0.29451592,
        "length": 0,
        "surfacetype": 1
      },
      {
        "type": 100,
        "width": 17.98,
        "surfaceType": null,
        "numberStart": "02R",
        "numberEnd": "20L",
        "latStart": 50.8326973,
        "lonStart": -0.29824914,
        "latEnd": 50.83975808,
        "lonEnd": -0.293836,
        "length": 0,
        "surfacetype": 3
      },
      {
        "type": 100,
        "width": 49.99,
        "surfaceType": null,
        "numberStart": "07",
        "numberEnd": "25",
        "latStart": 50.832647,
        "lonStart": -0.30007501,
        "latEnd": 50.83617781,
        "lonEnd": -0.28888292,
        "length": 0,
        "surfacetype": 3
      },
      {
        "type": 100,
        "width": 17.98,
        "surfaceType": null,
        "numberStart": "13",
        "numberEnd": "31",
        "latStart": 50.838339,
        "lonStart": -0.294522,
        "latEnd": 50.83561236,
        "lonEnd": -0.28833433,
        "length": 0,
        "surfacetype": 3
      },
      {
        "type": 102,
        "width": 11.9,
        "surfaceType": 2,
        "numberStart": "H1",
        "numberEnd": null,
        "latStart": 50.83368528,
        "lonStart": -0.29238953,
        "latEnd": null,
        "lonEnd": null,
        "length": 11.9
      },
      {
        "type": 102,
        "width": 11.9,
        "surfaceType": 2,
        "numberStart": "H2",
        "numberEnd": null,
        "latStart": 50.83394701,
        "lonStart": -0.29250161,
        "latEnd": null,
        "lonEnd": null,
        "length": 11.9
      },
      {
        "type": 102,
        "width": 12.5,
        "surfaceType": 2,
        "numberStart": "H3",
        "numberEnd": null,
        "latStart": 50.83388136,
        "lonStart": -0.29291246,
        "latEnd": null,
        "lonEnd": null,
        "length": 11.9
      }
    ],
    "id": 23447
  }
]