[
  {
    "type": 1,
    "icao": "YPAD",
    "lat": -34.945225216666664,
    "lon": 138.52900929166668,
    "communications": [
      {
        "type": 50,
        "frequency": 13450,
        "name": "YPAD ATIS"
      },
      {
        "type": 52,
        "frequency": 12610,
        "name": "ADELAIDE CLD"
      },
      {
        "type": 53,
        "frequency": 12170,
        "name": "ADELAIDE GND"
      },
      {
        "type": 54,
        "frequency": 12050,
        "name": "ADELAIDE TWR"
      },
      {
        "type": 55,
        "frequency": 11820,
        "name": "ADELAIDE APP"
      },
      {
        "type": 55,
        "frequency": 12305,
        "name": "ADELAIDE APP"
      },
      {
        "type": 55,
        "frequency": 12420,
        "name": "ADELAIDE APP"
      },
      {
        "type": 55,
        "frequency": 12860,
        "name": "ADELAIDE APP"
      },
      {
        "type": 55,
        "frequency": 13044,
        "name": "ADELAIDE APP"
      },
      {
        "type": 55,
        "frequency": 12530,
        "name": "ADELAIDE APP"
      },
      {
        "type": 55,
        "frequency": 12705,
        "name": "ADELAIDE APP"
      },
      {
        "type": 56,
        "frequency": 11820,
        "name": "ADELAIDE APPROACH DEP"
      },
      {
        "type": 56,
        "frequency": 12420,
        "name": "ADELAIDE DEP"
      },
      {
        "type": 56,
        "frequency": 12860,
        "name": "ADELAIDE DEP"
      }
    ],
    "elevation": 20,
    "tower": true,
    "name": "Adelaide Intl",
    "runways": [
      {
        "type": 100,
        "width": 46.02,
        "surfaceType": null,
        "numberStart": "05",
        "numberEnd": "23",
        "latStart": -34.95853269,
        "lonStart": 138.51720167,
        "latEnd": -34.94061833,
        "lonEnd": 138.54327251,
        "length": 0,
        "surfacetype": 1
      },
      {
        "type": 100,
        "width": 46.02,
        "surfaceType": null,
        "numberStart": "12",
        "numberEnd": "30",
        "latStart": -34.94116351,
        "lonStart": 138.52191652,
        "latEnd": -34.94939012,
        "lonEnd": 138.537007,
        "length": 0,
        "surfacetype": 1
      },
      {
        "type": 102,
        "width": 32.5,
        "surfaceType": 15,
        "numberStart": "H1",
        "numberEnd": null,
        "latStart": -34.93512498,
        "lonStart": 138.53191602,
        "latEnd": null,
        "lonEnd": null,
        "length": 33.5
      },
      {
        "type": 102,
        "width": 39.9,
        "surfaceType": 15,
        "numberStart": "H2",
        "numberEnd": null,
        "latStart": -34.94652167,
        "lonStart": 138.52274203,
        "latEnd": null,
        "lonEnd": null,
        "length": 39.6
      }
    ],
    "id": 573
  },
  {
    "type": 1,
    "icao": "YPPF",
    "lat": -34.794570470000004,
    "lon": 138.633134699,
    "communications": [
      {
        "type": 50,
        "frequency": 12090,
        "name": "ATIS"
      },
      {
        "type": 51,
        "frequency": 11870,
        "name": "CTAF"
      },
      {
        "type": 53,
        "frequency": 11990,
        "name": "PARAFIELD GND"
      },
      {
        "type": 54,
        "frequency": 12460,
        "name": "PARAFIELD TWR"
      }
    ],
    "elevation": 57,
    "tower": true,
    "name": "Adelaide Parafield",
    "runways": [
      {
        "type": 100,
        "width": 17.98,
        "surfaceType": null,
        "numberStart": "03L",
        "numberEnd": "21R",
        "latStart": -34.80376534,
        "lonStart": 138.63063736,
        "latEnd": -34.79304647,
        "lonEnd": 138.63762046,
        "length": 0,
        "surfacetype": 1
      },
      {
        "type": 100,
        "width": 17.98,
        "surfaceType": null,
        "numberStart": "03R",
        "numberEnd": "21L",
        "latStart": -34.80215091,
        "lonStart": 138.63432711,
        "latEnd": -34.79199859,
        "lonEnd": 138.64095065,
        "length": 0,
        "surfacetype": 1
      },
      {
        "type": 100,
        "width": 17.98,
        "surfaceType": null,
        "numberStart": "08R",
        "numberEnd": "26L",
        "latStart": -34.79557361,
        "lonStart": 138.62329684,
        "latEnd": -34.79476203,
        "lonEnd": 138.63409681,
        "length": 0,
        "surfacetype": 1
      },
      {
        "type": 100,
        "width": 17.98,
        "surfaceType": null,
        "numberStart": "08L",
        "numberEnd": "26R",
        "latStart": -34.79353724,
        "lonStart": 138.62475126,
        "latEnd": -34.79274659,
        "lonEnd": 138.63519352,
        "length": 0,
        "surfacetype": 1
      },
      {
        "type": 102,
        "width": 29.8,
        "surfaceType": 1,
        "numberStart": "H1",
        "numberEnd": null,
        "latStart": -34.78837481,
        "lonStart": 138.63079826,
        "latEnd": null,
        "lonEnd": null,
        "length": 29.7
      },
      {
        "type": 102,
        "width": 21.7,
        "surfaceType": 15,
        "numberStart": "H2",
        "numberEnd": null,
        "latStart": -34.78974911,
        "lonStart": 138.63967472,
        "latEnd": null,
        "lonEnd": null,
        "length": 21.9
      }
    ],
    "id": 574
  },
  {
    "type": 1,
    "icao": "YBVA",
    "lat": -34.0909802475,
    "lon": 138.340316005,
    "communications": [],
    "elevation": 160,
    "tower": false,
    "name": "BALAKLAVA",
    "runways": [
      {
        "type": 100,
        "width": 10.06,
        "surfaceType": null,
        "numberStart": "13",
        "numberEnd": "31",
        "latStart": -34.08830406,
        "lonStart": 138.33644416,
        "latEnd": -34.09559301,
        "lonEnd": 138.34566378,
        "length": 0,
        "surfacetype": 4
      },
      {
        "type": 100,
        "width": 13.11,
        "surfaceType": null,
        "numberStart": "16",
        "numberEnd": "34",
        "latStart": -34.08499424,
        "lonStart": 138.33843702,
        "latEnd": -34.09502968,
        "lonEnd": 138.34071906,
        "length": 0,
        "surfacetype": 4
      }
    ],
    "id": 1458
  },
  {
    "type": 1,
    "icao": "YCVG",
    "lat": -34.691800885000006,
    "lon": 138.581249625,
    "communications": [
      {
        "type": 51,
        "frequency": 11830,
        "name": "CTAF"
      }
    ],
    "elevation": 42,
    "tower": false,
    "name": "Calvin Grove",
    "runways": [
      {
        "type": 100,
        "width": 11.1,
        "surfaceType": null,
        "numberStart": "02",
        "numberEnd": "20",
        "latStart": -34.69383238,
        "lonStart": 138.57995686,
        "latEnd": -34.68976939,
        "lonEnd": 138.58254239,
        "length": 0,
        "surfacetype": 4
      }
    ],
    "id": 4363
  },
  {
    "type": 1,
    "icao": "YPED",
    "lat": -34.705856156,
    "lon": 138.62032617,
    "communications": [
      {
        "type": 51,
        "frequency": 11830,
        "name": "CTAF"
      },
      {
        "type": 53,
        "frequency": 13410,
        "name": "GND"
      },
      {
        "type": 54,
        "frequency": 11830,
        "name": "TWR"
      },
      {
        "type": 55,
        "frequency": 12860,
        "name": "ADELAIDE APP"
      }
    ],
    "elevation": 67,
    "tower": true,
    "name": "Edinburgh",
    "runways": [
      {
        "type": 100,
        "width": 49.99,
        "surfaceType": null,
        "numberStart": "04",
        "numberEnd": "22",
        "latStart": -34.71079974,
        "lonStart": 138.61667788,
        "latEnd": -34.6996875,
        "lonEnd": 138.63163748,
        "length": 0,
        "surfacetype": 3
      },
      {
        "type": 100,
        "width": 46.02,
        "surfaceType": null,
        "numberStart": "18",
        "numberEnd": "36",
        "latStart": -34.69454744,
        "lonStart": 138.61757798,
        "latEnd": -34.71737414,
        "lonEnd": 138.61342819,
        "length": 0,
        "surfacetype": 1
      },
      {
        "type": 102,
        "width": 17.98,
        "surfaceType": 1,
        "numberStart": "H1",
        "numberEnd": null,
        "latStart": -34.70687196,
        "lonStart": 138.62230932,
        "latEnd": null,
        "lonEnd": null,
        "length": 17.98
      }
    ],
    "id": 6965
  },
  {
    "type": 1,
    "icao": "YGAW",
    "lat": -34.598906459999995,
    "lon": 138.7192564675,
    "communications": [
      {
        "type": 51,
        "frequency": 12670,
        "name": "CTAF"
      }
    ],
    "elevation": 165,
    "tower": false,
    "name": "Gawler",
    "runways": [
      {
        "type": 100,
        "width": 42.06,
        "surfaceType": null,
        "numberStart": "5",
        "numberEnd": "23",
        "latStart": -34.602058,
        "lonStart": 138.71542416,
        "latEnd": -34.59554404,
        "lonEnd": 138.72607893,
        "length": 0,
        "surfacetype": 4
      },
      {
        "type": 100,
        "width": 42.06,
        "surfaceType": null,
        "numberStart": "13",
        "numberEnd": "31",
        "latStart": -34.59500594,
        "lonStart": 138.71350096,
        "latEnd": -34.60301786,
        "lonEnd": 138.72202182,
        "length": 0,
        "surfacetype": 4
      }
    ],
    "id": 10357
  },
  {
    "type": 1,
    "icao": "YKAP",
    "lat": -34.24680566000001,
    "lon": 138.91391834,
    "communications": [],
    "elevation": 1193,
    "tower": false,
    "name": "KAPUNDA",
    "runways": [
      {
        "type": 100,
        "width": 27.13,
        "surfaceType": null,
        "numberStart": "15",
        "numberEnd": "33",
        "latStart": -34.24421645,
        "lonStart": 138.91251832,
        "latEnd": -34.24939487,
        "lonEnd": 138.91531836,
        "length": 0,
        "surfacetype": 4
      }
    ],
    "id": 13237
  },
  {
    "type": 1,
    "icao": "YLLT",
    "lat": -34.5152796275,
    "lon": 138.4277607825,
    "communications": [],
    "elevation": 55,
    "tower": false,
    "name": "LOWER LIGHT",
    "runways": [
      {
        "type": 100,
        "width": 15.85,
        "surfaceType": null,
        "numberStart": "5",
        "numberEnd": "23",
        "latStart": -34.5175309,
        "lonStart": 138.42495394,
        "latEnd": -34.51322693,
        "lonEnd": 138.43371026,
        "length": 0,
        "surfacetype": 4
      },
      {
        "type": 100,
        "width": 13.11,
        "surfaceType": null,
        "numberStart": "1",
        "numberEnd": "19",
        "latStart": -34.51721123,
        "lonStart": 138.42554304,
        "latEnd": -34.51314945,
        "lonEnd": 138.42683589,
        "length": 0,
        "surfacetype": 4
      }
    ],
    "id": 14643
  },
  {
    "type": 1,
    "icao": "YLLL",
    "lat": -34.45399829,
    "lon": 138.52830873,
    "communications": [],
    "elevation": 145,
    "tower": false,
    "name": "MALLALA",
    "runways": [
      {
        "type": 100,
        "width": 20.12,
        "surfaceType": null,
        "numberStart": "5",
        "numberEnd": "23",
        "latStart": -34.45621329,
        "lonStart": 138.52497473,
        "latEnd": -34.45178329,
        "lonEnd": 138.53164273,
        "length": 0,
        "surfacetype": 3
      }
    ],
    "id": 15746
  },
  {
    "type": 1,
    "icao": "YPWF",
    "lat": -34.192398385000004,
    "lon": 138.15643462,
    "communications": [],
    "elevation": 26,
    "tower": false,
    "name": "PORT WAKEFIELD",
    "runways": [
      {
        "type": 100,
        "width": 17.98,
        "surfaceType": null,
        "numberStart": "17",
        "numberEnd": "35",
        "latStart": -34.19022343,
        "lonStart": 138.15633972,
        "latEnd": -34.19457334,
        "lonEnd": 138.15652952,
        "length": 0,
        "surfacetype": 3
      }
    ],
    "id": 19498
  },
  {
    "type": 17,
    "icao": "YAIW",
    "lat": -34.69708496,
    "lon": 138.56511675,
    "communications": [],
    "elevation": 41,
    "tower": false,
    "name": "[H] ADELAIDE INTL RACEWAY",
    "runways": [
      {
        "type": 102,
        "width": 50,
        "surfaceType": 3,
        "numberStart": "H27",
        "numberEnd": null,
        "latStart": -34.69708496,
        "lonStart": 138.56511675,
        "latEnd": null,
        "lonEnd": null,
        "length": 50
      }
    ],
    "id": 27970
  },
  {
    "type": 17,
    "icao": "YAOV",
    "lat": -34.91572019,
    "lon": 138.59771647,
    "communications": [],
    "elevation": 82,
    "tower": false,
    "name": "[H] ADELAIDE OVAL",
    "runways": [
      {
        "type": 102,
        "width": 117,
        "surfaceType": 3,
        "numberStart": "H8",
        "numberEnd": null,
        "latStart": -34.91572019,
        "lonStart": 138.59771647,
        "latEnd": null,
        "lonEnd": null,
        "length": 160
      }
    ],
    "id": 27971
  },
  {
    "type": 17,
    "icao": "YASG",
    "lat": -34.946715,
    "lon": 138.586791,
    "communications": [],
    "elevation": 100,
    "tower": false,
    "name": "[H] ADELAIDE SHOWGROUNDS",
    "runways": [
      {
        "type": 102,
        "width": 92.1,
        "surfaceType": 3,
        "numberStart": "H31",
        "numberEnd": null,
        "latStart": -34.946715,
        "lonStart": 138.586791,
        "latEnd": null,
        "lonEnd": null,
        "length": 103.9
      }
    ],
    "id": 27972
  },
  {
    "type": 17,
    "icao": "YAAQ",
    "lat": -34.9019,
    "lon": 138.591844,
    "communications": [],
    "elevation": 160,
    "tower": false,
    "name": "[H] Adelaide Aquatic Centre",
    "runways": [
      {
        "type": 102,
        "width": 50,
        "surfaceType": 3,
        "numberStart": "H5",
        "numberEnd": null,
        "latStart": -34.9019,
        "lonStart": 138.591844,
        "latEnd": null,
        "lonEnd": null,
        "length": 50
      }
    ],
    "id": 28018
  },
  {
    "type": 17,
    "icao": "YFPK",
    "lat": -34.8799221,
    "lon": 138.495524,
    "communications": [],
    "elevation": 3,
    "tower": false,
    "name": "[H] FOOTBALL PARK",
    "runways": [
      {
        "type": 102,
        "width": 14.9,
        "surfaceType": 3,
        "numberStart": "H45",
        "numberEnd": null,
        "latStart": -34.8799221,
        "lonStart": 138.495524,
        "latEnd": null,
        "lonEnd": null,
        "length": 14.9
      }
    ],
    "id": 29625
  },
  {
    "type": 17,
    "icao": "YGCA",
    "lat": -34.82058525,
    "lon": 138.8864125,
    "communications": [],
    "elevation": 1132,
    "tower": false,
    "name": "[H] GUMERACHA",
    "runways": [
      {
        "type": 102,
        "width": 14.9,
        "surfaceType": 3,
        "numberStart": "H21",
        "numberEnd": null,
        "latStart": -34.82058525,
        "lonStart": 138.8864125,
        "latEnd": null,
        "lonEnd": null,
        "length": 14.9
      }
    ],
    "id": 29858
  },
  {
    "type": 17,
    "icao": "YKSK",
    "lat": -34.94611703,
    "lon": 138.58155443,
    "communications": [],
    "elevation": 91,
    "tower": false,
    "name": "[H] KESWICK BARRACKS",
    "runways": [
      {
        "type": 102,
        "width": 36.9,
        "surfaceType": 1,
        "numberStart": "H7",
        "numberEnd": null,
        "latStart": -34.94611703,
        "lonStart": 138.58155443,
        "latEnd": null,
        "lonEnd": null,
        "length": 36.9
      }
    ],
    "id": 30664
  },
  {
    "type": 17,
    "icao": "YSAS",
    "lat": -34.91033086,
    "lon": 138.61032604,
    "communications": [],
    "elevation": 84,
    "tower": false,
    "name": "[H] SAS 7",
    "runways": [
      {
        "type": 102,
        "width": 18,
        "surfaceType": 3,
        "numberStart": "H4",
        "numberEnd": null,
        "latStart": -34.91033086,
        "lonStart": 138.61032604,
        "latEnd": null,
        "lonEnd": null,
        "length": 18
      }
    ],
    "id": 32470
  },
  {
    "type": 17,
    "icao": "YTOI",
    "lat": -34.80789958,
    "lon": 138.52307357,
    "communications": [],
    "elevation": 7,
    "tower": false,
    "name": "[H] TORRENS ISLAND",
    "runways": [
      {
        "type": 102,
        "width": 21,
        "surfaceType": 1,
        "numberStart": "H21",
        "numberEnd": null,
        "latStart": -34.80789958,
        "lonStart": 138.52307357,
        "latEnd": null,
        "lonEnd": null,
        "length": 21
      }
    ],
    "id": 33200
  },
  {
    "type": 17,
    "icao": "YWSB",
    "lat": -34.949541,
    "lon": 138.502115,
    "communications": [],
    "elevation": 0,
    "tower": false,
    "name": "[H] WEST BEACH",
    "runways": [
      {
        "type": 102,
        "width": 18,
        "surfaceType": 15,
        "numberStart": "H16",
        "numberEnd": null,
        "latStart": -34.949541,
        "lonStart": 138.502115,
        "latEnd": null,
        "lonEnd": null,
        "length": 18
      }
    ],
    "id": 33676
  }
]