[
  {
    "type": 17,
    "icao": "YAIW",
    "lat": -34.69708496,
    "lon": 138.56511675,
    "communications": [],
    "elevation": 41,
    "tower": false,
    "name": "[H] ADELAIDE INTL RACEWAY",
    "runways": [
      {
        "type": 102,
        "width": 50,
        "surfaceType": 3,
        "numberStart": "H27",
        "numberEnd": null,
        "latStart": -34.69708496,
        "lonStart": 138.56511675,
        "latEnd": null,
        "lonEnd": null,
        "length": 50
      }
    ],
    "id": 27970
  },
  {
    "type": 17,
    "icao": "YAOV",
    "lat": -34.91572019,
    "lon": 138.59771647,
    "communications": [],
    "elevation": 82,
    "tower": false,
    "name": "[H] ADELAIDE OVAL",
    "runways": [
      {
        "type": 102,
        "width": 117,
        "surfaceType": 3,
        "numberStart": "H8",
        "numberEnd": null,
        "latStart": -34.91572019,
        "lonStart": 138.59771647,
        "latEnd": null,
        "lonEnd": null,
        "length": 160
      }
    ],
    "id": 27971
  },
  {
    "type": 17,
    "icao": "YASG",
    "lat": -34.946715,
    "lon": 138.586791,
    "communications": [],
    "elevation": 100,
    "tower": false,
    "name": "[H] ADELAIDE SHOWGROUNDS",
    "runways": [
      {
        "type": 102,
        "width": 92.1,
        "surfaceType": 3,
        "numberStart": "H31",
        "numberEnd": null,
        "latStart": -34.946715,
        "lonStart": 138.586791,
        "latEnd": null,
        "lonEnd": null,
        "length": 103.9
      }
    ],
    "id": 27972
  },
  {
    "type": 17,
    "icao": "YAAQ",
    "lat": -34.9019,
    "lon": 138.591844,
    "communications": [],
    "elevation": 160,
    "tower": false,
    "name": "[H] Adelaide Aquatic Centre",
    "runways": [
      {
        "type": 102,
        "width": 50,
        "surfaceType": 3,
        "numberStart": "H5",
        "numberEnd": null,
        "latStart": -34.9019,
        "lonStart": 138.591844,
        "latEnd": null,
        "lonEnd": null,
        "length": 50
      }
    ],
    "id": 28018
  },
  {
    "type": 17,
    "icao": "YFPK",
    "lat": -34.8799221,
    "lon": 138.495524,
    "communications": [],
    "elevation": 3,
    "tower": false,
    "name": "[H] FOOTBALL PARK",
    "runways": [
      {
        "type": 102,
        "width": 14.9,
        "surfaceType": 3,
        "numberStart": "H45",
        "numberEnd": null,
        "latStart": -34.8799221,
        "lonStart": 138.495524,
        "latEnd": null,
        "lonEnd": null,
        "length": 14.9
      }
    ],
    "id": 29625
  },
  {
    "type": 17,
    "icao": "YGCA",
    "lat": -34.82058525,
    "lon": 138.8864125,
    "communications": [],
    "elevation": 1132,
    "tower": false,
    "name": "[H] GUMERACHA",
    "runways": [
      {
        "type": 102,
        "width": 14.9,
        "surfaceType": 3,
        "numberStart": "H21",
        "numberEnd": null,
        "latStart": -34.82058525,
        "lonStart": 138.8864125,
        "latEnd": null,
        "lonEnd": null,
        "length": 14.9
      }
    ],
    "id": 29858
  },
  {
    "type": 17,
    "icao": "YKSK",
    "lat": -34.94611703,
    "lon": 138.58155443,
    "communications": [],
    "elevation": 91,
    "tower": false,
    "name": "[H] KESWICK BARRACKS",
    "runways": [
      {
        "type": 102,
        "width": 36.9,
        "surfaceType": 1,
        "numberStart": "H7",
        "numberEnd": null,
        "latStart": -34.94611703,
        "lonStart": 138.58155443,
        "latEnd": null,
        "lonEnd": null,
        "length": 36.9
      }
    ],
    "id": 30664
  },
  {
    "type": 17,
    "icao": "YSAS",
    "lat": -34.91033086,
    "lon": 138.61032604,
    "communications": [],
    "elevation": 84,
    "tower": false,
    "name": "[H] SAS 7",
    "runways": [
      {
        "type": 102,
        "width": 18,
        "surfaceType": 3,
        "numberStart": "H4",
        "numberEnd": null,
        "latStart": -34.91033086,
        "lonStart": 138.61032604,
        "latEnd": null,
        "lonEnd": null,
        "length": 18
      }
    ],
    "id": 32470
  },
  {
    "type": 17,
    "icao": "YTOI",
    "lat": -34.80789958,
    "lon": 138.52307357,
    "communications": [],
    "elevation": 7,
    "tower": false,
    "name": "[H] TORRENS ISLAND",
    "runways": [
      {
        "type": 102,
        "width": 21,
        "surfaceType": 1,
        "numberStart": "H21",
        "numberEnd": null,
        "latStart": -34.80789958,
        "lonStart": 138.52307357,
        "latEnd": null,
        "lonEnd": null,
        "length": 21
      }
    ],
    "id": 33200
  },
  {
    "type": 17,
    "icao": "YWSB",
    "lat": -34.949541,
    "lon": 138.502115,
    "communications": [],
    "elevation": 0,
    "tower": false,
    "name": "[H] WEST BEACH",
    "runways": [
      {
        "type": 102,
        "width": 18,
        "surfaceType": 15,
        "numberStart": "H16",
        "numberEnd": null,
        "latStart": -34.949541,
        "lonStart": 138.502115,
        "latEnd": null,
        "lonEnd": null,
        "length": 18
      }
    ],
    "id": 33676
  }
]