[
  {
    "type": 1,
    "icao": "SCEC",
    "lat": -29.1447475,
    "lon": -50.014921,
    "communications": [],
    "elevation": 3678,
    "tower": false,
    "name": "PELICANO",
    "runways": [
      {
        "type": 100,
        "width": 30.48,
        "surfaceType": null,
        "numberStart": "02",
        "numberEnd": "20",
        "latStart": -29.150192,
        "lonStart": -70.890539,
        "latEnd": -29.139303,
        "lonEnd": -70.885061,
        "length": 0,
        "surfacetype": 1
      }
    ],
    "id": 19286
  },
  {
    "type": 17,
    "icao": "SJXU",
    "lat": -29.38361111,
    "lon": -50.88833333,
    "communications": [],
    "elevation": 816,
    "tower": false,
    "name": "[H] Alphaville Gramado",
    "runways": [
      {
        "type": 102,
        "width": 21,
        "surfaceType": 3,
        "numberStart": "H1",
        "numberEnd": null,
        "latStart": -29.38361111,
        "lonStart": -50.88833333,
        "latEnd": null,
        "lonEnd": null,
        "length": 21
      }
    ],
    "id": 28105
  },
  {
    "type": 17,
    "icao": "SDXY",
    "lat": -29.78027778,
    "lon": -50.04583333,
    "communications": [],
    "elevation": 7,
    "tower": false,
    "name": "[H] Atlantida Ilhas Park",
    "runways": [
      {
        "type": 102,
        "width": 19.5,
        "surfaceType": 3,
        "numberStart": "H1",
        "numberEnd": null,
        "latStart": -29.78027778,
        "lonStart": -50.04583333,
        "latEnd": null,
        "lonEnd": null,
        "length": 19.5
      }
    ],
    "id": 28213
  },
  {
    "type": 17,
    "icao": "SIGR",
    "lat": -29.36166667,
    "lon": -50.85305556,
    "communications": [],
    "elevation": 854,
    "tower": false,
    "name": "[H] Regiao das Hortencias",
    "runways": [
      {
        "type": 102,
        "width": 19.5,
        "surfaceType": 2,
        "numberStart": "H1",
        "numberEnd": null,
        "latStart": -29.36166667,
        "lonStart": -50.85305556,
        "latEnd": null,
        "lonEnd": null,
        "length": 19.5
      }
    ],
    "id": 32298
  },
  {
    "type": 17,
    "icao": "SWGY",
    "lat": -29.41722222,
    "lon": -50.85333333,
    "communications": [],
    "elevation": 2182,
    "tower": false,
    "name": "[H] Sierra Moveis Gramado",
    "runways": [
      {
        "type": 102,
        "width": 21,
        "surfaceType": 2,
        "numberStart": "H1",
        "numberEnd": null,
        "latStart": -29.41722222,
        "lonStart": -50.85333333,
        "latEnd": null,
        "lonEnd": null,
        "length": 21
      }
    ],
    "id": 32705
  }
]