[
  {
    "type": 1,
    "icao": "KCRE",
    "lat": 33.8117485,
    "lon": -78.7239415,
    "communications": [
      {
        "type": 50,
        "frequency": 11962,
        "name": "ATIS"
      },
      {
        "type": 51,
        "frequency": 12460,
        "name": "CTAF"
      },
      {
        "type": 51,
        "frequency": 12295,
        "name": "UNICOM"
      },
      {
        "type": 53,
        "frequency": 12180,
        "name": "STRAND GND"
      },
      {
        "type": 54,
        "frequency": 12460,
        "name": "STRAND TWR"
      },
      {
        "type": 55,
        "frequency": 11920,
        "name": "MYRTLE BEACH APP/DEP"
      }
    ],
    "elevation": 32,
    "tower": true,
    "name": "Grand Strand",
    "runways": [
      {
        "type": 100,
        "width": 30.48,
        "surfaceType": null,
        "numberStart": "05",
        "numberEnd": "23",
        "latStart": 33.806033,
        "lonStart": -78.73105,
        "latEnd": 33.817464,
        "lonEnd": -78.716833,
        "length": 0,
        "surfacetype": 1
      }
    ],
    "id": 2522
  },
  {
    "type": 1,
    "icao": "KMYR",
    "lat": 33.679739999999995,
    "lon": -78.92832100000001,
    "communications": [
      {
        "type": 50,
        "frequency": 12392,
        "name": "ATIS"
      },
      {
        "type": 50,
        "frequency": 12450,
        "name": "AWOS 3"
      },
      {
        "type": 51,
        "frequency": 13477,
        "name": "CENTER"
      },
      {
        "type": 51,
        "frequency": 12295,
        "name": "UNICOM"
      },
      {
        "type": 52,
        "frequency": 11970,
        "name": "CLNC DEL"
      },
      {
        "type": 53,
        "frequency": 12030,
        "name": "GND"
      },
      {
        "type": 54,
        "frequency": 12845,
        "name": "TWR"
      },
      {
        "type": 55,
        "frequency": 10950,
        "name": "APP/DEP 18"
      },
      {
        "type": 55,
        "frequency": 11190,
        "name": "APP/DEP 36"
      }
    ],
    "elevation": 23,
    "tower": true,
    "name": "Myrtle Beach Intl",
    "runways": [
      {
        "type": 100,
        "width": 45.72,
        "surfaceType": null,
        "numberStart": "18",
        "numberEnd": "36",
        "latStart": 33.692522,
        "lonStart": -78.931514,
        "latEnd": 33.666958,
        "lonEnd": -78.925128,
        "length": 0,
        "surfacetype": 1
      }
    ],
    "id": 3029
  },
  {
    "type": 1,
    "icao": "SC21",
    "lat": 33.94129248,
    "lon": -78.83296473499999,
    "communications": [],
    "elevation": 44,
    "tower": false,
    "name": "Hardee",
    "runways": [
      {
        "type": 100,
        "width": 18.29,
        "surfaceType": null,
        "numberStart": "04",
        "numberEnd": "22",
        "latStart": 33.93825966,
        "lonStart": -78.83572214,
        "latEnd": 33.9443253,
        "lonEnd": -78.83020733,
        "length": 0,
        "surfacetype": 3
      }
    ],
    "id": 4681
  },
  {
    "type": 1,
    "icao": "60J",
    "lat": 33.9086095,
    "lon": -78.436389,
    "communications": [
      {
        "type": 51,
        "frequency": 12290,
        "name": "CTAF"
      }
    ],
    "elevation": 32,
    "tower": false,
    "name": "ODELL WILLIAMSON MUNI",
    "runways": [
      {
        "type": 100,
        "width": 22.86,
        "surfaceType": null,
        "numberStart": "06",
        "numberEnd": "24",
        "latStart": 33.905697,
        "lonStart": -78.441703,
        "latEnd": 33.911522,
        "lonEnd": -78.431075,
        "length": 0,
        "surfacetype": 1
      }
    ],
    "id": 12876
  },
  {
    "type": 1,
    "icao": "KSUT",
    "lat": 33.93081884,
    "lon": -78.073365515,
    "communications": [
      {
        "type": 50,
        "frequency": 12417,
        "name": "AWOS 3"
      },
      {
        "type": 51,
        "frequency": 12300,
        "name": "CTAF/UNICOM"
      },
      {
        "type": 55,
        "frequency": 11825,
        "name": "WILMINGTON APP/DEP"
      }
    ],
    "elevation": 24,
    "tower": false,
    "name": "BRUNSWICK CO",
    "runways": [
      {
        "type": 100,
        "width": 30.48,
        "surfaceType": null,
        "numberStart": "05",
        "numberEnd": "23",
        "latStart": 33.925114,
        "lonStart": -78.079322,
        "latEnd": 33.93652368,
        "lonEnd": -78.06740903,
        "length": 0,
        "surfacetype": 1
      }
    ],
    "id": 19854
  }
]