[
  {
    "type": 1,
    "icao": "RKU",
    "lat": -8.813948385,
    "lon": 146.523702105,
    "communications": [
      {
        "type": 50,
        "frequency": 12660,
        "name": "KKU ATIS"
      },
      {
        "type": 53,
        "frequency": 12550,
        "name": "KAIRUKU GND"
      },
      {
        "type": 54,
        "frequency": 12360,
        "name": "KAIRUKU TWR"
      }
    ],
    "elevation": 35,
    "tower": true,
    "name": "Kairuku",
    "runways": [
      {
        "type": 100,
        "width": 52.12,
        "surfaceType": null,
        "numberStart": "15",
        "numberEnd": "33",
        "latStart": -8.80989174,
        "lonStart": 146.52175285,
        "latEnd": -8.81800503,
        "lonEnd": 146.52565136,
        "length": 0,
        "surfacetype": 3
      }
    ],
    "id": 13541
  },
  {
    "type": 1,
    "icao": "LNG",
    "lat": -8.162936,
    "lon": 146.117004,
    "communications": [
      {
        "type": 50,
        "frequency": 12770,
        "name": "LNG AWOS"
      }
    ],
    "elevation": 5,
    "tower": false,
    "name": "Lese",
    "runways": [
      {
        "type": 100,
        "width": 30.48,
        "surfaceType": null,
        "numberStart": "15",
        "numberEnd": "33",
        "latStart": -8.16008541,
        "lonStart": 146.11534137,
        "latEnd": -8.16578659,
        "lonEnd": 146.11866663,
        "length": 0,
        "surfacetype": 4
      }
    ],
    "id": 15193
  },
  {
    "type": 1,
    "icao": "AYTI",
    "lat": -8.357421930000001,
    "lon": 146.98963255,
    "communications": [
      {
        "type": 50,
        "frequency": 12740,
        "name": "TAP AWOS"
      }
    ],
    "elevation": 3150,
    "tower": false,
    "name": "Tapini",
    "runways": [
      {
        "type": 100,
        "width": 45.11,
        "surfaceType": null,
        "numberStart": "09",
        "numberEnd": "27",
        "latStart": -8.35716353,
        "lonStart": 146.98464902,
        "latEnd": -8.35768033,
        "lonEnd": 146.99461608,
        "length": 0,
        "surfacetype": 5
      }
    ],
    "id": 25046
  },
  {
    "type": 1,
    "icao": "TEO",
    "lat": -8.169619,
    "lon": 146.19424400000003,
    "communications": [
      {
        "type": 50,
        "frequency": 12770,
        "name": "TEO AWOS"
      }
    ],
    "elevation": 0,
    "tower": false,
    "name": "Terapo",
    "runways": [
      {
        "type": 100,
        "width": 30.48,
        "surfaceType": null,
        "numberStart": "10",
        "numberEnd": "28",
        "latStart": -8.16858959,
        "lonStart": 146.19036281,
        "latEnd": -8.17064841,
        "lonEnd": 146.19812519,
        "length": 0,
        "surfacetype": 4
      }
    ],
    "id": 25169
  }
]