[
  {
    "type": 1,
    "icao": "LEMD",
    "lat": 40.495362498750005,
    "lon": 18.456256025,
    "communications": [
      {
        "type": 50,
        "frequency": 11825,
        "name": "ATIS ARR"
      },
      {
        "type": 50,
        "frequency": 13085,
        "name": "ATIS DEP"
      },
      {
        "type": 53,
        "frequency": 12185,
        "name": "BARAJAS APRON"
      },
      {
        "type": 54,
        "frequency": 11807,
        "name": "BARAJAS TWR"
      },
      {
        "type": 54,
        "frequency": 11815,
        "name": "BARAJAS TWR"
      },
      {
        "type": 54,
        "frequency": 12015,
        "name": "BARAJAS TWR"
      },
      {
        "type": 55,
        "frequency": 12402,
        "name": "MADRID APP"
      },
      {
        "type": 55,
        "frequency": 12750,
        "name": "MADRID APP"
      }
    ],
    "elevation": 2000,
    "tower": true,
    "name": "Barajas",
    "runways": [
      {
        "type": 100,
        "width": 60.05,
        "surfaceType": null,
        "numberStart": "14R",
        "numberEnd": "32L",
        "latStart": 40.48486032,
        "lonStart": -3.5760195,
        "latEnd": 40.4556053,
        "lonEnd": -3.54630876,
        "length": 0,
        "surfacetype": 1
      },
      {
        "type": 100,
        "width": 60.05,
        "surfaceType": null,
        "numberStart": "18R",
        "numberEnd": "36L",
        "latStart": 40.53174724,
        "lonStart": -3.57485353,
        "latEnd": 40.49255492,
        "lonEnd": -3.57462804,
        "length": 0,
        "surfacetype": 1
      },
      {
        "type": 100,
        "width": 60.05,
        "surfaceType": null,
        "numberStart": "14L",
        "numberEnd": "32R",
        "latStart": 40.49491739,
        "lonStart": -3.55787519,
        "latEnd": 40.47000463,
        "lonEnd": -3.53259123,
        "length": 0,
        "surfacetype": 1
      },
      {
        "type": 100,
        "width": 60.05,
        "surfaceType": null,
        "numberStart": "18L",
        "numberEnd": "36R",
        "latStart": 40.53318838,
        "lonStart": -3.55939024,
        "latEnd": 40.50002181,
        "lonEnd": -3.55921329,
        "length": 0,
        "surfacetype": 1
      }
    ],
    "id": 2213
  },
  {
    "type": 1,
    "icao": "LEFM",
    "lat": 40.8883139,
    "lon": 18.321338904999998,
    "communications": [
      {
        "type": 50,
        "frequency": 12340,
        "name": "AERO CLUB"
      },
      {
        "type": 50,
        "frequency": 12350,
        "name": "AERO CLUB"
      }
    ],
    "elevation": 3280,
    "tower": false,
    "name": "Fuentemilanos",
    "runways": [
      {
        "type": 100,
        "width": 18,
        "surfaceType": null,
        "numberStart": "16",
        "numberEnd": "34",
        "latStart": 40.89231619,
        "lonStart": -4.2416338,
        "latEnd": 40.88431161,
        "lonEnd": -4.23589777,
        "length": 0,
        "surfacetype": 1
      }
    ],
    "id": 9770
  },
  {
    "type": 1,
    "icao": "LEGT",
    "lat": 40.294064,
    "lon": 18.283928,
    "communications": [
      {
        "type": 55,
        "frequency": 11995,
        "name": "APP"
      },
      {
        "type": 55,
        "frequency": 12710,
        "name": "APP"
      },
      {
        "type": 56,
        "frequency": 12710,
        "name": "MADRID DEP"
      }
    ],
    "elevation": 2032,
    "tower": true,
    "name": "Getafe",
    "runways": [
      {
        "type": 100,
        "width": 60.05,
        "surfaceType": null,
        "numberStart": "05",
        "numberEnd": "23",
        "latStart": 40.2862,
        "lonStart": -3.734072,
        "latEnd": 40.301928,
        "lonEnd": -3.713386,
        "length": 0,
        "surfacetype": 1
      }
    ],
    "id": 10437
  }
]