[
  {
    "type": 1,
    "icao": "LFFC",
    "lat": 49.07995395499999,
    "lon": 1.6882932599999998,
    "communications": [
      {
        "type": 51,
        "frequency": 13415,
        "name": "Mantes Info"
      }
    ],
    "elevation": 512,
    "tower": false,
    "name": "Mantes Cherence",
    "runways": [
      {
        "type": 100,
        "width": 100,
        "surfaceType": null,
        "numberStart": "04",
        "numberEnd": "22",
        "latStart": 49.07742108,
        "lonStart": 1.68776906,
        "latEnd": 49.08401733,
        "lonEnd": 1.69485702,
        "length": 0,
        "surfacetype": 15
      },
      {
        "type": 100,
        "width": 99.97,
        "surfaceType": null,
        "numberStart": "12",
        "numberEnd": "30",
        "latStart": 49.08125077,
        "lonStart": 1.67997163,
        "latEnd": 49.07712664,
        "lonEnd": 1.69057533,
        "length": 0,
        "surfacetype": 15
      }
    ],
    "id": 3590
  },
  {
    "type": 1,
    "icao": "LFAB",
    "lat": 49.886038,
    "lon": 1.081911,
    "communications": [],
    "elevation": 344,
    "tower": false,
    "name": "Dieppe Saint Aubin",
    "runways": [
      {
        "type": 100,
        "width": 29.87,
        "surfaceType": null,
        "numberStart": "13R",
        "numberEnd": "31L",
        "latStart": 49.88797552,
        "lonStart": 1.0766526,
        "latEnd": 49.88363848,
        "lonEnd": 1.0859174,
        "length": 0,
        "surfacetype": 1
      },
      {
        "type": 100,
        "width": 60.05,
        "surfaceType": null,
        "numberStart": "13L",
        "numberEnd": "31R",
        "latStart": 49.88812071,
        "lonStart": 1.07858134,
        "latEnd": 49.88441729,
        "lonEnd": 1.08649266,
        "length": 0,
        "surfacetype": 3
      }
    ],
    "id": 20197
  },
  {
    "type": 1,
    "icao": "LFFY",
    "lat": 49.306111,
    "lon": 1.638611,
    "communications": [],
    "elevation": 308,
    "tower": false,
    "name": "Etrepagny",
    "runways": [
      {
        "type": 100,
        "width": 49.99,
        "surfaceType": null,
        "numberStart": "12",
        "numberEnd": "30",
        "latStart": 49.30739427,
        "lonStart": 1.63439028,
        "latEnd": 49.30482773,
        "lonEnd": 1.64283172,
        "length": 0,
        "surfacetype": 3
      }
    ],
    "id": 20279
  },
  {
    "type": 1,
    "icao": "LFOE",
    "lat": 49.0286695,
    "lon": 1.2198665000000002,
    "communications": [
      {
        "type": 53,
        "frequency": 12210,
        "name": "EVREUX GND"
      },
      {
        "type": 54,
        "frequency": 11970,
        "name": "EVREUX TWR"
      },
      {
        "type": 54,
        "frequency": 12210,
        "name": "EVREUX TWR"
      },
      {
        "type": 54,
        "frequency": 12537,
        "name": "EVREUX TWR"
      },
      {
        "type": 55,
        "frequency": 11812,
        "name": "EVREUX APP"
      }
    ],
    "elevation": 464,
    "tower": true,
    "name": "FAUVILLE",
    "runways": [
      {
        "type": 100,
        "width": 45.11,
        "surfaceType": null,
        "numberStart": "04",
        "numberEnd": "22",
        "latStart": 49.018314,
        "lonStart": 1.206711,
        "latEnd": 49.039025,
        "lonEnd": 1.233022,
        "length": 0,
        "surfacetype": 1
      }
    ],
    "id": 20402
  },
  {
    "type": 1,
    "icao": "LFOP",
    "lat": 49.385211,
    "lon": 1.1761915,
    "communications": [
      {
        "type": 50,
        "frequency": 12072,
        "name": "ATIS"
      },
      {
        "type": 54,
        "frequency": 12020,
        "name": "ROUEN TWR"
      },
      {
        "type": 55,
        "frequency": 11857,
        "name": "ROUEN APP"
      }
    ],
    "elevation": 512,
    "tower": true,
    "name": "Rouen Vallee de la Seine",
    "runways": [
      {
        "type": 100,
        "width": 45.11,
        "surfaceType": null,
        "numberStart": "04",
        "numberEnd": "22",
        "latStart": 49.379469,
        "lonStart": 1.168447,
        "latEnd": 49.390953,
        "lonEnd": 1.183936,
        "length": 0,
        "surfacetype": 1
      }
    ],
    "id": 20408
  }
]