[
  {
    "type": 1,
    "icao": "TVSV",
    "lat": 13.144299,
    "lon": -24.034568,
    "communications": [
      {
        "type": 53,
        "frequency": 12190,
        "name": "E T JOSHUA GND"
      },
      {
        "type": 54,
        "frequency": 11880,
        "name": "E T JOSHUA TWR"
      },
      {
        "type": 55,
        "frequency": 12080,
        "name": "E T JOSHUA APP"
      }
    ],
    "elevation": 66,
    "tower": true,
    "name": "St. Vincent/E T Joshua",
    "runways": [
      {
        "type": 100,
        "width": 43.89,
        "surfaceType": null,
        "numberStart": "07",
        "numberEnd": "25",
        "latStart": 13.141231,
        "lonStart": -61.216503,
        "latEnd": 13.147367,
        "lonEnd": -61.205203,
        "length": 0,
        "surfacetype": 1
      }
    ],
    "id": 24070
  },
  {
    "type": 16,
    "icao": "SP15",
    "lat": 13.111917,
    "lon": -24.05858045,
    "communications": [],
    "elevation": 0,
    "tower": false,
    "name": "[S] E T Joshua Harbor",
    "runways": [
      {
        "type": 101,
        "width": 3047.7,
        "surfaceType": null,
        "numberStart": "18",
        "numberEnd": "36",
        "latStart": 13.1256319,
        "lonStart": -61.215363,
        "latEnd": 13.0982021,
        "lonEnd": -61.215363,
        "length": 0
      }
    ],
    "id": 34074
  }
]