[
  {
    "type": 1,
    "icao": "RJDB",
    "lat": 33.7490835,
    "lon": 81.7698125,
    "communications": [
      {
        "type": 54,
        "frequency": 11820,
        "name": "IKI REMOTE"
      }
    ],
    "elevation": 41,
    "tower": true,
    "name": "IKI",
    "runways": [
      {
        "type": 100,
        "width": 30.48,
        "surfaceType": null,
        "numberStart": "02",
        "numberEnd": "20",
        "latStart": 33.743189,
        "lonStart": 129.784647,
        "latEnd": 33.754978,
        "lonEnd": 129.786894,
        "length": 0,
        "surfacetype": 1
      }
    ],
    "id": 12268
  },
  {
    "type": 1,
    "icao": "RJDK",
    "lat": 33.010268999999994,
    "lon": 81.10016604,
    "communications": [],
    "elevation": 263,
    "tower": true,
    "name": "Kamigoto",
    "runways": [
      {
        "type": 100,
        "width": 24.99,
        "surfaceType": null,
        "numberStart": "17",
        "numberEnd": "35",
        "latStart": 33.01372659,
        "lonStart": 129.19352067,
        "latEnd": 33.00681141,
        "lonEnd": 129.19590133,
        "length": 0,
        "surfacetype": 2
      }
    ],
    "id": 13570
  },
  {
    "type": 1,
    "icao": "RJDM",
    "lat": 33.321939,
    "lon": 81.86913048,
    "communications": [],
    "elevation": 53,
    "tower": true,
    "name": "Metabaru AB",
    "runways": [
      {
        "type": 100,
        "width": 29.87,
        "surfaceType": null,
        "numberStart": "04",
        "numberEnd": "22",
        "latStart": 33.31946617,
        "lonStart": 130.41384913,
        "latEnd": 33.32441183,
        "lonEnd": 130.41781287,
        "length": 0,
        "surfacetype": 2
      }
    ],
    "id": 17105
  },
  {
    "type": 1,
    "icao": "RJDO",
    "lat": 33.1875,
    "lon": 81.13922299000001,
    "communications": [],
    "elevation": 25,
    "tower": true,
    "name": "Ojika",
    "runways": [
      {
        "type": 100,
        "width": 24.99,
        "surfaceType": null,
        "numberStart": "03",
        "numberEnd": "21",
        "latStart": 33.19078886,
        "lonStart": 129.09423484,
        "latEnd": 33.18421114,
        "lonEnd": 129.09074316,
        "length": 0,
        "surfacetype": 2
      }
    ],
    "id": 18851
  },
  {
    "type": 1,
    "icao": "RJFS",
    "lat": 33.149718,
    "lon": 81.7199555,
    "communications": [
      {
        "type": 54,
        "frequency": 11805,
        "name": "REMOTE"
      },
      {
        "type": 56,
        "frequency": 11970,
        "name": "FUKUOKA DEP"
      }
    ],
    "elevation": 5,
    "tower": true,
    "name": "SAGA",
    "runways": [
      {
        "type": 100,
        "width": 45.11,
        "surfaceType": null,
        "numberStart": "11",
        "numberEnd": "29",
        "latStart": 33.151167,
        "lonStart": 130.291642,
        "latEnd": 33.148269,
        "lonEnd": 130.3128,
        "length": 0,
        "surfacetype": 1
      }
    ],
    "id": 21907
  }
]