[
  {
    "type": 1,
    "icao": "SBCT",
    "lat": -25.528851754999998,
    "lon": -49.173148330000004,
    "communications": [
      {
        "type": 50,
        "frequency": 12780,
        "name": "ATIS"
      },
      {
        "type": 53,
        "frequency": 12190,
        "name": "GND"
      },
      {
        "type": 54,
        "frequency": 11855,
        "name": "CURITIBA TWR"
      },
      {
        "type": 55,
        "frequency": 11995,
        "name": "CURITIBA APP"
      },
      {
        "type": 55,
        "frequency": 12065,
        "name": "CURITIBA APP"
      },
      {
        "type": 55,
        "frequency": 12955,
        "name": "CURITIBA APP"
      }
    ],
    "elevation": 2986,
    "tower": true,
    "name": "Afonso Pena",
    "runways": [
      {
        "type": 100,
        "width": 45.11,
        "surfaceType": null,
        "numberStart": "15",
        "numberEnd": "33",
        "latStart": -25.5221037,
        "lonStart": -49.18296554,
        "latEnd": -25.53614378,
        "lonEnd": -49.16721544,
        "length": 0,
        "surfacetype": 1
      },
      {
        "type": 100,
        "width": 45.11,
        "surfaceType": null,
        "numberStart": "11",
        "numberEnd": "29",
        "latStart": -25.52835077,
        "lonStart": -49.18016917,
        "latEnd": -25.52880877,
        "lonEnd": -49.16224317,
        "length": 0,
        "surfacetype": 1
      }
    ],
    "id": 4606
  },
  {
    "type": 1,
    "icao": "SBBI",
    "lat": -25.405079,
    "lon": -49.232035999999994,
    "communications": [
      {
        "type": 53,
        "frequency": 12180,
        "name": "GND"
      },
      {
        "type": 54,
        "frequency": 11890,
        "name": "TWR"
      },
      {
        "type": 55,
        "frequency": 12955,
        "name": "CURITIBA APP"
      }
    ],
    "elevation": 3057,
    "tower": true,
    "name": "Curitiba Bacacheri",
    "runways": [
      {
        "type": 100,
        "width": 29.87,
        "surfaceType": null,
        "numberStart": "18",
        "numberEnd": "36",
        "latStart": -25.399264,
        "lonStart": -49.234694,
        "latEnd": -25.410894,
        "lonEnd": -49.229378,
        "length": 0,
        "surfacetype": 1
      }
    ],
    "id": 25104
  },
  {
    "type": 17,
    "icao": "SDRG",
    "lat": -25.39166667,
    "lon": -49.15583333,
    "communications": [],
    "elevation": 910,
    "tower": false,
    "name": "[H] Graciosa",
    "runways": [
      {
        "type": 102,
        "width": 25,
        "surfaceType": 3,
        "numberStart": "H1",
        "numberEnd": null,
        "latStart": -25.39166667,
        "lonStart": -49.15583333,
        "latEnd": null,
        "lonEnd": null,
        "length": 25
      }
    ],
    "id": 25749
  },
  {
    "type": 17,
    "icao": "SDVZ",
    "lat": -25.42472222,
    "lon": -49.26916667,
    "communications": [],
    "elevation": 970,
    "tower": false,
    "name": "[H] Life Hotel",
    "runways": [
      {
        "type": 102,
        "width": 18,
        "surfaceType": 2,
        "numberStart": "H1",
        "numberEnd": null,
        "latStart": -25.42472222,
        "lonStart": -49.26916667,
        "latEnd": null,
        "lonEnd": null,
        "length": 18
      }
    ],
    "id": 25868
  },
  {
    "type": 17,
    "icao": "SIDK",
    "lat": -25.43472222,
    "lon": -49.27611111,
    "communications": [],
    "elevation": 1000,
    "tower": false,
    "name": "[H] Centro Seculo XXI",
    "runways": [
      {
        "type": 102,
        "width": 18,
        "surfaceType": 2,
        "numberStart": "H1",
        "numberEnd": null,
        "latStart": -25.43472222,
        "lonStart": -49.27611111,
        "latEnd": null,
        "lonEnd": null,
        "length": 24.1
      }
    ],
    "id": 26145
  },
  {
    "type": 17,
    "icao": "SIJQ",
    "lat": -25.5825,
    "lon": -49.40027778,
    "communications": [],
    "elevation": 937,
    "tower": false,
    "name": "[H] Ryhad Palace Hotel",
    "runways": [
      {
        "type": 102,
        "width": 20.1,
        "surfaceType": 2,
        "numberStart": "H1",
        "numberEnd": null,
        "latStart": -25.5825,
        "lonStart": -49.40027778,
        "latEnd": null,
        "lonEnd": null,
        "length": 20.1
      }
    ],
    "id": 26305
  },
  {
    "type": 1,
    "icao": "SIJR",
    "lat": -25.53944444,
    "lon": -49.600000005,
    "communications": [],
    "elevation": 2592,
    "tower": false,
    "name": "Ely Rego",
    "runways": [
      {
        "type": 100,
        "width": 24.99,
        "surfaceType": null,
        "numberStart": "12",
        "numberEnd": "30",
        "latStart": -25.53894317,
        "lonStart": -49.60243766,
        "latEnd": -25.53994571,
        "lonEnd": -49.59756235,
        "length": 0,
        "surfacetype": 3
      }
    ],
    "id": 26306
  },
  {
    "type": 1,
    "icao": "SISY",
    "lat": -25.45138889,
    "lon": -49.14388889,
    "communications": [],
    "elevation": 3212,
    "tower": false,
    "name": "Piraquara",
    "runways": [
      {
        "type": 100,
        "width": 17.98,
        "surfaceType": null,
        "numberStart": "09",
        "numberEnd": "27",
        "latStart": -25.4521035,
        "lonStart": -49.14600254,
        "latEnd": -25.45067428,
        "lonEnd": -49.14177524,
        "length": 0,
        "surfacetype": 1
      }
    ],
    "id": 26542
  },
  {
    "type": 17,
    "icao": "SJAJ",
    "lat": -25.43833333,
    "lon": -49.26722222,
    "communications": [],
    "elevation": 938,
    "tower": false,
    "name": "[H] Estacao Convention Center",
    "runways": [
      {
        "type": 102,
        "width": 18,
        "surfaceType": 2,
        "numberStart": "H1",
        "numberEnd": null,
        "latStart": -25.43833333,
        "lonStart": -49.26722222,
        "latEnd": null,
        "lonEnd": null,
        "length": 18
      }
    ],
    "id": 26727
  },
  {
    "type": 17,
    "icao": "SJGV",
    "lat": -25.66138889,
    "lon": -49.13916667,
    "communications": [],
    "elevation": 901,
    "tower": false,
    "name": "[H] Bons Ventos",
    "runways": [
      {
        "type": 102,
        "width": 21,
        "surfaceType": 2,
        "numberStart": "H1",
        "numberEnd": null,
        "latStart": -25.66138889,
        "lonStart": -49.13916667,
        "latEnd": null,
        "lonEnd": null,
        "length": 21
      }
    ],
    "id": 26889
  },
  {
    "type": 17,
    "icao": "SJHV",
    "lat": -25.44805556,
    "lon": -49.24361111,
    "communications": [],
    "elevation": 890,
    "tower": false,
    "name": "[H] Valmor Weiss",
    "runways": [
      {
        "type": 102,
        "width": 24.1,
        "surfaceType": 2,
        "numberStart": "H1",
        "numberEnd": null,
        "latStart": -25.44805556,
        "lonStart": -49.24361111,
        "latEnd": null,
        "lonEnd": null,
        "length": 24.1
      }
    ],
    "id": 26915
  },
  {
    "type": 17,
    "icao": "SJJS",
    "lat": -25.46138889,
    "lon": -49.11111111,
    "communications": [],
    "elevation": 918,
    "tower": false,
    "name": "[H] BS Colway",
    "runways": [
      {
        "type": 102,
        "width": 25.9,
        "surfaceType": 2,
        "numberStart": "H1",
        "numberEnd": null,
        "latStart": -25.46138889,
        "lonStart": -49.11111111,
        "latEnd": null,
        "lonEnd": null,
        "length": 25.9
      }
    ],
    "id": 26962
  },
  {
    "type": 17,
    "icao": "SJLR",
    "lat": -25.24694444,
    "lon": -49.91805556,
    "communications": [],
    "elevation": 3330,
    "tower": false,
    "name": "[H] Cambiju",
    "runways": [
      {
        "type": 102,
        "width": 20.1,
        "surfaceType": 2,
        "numberStart": "H1",
        "numberEnd": null,
        "latStart": -25.24694444,
        "lonStart": -49.91805556,
        "latEnd": null,
        "lonEnd": null,
        "length": 20.1
      }
    ],
    "id": 27012
  },
  {
    "type": 1,
    "icao": "SJPR",
    "lat": -25.549444445,
    "lon": -49.64305556,
    "communications": [],
    "elevation": 2907,
    "tower": false,
    "name": "Asas de Balsa Nova",
    "runways": [
      {
        "type": 100,
        "width": 11.89,
        "surfaceType": null,
        "numberStart": "03",
        "numberEnd": "21",
        "latStart": -25.5518326,
        "lonStart": -49.6435358,
        "latEnd": -25.54705629,
        "lonEnd": -49.64257532,
        "length": 0,
        "surfacetype": 1
      }
    ],
    "id": 27115
  },
  {
    "type": 1,
    "icao": "SJQE",
    "lat": -25.413611109999998,
    "lon": -49.06638889,
    "communications": [],
    "elevation": 2999,
    "tower": false,
    "name": "Bonacin",
    "runways": [
      {
        "type": 100,
        "width": 17.98,
        "surfaceType": null,
        "numberStart": "12",
        "numberEnd": "30",
        "latStart": -25.41302902,
        "lonStart": -49.06931526,
        "latEnd": -25.4141932,
        "lonEnd": -49.06346252,
        "length": 0,
        "surfacetype": 3
      }
    ],
    "id": 27128
  },
  {
    "type": 17,
    "icao": "SJQG",
    "lat": -25.5025,
    "lon": -49.28,
    "communications": [],
    "elevation": 899,
    "tower": false,
    "name": "[H] HSBC",
    "runways": [
      {
        "type": 102,
        "width": 20.1,
        "surfaceType": 2,
        "numberStart": "H1",
        "numberEnd": null,
        "latStart": -25.5025,
        "lonStart": -49.28,
        "latEnd": null,
        "lonEnd": null,
        "length": 20.1
      }
    ],
    "id": 27130
  },
  {
    "type": 17,
    "icao": "SJST",
    "lat": -25.60416667,
    "lon": -49.29361111,
    "communications": [],
    "elevation": 853,
    "tower": false,
    "name": "[H] Umbara Energy",
    "runways": [
      {
        "type": 102,
        "width": 18,
        "surfaceType": 2,
        "numberStart": "H1",
        "numberEnd": null,
        "latStart": -25.60416667,
        "lonStart": -49.29361111,
        "latEnd": null,
        "lonEnd": null,
        "length": 18
      }
    ],
    "id": 27193
  },
  {
    "type": 17,
    "icao": "SJUT",
    "lat": -25.18527778,
    "lon": -49.31666667,
    "communications": [],
    "elevation": 934,
    "tower": false,
    "name": "[H] Cimento Rio Branco",
    "runways": [
      {
        "type": 102,
        "width": 31.4,
        "surfaceType": 2,
        "numberStart": "H1",
        "numberEnd": null,
        "latStart": -25.18527778,
        "lonStart": -49.31666667,
        "latEnd": null,
        "lonEnd": null,
        "length": 31.4
      }
    ],
    "id": 27242
  },
  {
    "type": 17,
    "icao": "SNRC",
    "lat": -25.50777778,
    "lon": -49.33222222,
    "communications": [],
    "elevation": 960,
    "tower": false,
    "name": "[H] Ouro Verde",
    "runways": [
      {
        "type": 102,
        "width": 19.5,
        "surfaceType": 2,
        "numberStart": "H1",
        "numberEnd": null,
        "latStart": -25.50777778,
        "lonStart": -49.33222222,
        "latEnd": null,
        "lonEnd": null,
        "length": 19.5
      }
    ],
    "id": 27988
  },
  {
    "type": 17,
    "icao": "SSAZ",
    "lat": -25.37666667,
    "lon": -49.08472222,
    "communications": [],
    "elevation": 3041,
    "tower": false,
    "name": "[H] Quatro Barras",
    "runways": [
      {
        "type": 102,
        "width": 24.1,
        "surfaceType": 2,
        "numberStart": "H1",
        "numberEnd": null,
        "latStart": -25.37666667,
        "lonStart": -49.08472222,
        "latEnd": null,
        "lonEnd": null,
        "length": 24.1
      }
    ],
    "id": 28335
  },
  {
    "type": 17,
    "icao": "SSBP",
    "lat": -25.43,
    "lon": -49.31805556,
    "communications": [],
    "elevation": 895,
    "tower": false,
    "name": "[H] Parque Barigui",
    "runways": [
      {
        "type": 102,
        "width": 18,
        "surfaceType": 2,
        "numberStart": "H1",
        "numberEnd": null,
        "latStart": -25.43,
        "lonStart": -49.31805556,
        "latEnd": null,
        "lonEnd": null,
        "length": 18
      }
    ],
    "id": 28349
  },
  {
    "type": 1,
    "icao": "SSCF",
    "lat": -25.43222222,
    "lon": -49.530000005,
    "communications": [],
    "elevation": 3140,
    "tower": false,
    "name": "Max Fontoura",
    "runways": [
      {
        "type": 100,
        "width": 22.86,
        "surfaceType": null,
        "numberStart": "12",
        "numberEnd": "30",
        "latStart": -25.43132759,
        "lonStart": -49.5343855,
        "latEnd": -25.43311685,
        "lonEnd": -49.52561451,
        "length": 0,
        "surfacetype": 4
      }
    ],
    "id": 28363
  },
  {
    "type": 17,
    "icao": "SSCY",
    "lat": -25.4375,
    "lon": -49.44722222,
    "communications": [],
    "elevation": 958,
    "tower": false,
    "name": "[H] Sikorski",
    "runways": [
      {
        "type": 102,
        "width": 18,
        "surfaceType": 2,
        "numberStart": "H1",
        "numberEnd": null,
        "latStart": -25.4375,
        "lonStart": -49.44722222,
        "latEnd": null,
        "lonEnd": null,
        "length": 18
      }
    ],
    "id": 28381
  },
  {
    "type": 17,
    "icao": "SSJF",
    "lat": -25.37444444,
    "lon": -49.22833333,
    "communications": [],
    "elevation": 934,
    "tower": false,
    "name": "[H] Policia Federal Curitiba",
    "runways": [
      {
        "type": 102,
        "width": 25.6,
        "surfaceType": 2,
        "numberStart": "H1",
        "numberEnd": null,
        "latStart": -25.37444444,
        "lonStart": -49.22833333,
        "latEnd": null,
        "lonEnd": null,
        "length": 25.6
      }
    ],
    "id": 28538
  },
  {
    "type": 17,
    "icao": "SSSE",
    "lat": -25.57666667,
    "lon": -49.39361111,
    "communications": [],
    "elevation": 904,
    "tower": false,
    "name": "[H] Jihad Dehaini",
    "runways": [
      {
        "type": 102,
        "width": 18,
        "surfaceType": 2,
        "numberStart": "H1",
        "numberEnd": null,
        "latStart": -25.57666667,
        "lonStart": -49.39361111,
        "latEnd": null,
        "lonEnd": null,
        "length": 18
      }
    ],
    "id": 28756
  },
  {
    "type": 1,
    "icao": "SSTH",
    "lat": -25.5205085,
    "lon": -49.68204,
    "communications": [],
    "elevation": 3346,
    "tower": false,
    "name": "FAZENDA THALIA",
    "runways": [
      {
        "type": 100,
        "width": 22.86,
        "surfaceType": null,
        "numberStart": "09",
        "numberEnd": "27",
        "latStart": -25.522039,
        "lonStart": -49.687069,
        "latEnd": -25.518978,
        "lonEnd": -49.677011,
        "length": 0,
        "surfacetype": 1
      }
    ],
    "id": 28778
  },
  {
    "type": 1,
    "icao": "SSUL",
    "lat": -25.476944445,
    "lon": -49.154166669999995,
    "communications": [],
    "elevation": 3215,
    "tower": false,
    "name": "Ultraleve Clube de Curitiba",
    "runways": [
      {
        "type": 100,
        "width": 24.99,
        "surfaceType": null,
        "numberStart": "02",
        "numberEnd": "20",
        "latStart": -25.48010147,
        "lonStart": -49.15423997,
        "latEnd": -25.47378742,
        "lonEnd": -49.15409337,
        "length": 0,
        "surfacetype": 3
      }
    ],
    "id": 28803
  },
  {
    "type": 17,
    "icao": "SSXE",
    "lat": -25.42972222,
    "lon": -49.28,
    "communications": [],
    "elevation": 3131,
    "tower": false,
    "name": "[H] Homs Business",
    "runways": [
      {
        "type": 102,
        "width": 18,
        "surfaceType": 2,
        "numberStart": "H1",
        "numberEnd": null,
        "latStart": -25.42972222,
        "lonStart": -49.28,
        "latEnd": null,
        "lonEnd": null,
        "length": 18
      }
    ],
    "id": 28872
  },
  {
    "type": 17,
    "icao": "SWTT",
    "lat": -25.43194444,
    "lon": -49.32555556,
    "communications": [],
    "elevation": 3120,
    "tower": false,
    "name": "[H] Supermax",
    "runways": [
      {
        "type": 102,
        "width": 20.1,
        "surfaceType": 2,
        "numberStart": "H1",
        "numberEnd": null,
        "latStart": -25.43194444,
        "lonStart": -49.32555556,
        "latEnd": null,
        "lonEnd": null,
        "length": 20.1
      }
    ],
    "id": 29499
  }
]