[
  {
    "type": 1,
    "icao": "KECG",
    "lat": 36.25972982,
    "lon": -44.05007663857142,
    "communications": [
      {
        "type": 50,
        "frequency": 12437,
        "name": "ASOS"
      },
      {
        "type": 51,
        "frequency": 12295,
        "name": "UNICOM"
      },
      {
        "type": 51,
        "frequency": 12050,
        "name": "CTAF"
      },
      {
        "type": 53,
        "frequency": 12190,
        "name": "GND"
      },
      {
        "type": 54,
        "frequency": 12050,
        "name": "TWR"
      },
      {
        "type": 55,
        "frequency": 11955,
        "name": "NORFOLK APP/DEP"
      }
    ],
    "elevation": 12,
    "tower": true,
    "name": "ELIZABETH CITY CGAS RGNL",
    "runways": [
      {
        "type": 100,
        "width": 45.72,
        "surfaceType": null,
        "numberStart": "10",
        "numberEnd": "28",
        "latStart": 36.261347,
        "lonStart": -76.184197,
        "latEnd": 36.260514,
        "lonEnd": -76.159736,
        "length": 0,
        "surfacetype": 2
      },
      {
        "type": 100,
        "width": 45.72,
        "surfaceType": null,
        "numberStart": "01",
        "numberEnd": "19",
        "latStart": 36.253822,
        "lonStart": -76.179078,
        "latEnd": 36.266222,
        "lonEnd": -76.178414,
        "length": 0,
        "surfacetype": 1
      },
      {
        "type": 102,
        "width": 15.2,
        "surfaceType": 1,
        "numberStart": "H1",
        "numberEnd": null,
        "latStart": 36.25564626,
        "lonStart": -76.17151442,
        "latEnd": null,
        "lonEnd": null,
        "length": 15.2
      },
      {
        "type": 102,
        "width": 15.2,
        "surfaceType": 1,
        "numberStart": "H2",
        "numberEnd": null,
        "latStart": 36.25792585,
        "lonStart": -76.16667553,
        "latEnd": null,
        "lonEnd": null,
        "length": 15.2
      },
      {
        "type": 102,
        "width": 15.2,
        "surfaceType": 1,
        "numberStart": "H3",
        "numberEnd": null,
        "latStart": 36.26263163,
        "lonStart": -76.17580752,
        "latEnd": null,
        "lonEnd": null,
        "length": 15.2
      }
    ],
    "id": 6731
  }
]