[
  {
    "type": 1,
    "icao": "EFKJ",
    "lat": 62.463499999999996,
    "lon": 22.391541500000002,
    "communications": [],
    "elevation": 407,
    "tower": false,
    "name": "KAUHAJOKI",
    "runways": [
      {
        "type": 100,
        "width": 22.86,
        "surfaceType": null,
        "numberStart": "07",
        "numberEnd": "25",
        "latStart": 62.461722,
        "lonStart": 22.380972,
        "latEnd": 62.465278,
        "lonEnd": 22.402111,
        "length": 0,
        "surfacetype": 1
      }
    ],
    "id": 16190
  },
  {
    "type": 1,
    "icao": "EFSI",
    "lat": 62.69064172,
    "lon": 22.8354095,
    "communications": [
      {
        "type": 54,
        "frequency": 12360,
        "name": "AFIS"
      },
      {
        "type": 54,
        "frequency": 11970,
        "name": "AFIS"
      },
      {
        "type": 54,
        "frequency": 11970,
        "name": "KAUHAVA TWR"
      },
      {
        "type": 54,
        "frequency": 12280,
        "name": "KAUHAVA TWR"
      },
      {
        "type": 55,
        "frequency": 13010,
        "name": "KAUHAVA APP"
      },
      {
        "type": 55,
        "frequency": 12660,
        "name": "KAUHAVA APP"
      },
      {
        "type": 55,
        "frequency": 12815,
        "name": "KAUHAVA RADAR"
      },
      {
        "type": 55,
        "frequency": 11970,
        "name": "KAUHAVA RADAR"
      }
    ],
    "elevation": 301,
    "tower": true,
    "name": "Seinajoki",
    "runways": [
      {
        "type": 100,
        "width": 29.87,
        "surfaceType": null,
        "numberStart": "14",
        "numberEnd": "32",
        "latStart": 62.697114,
        "lonStart": 22.821894,
        "latEnd": 62.68416944,
        "lonEnd": 22.848925,
        "length": 0,
        "surfacetype": 1
      }
    ],
    "id": 16220
  }
]