[
  {
    "type": 1,
    "icao": "1AZ0",
    "lat": 33.111933050000005,
    "lon": -112.26927175,
    "communications": [
      {
        "type": 51,
        "frequency": 12272,
        "name": "UNICOM"
      }
    ],
    "elevation": 1261,
    "tower": false,
    "name": "MOBILE",
    "runways": [
      {
        "type": 100,
        "width": 22.86,
        "surfaceType": null,
        "numberStart": "09",
        "numberEnd": "27",
        "latStart": 33.11349898,
        "lonStart": -112.27639004,
        "latEnd": 33.11036712,
        "lonEnd": -112.26215346,
        "length": 0,
        "surfacetype": 1
      }
    ],
    "id": 36
  },
  {
    "type": 1,
    "icao": "10AZ",
    "lat": 33.366778355,
    "lon": -112.61822956500001,
    "communications": [
      {
        "type": 50,
        "frequency": 11835,
        "name": "ATIS at GYR"
      },
      {
        "type": 50,
        "frequency": 13492,
        "name": "ATIS at LUF"
      },
      {
        "type": 50,
        "frequency": 11942,
        "name": "ATIS at GEU"
      }
    ],
    "elevation": 859,
    "tower": false,
    "name": "PIERCE",
    "runways": [
      {
        "type": 100,
        "width": 12.19,
        "surfaceType": null,
        "numberStart": "08",
        "numberEnd": "26",
        "latStart": 33.36671667,
        "lonStart": -112.62381014,
        "latEnd": 33.36684004,
        "lonEnd": -112.61264899,
        "length": 0,
        "surfacetype": 1
      }
    ],
    "id": 327
  },
  {
    "type": 17,
    "icao": "AZ88",
    "lat": 33.702878945,
    "lon": -112.07022867666667,
    "communications": [],
    "elevation": 1504,
    "tower": false,
    "name": "[H] Granite Reef",
    "runways": [
      {
        "type": 102,
        "width": 6.4,
        "surfaceType": 2,
        "numberStart": "H1",
        "numberEnd": null,
        "latStart": 33.70307881,
        "lonStart": -112.07034447,
        "latEnd": null,
        "lonEnd": null,
        "length": 6.4
      },
      {
        "type": 102,
        "width": 6.4,
        "surfaceType": 2,
        "numberStart": "H2",
        "numberEnd": null,
        "latStart": 33.70308038,
        "lonStart": -112.07011314,
        "latEnd": null,
        "lonEnd": null,
        "length": 6.4
      },
      {
        "type": 102,
        "width": 6.4,
        "surfaceType": 2,
        "numberStart": "H3",
        "numberEnd": null,
        "latStart": 33.70288689,
        "lonStart": -112.07034386,
        "latEnd": null,
        "lonEnd": null,
        "length": 6.4
      },
      {
        "type": 102,
        "width": 6.4,
        "surfaceType": 2,
        "numberStart": "H4",
        "numberEnd": null,
        "latStart": 33.70286034,
        "lonStart": -112.07011365,
        "latEnd": null,
        "lonEnd": null,
        "length": 6.4
      },
      {
        "type": 102,
        "width": 6.4,
        "surfaceType": 2,
        "numberStart": "H5",
        "numberEnd": null,
        "latStart": 33.70269538,
        "lonStart": -112.07034386,
        "latEnd": null,
        "lonEnd": null,
        "length": 6.4
      },
      {
        "type": 102,
        "width": 6.4,
        "surfaceType": 2,
        "numberStart": "H6",
        "numberEnd": null,
        "latStart": 33.70267187,
        "lonStart": -112.07011308,
        "latEnd": null,
        "lonEnd": null,
        "length": 6.4
      }
    ],
    "id": 529
  },
  {
    "type": 1,
    "icao": "E25",
    "lat": 33.9679819175,
    "lon": -112.7992466725,
    "communications": [
      {
        "type": 50,
        "frequency": 12137,
        "name": "ASOS/AWOS"
      },
      {
        "type": 51,
        "frequency": 12300,
        "name": "CTAF/UNICOM"
      }
    ],
    "elevation": 2386,
    "tower": false,
    "name": "WICKENBURG MUNI",
    "runways": [
      {
        "type": 100,
        "width": 22.86,
        "surfaceType": null,
        "numberStart": "05",
        "numberEnd": "23",
        "latStart": 33.9668232,
        "lonStart": -112.80278558,
        "latEnd": 33.9734872,
        "lonEnd": -112.78834358,
        "length": 0,
        "surfacetype": 1
      },
      {
        "type": 102,
        "width": 12.2,
        "surfaceType": 1,
        "numberStart": "H12",
        "numberEnd": null,
        "latStart": 33.96589303,
        "lonStart": -112.80299038,
        "latEnd": null,
        "lonEnd": null,
        "length": 12.2
      },
      {
        "type": 102,
        "width": 12.2,
        "surfaceType": 1,
        "numberStart": "H11",
        "numberEnd": null,
        "latStart": 33.96572424,
        "lonStart": -112.80286715,
        "latEnd": null,
        "lonEnd": null,
        "length": 12.2
      }
    ],
    "id": 928
  },
  {
    "type": 1,
    "icao": "E68",
    "lat": 33.085723619999996,
    "lon": -112.161126215,
    "communications": [
      {
        "type": 51,
        "frequency": 12290,
        "name": "CTAF"
      },
      {
        "type": 50,
        "frequency": 12690,
        "name": "AWOS-3 at A39"
      }
    ],
    "elevation": 1272,
    "tower": false,
    "name": "Estrella Sailport",
    "runways": [
      {
        "type": 100,
        "width": 9.14,
        "surfaceType": null,
        "numberStart": "06",
        "numberEnd": "24",
        "latStart": 33.08431618,
        "lonStart": -112.16492419,
        "latEnd": 33.08633714,
        "lonEnd": -112.15703471,
        "length": 0,
        "surfacetype": 1
      },
      {
        "type": 100,
        "width": 6.1,
        "surfaceType": null,
        "numberStart": "07",
        "numberEnd": "25",
        "latStart": 33.08537887,
        "lonStart": -112.16415051,
        "latEnd": 33.08686229,
        "lonEnd": -112.15839545,
        "length": 0,
        "surfacetype": 4
      }
    ],
    "id": 934
  },
  {
    "type": 1,
    "icao": "KBXK",
    "lat": 33.422537500000004,
    "lon": -112.68618047,
    "communications": [
      {
        "type": 50,
        "frequency": 11962,
        "name": "ASOS/AWOS"
      },
      {
        "type": 51,
        "frequency": 12297,
        "name": "CTAF/UNICOM"
      }
    ],
    "elevation": 1033,
    "tower": false,
    "name": "Buckeye Municipal",
    "runways": [
      {
        "type": 100,
        "width": 22.86,
        "surfaceType": null,
        "numberStart": "17",
        "numberEnd": "35",
        "latStart": 33.430076,
        "lonStart": -112.68586155,
        "latEnd": 33.414999,
        "lonEnd": -112.68649939,
        "length": 0,
        "surfacetype": 1
      }
    ],
    "id": 2459
  },
  {
    "type": 1,
    "icao": "KDVT",
    "lat": 33.686659698,
    "lon": -112.08259041600002,
    "communications": [
      {
        "type": 50,
        "frequency": 12650,
        "name": "ATIS"
      },
      {
        "type": 51,
        "frequency": 11840,
        "name": "CTAF"
      },
      {
        "type": 51,
        "frequency": 12295,
        "name": "UNICOM"
      },
      {
        "type": 52,
        "frequency": 12390,
        "name": "CLNC DEL"
      },
      {
        "type": 53,
        "frequency": 12180,
        "name": "GND"
      },
      {
        "type": 54,
        "frequency": 11840,
        "name": "DEER VALLEY TWR 07-25 L"
      },
      {
        "type": 54,
        "frequency": 12020,
        "name": "DEER VALLEY TWR 07-25 R"
      },
      {
        "type": 55,
        "frequency": 12070,
        "name": "APP/DEP"
      }
    ],
    "elevation": 1478,
    "tower": true,
    "name": "DEER VALLEY",
    "runways": [
      {
        "type": 100,
        "width": 30.48,
        "surfaceType": null,
        "numberStart": "07R",
        "numberEnd": "25L",
        "latStart": 33.68683771,
        "lonStart": -112.096267,
        "latEnd": 33.68840771,
        "lonEnd": -112.069353,
        "length": 0,
        "surfacetype": 1
      },
      {
        "type": 100,
        "width": 22.86,
        "surfaceType": null,
        "numberStart": "07L",
        "numberEnd": "25R",
        "latStart": 33.68916571,
        "lonStart": -112.08945,
        "latEnd": 33.69002371,
        "lonEnd": -112.074694,
        "length": 0,
        "surfacetype": 1
      },
      {
        "type": 102,
        "width": 9.2,
        "surfaceType": 1,
        "numberStart": "H22",
        "numberEnd": null,
        "latStart": 33.68412935,
        "lonStart": -112.08504325,
        "latEnd": null,
        "lonEnd": null,
        "length": 7.8
      },
      {
        "type": 102,
        "width": 9.2,
        "surfaceType": 1,
        "numberStart": "H18",
        "numberEnd": null,
        "latStart": 33.68413106,
        "lonStart": -112.0853218,
        "latEnd": null,
        "lonEnd": null,
        "length": 7.8
      },
      {
        "type": 102,
        "width": 9.2,
        "surfaceType": 1,
        "numberStart": "H56",
        "numberEnd": null,
        "latStart": 33.6841301,
        "lonStart": -112.08557876,
        "latEnd": null,
        "lonEnd": null,
        "length": 7.8
      },
      {
        "type": 102,
        "width": 23.7,
        "surfaceType": 1,
        "numberStart": "H16",
        "numberEnd": null,
        "latStart": 33.68691804,
        "lonStart": -112.07396713,
        "latEnd": null,
        "lonEnd": null,
        "length": 17.8
      },
      {
        "type": 102,
        "width": 12.2,
        "surfaceType": 1,
        "numberStart": "H1",
        "numberEnd": null,
        "latStart": 33.68641558,
        "lonStart": -112.08325564,
        "latEnd": null,
        "lonEnd": null,
        "length": 13.2
      },
      {
        "type": 102,
        "width": 12.2,
        "surfaceType": 1,
        "numberStart": "H2",
        "numberEnd": null,
        "latStart": 33.68643801,
        "lonStart": -112.08297358,
        "latEnd": null,
        "lonEnd": null,
        "length": 12.6
      }
    ],
    "id": 2589
  },
  {
    "type": 1,
    "icao": "KGEU",
    "lat": 33.52868626,
    "lon": -112.29530577666667,
    "communications": [
      {
        "type": 50,
        "frequency": 11942,
        "name": "ATIS"
      },
      {
        "type": 51,
        "frequency": 12100,
        "name": "CTAF"
      },
      {
        "type": 51,
        "frequency": 12295,
        "name": "UNICOM"
      },
      {
        "type": 53,
        "frequency": 11800,
        "name": "GND"
      },
      {
        "type": 54,
        "frequency": 12100,
        "name": "TWR"
      },
      {
        "type": 55,
        "frequency": 11815,
        "name": "LUKE APP/DEP"
      }
    ],
    "elevation": 1069,
    "tower": true,
    "name": "Glendale Muni",
    "runways": [
      {
        "type": 100,
        "width": 29.87,
        "surfaceType": null,
        "numberStart": "01",
        "numberEnd": "19",
        "latStart": 33.51805899,
        "lonStart": -112.30022537,
        "latEnd": 33.53576734,
        "lonEnd": -112.29004684,
        "length": 0,
        "surfacetype": 1
      },
      {
        "type": 102,
        "width": 12.2,
        "surfaceType": 1,
        "numberStart": "H1",
        "numberEnd": null,
        "latStart": 33.53223245,
        "lonStart": -112.29564512,
        "latEnd": null,
        "lonEnd": null,
        "length": 12.2
      }
    ],
    "id": 2706
  },
  {
    "type": 1,
    "icao": "KGYR",
    "lat": 33.42544371333333,
    "lon": -112.37191371,
    "communications": [
      {
        "type": 50,
        "frequency": 11835,
        "name": "ATIS"
      },
      {
        "type": 51,
        "frequency": 12295,
        "name": "UNICOM"
      },
      {
        "type": 53,
        "frequency": 12170,
        "name": "GND"
      },
      {
        "type": 54,
        "frequency": 12010,
        "name": "GOODYEAR TWR"
      },
      {
        "type": 56,
        "frequency": 12070,
        "name": "Dep"
      },
      {
        "type": 55,
        "frequency": 12070,
        "name": "App"
      }
    ],
    "elevation": 969,
    "tower": true,
    "name": "Phoenix Goodyear",
    "runways": [
      {
        "type": 100,
        "width": 45.72,
        "surfaceType": null,
        "numberStart": "03",
        "numberEnd": "21",
        "latStart": 33.41472422,
        "lonStart": -112.38332041,
        "latEnd": 33.43272753,
        "lonEnd": -112.36555632,
        "length": 0,
        "surfacetype": 1
      },
      {
        "type": 102,
        "width": 18.3,
        "surfaceType": 2,
        "numberStart": "H1",
        "numberEnd": null,
        "latStart": 33.42887939,
        "lonStart": -112.3668644,
        "latEnd": null,
        "lonEnd": null,
        "length": 18.3
      }
    ],
    "id": 2744
  },
  {
    "type": 1,
    "icao": "KLUF",
    "lat": 33.534975,
    "lon": -112.383177,
    "communications": [
      {
        "type": 50,
        "frequency": 13492,
        "name": "ATIS"
      },
      {
        "type": 52,
        "frequency": 12625,
        "name": "CLNC DEL"
      },
      {
        "type": 53,
        "frequency": 13317,
        "name": "GND"
      },
      {
        "type": 54,
        "frequency": 11910,
        "name": "TWR"
      },
      {
        "type": 55,
        "frequency": 12070,
        "name": "APP/DEP"
      }
    ],
    "elevation": 1084,
    "tower": true,
    "name": "Luke AFB",
    "runways": [
      {
        "type": 100,
        "width": 45.72,
        "surfaceType": null,
        "numberStart": "03L",
        "numberEnd": "21R",
        "latStart": 33.522975,
        "lonStart": -112.398564,
        "latEnd": 33.543242,
        "lonEnd": -112.376344,
        "length": 0,
        "surfacetype": 1
      },
      {
        "type": 100,
        "width": 45.72,
        "surfaceType": null,
        "numberStart": "03R",
        "numberEnd": "21L",
        "latStart": 33.526822,
        "lonStart": -112.389892,
        "latEnd": 33.546861,
        "lonEnd": -112.367908,
        "length": 0,
        "surfacetype": 2
      }
    ],
    "id": 2915
  },
  {
    "type": 1,
    "icao": "KPHX",
    "lat": 33.43358,
    "lon": -112.01183666666667,
    "communications": [
      {
        "type": 50,
        "frequency": 12757,
        "name": "ATIS"
      },
      {
        "type": 51,
        "frequency": 12285,
        "name": "UNICOM"
      },
      {
        "type": 51,
        "frequency": 12295,
        "name": "UNICOM"
      },
      {
        "type": 52,
        "frequency": 11810,
        "name": "CLNC DEL"
      },
      {
        "type": 53,
        "frequency": 11975,
        "name": "GND"
      },
      {
        "type": 53,
        "frequency": 13255,
        "name": "GND"
      },
      {
        "type": 54,
        "frequency": 11870,
        "name": "TWR"
      },
      {
        "type": 54,
        "frequency": 12090,
        "name": "TWR"
      },
      {
        "type": 55,
        "frequency": 11920,
        "name": "APP/DEP"
      },
      {
        "type": 55,
        "frequency": 12070,
        "name": "APP/DEP"
      },
      {
        "type": 55,
        "frequency": 12370,
        "name": "APP/DEP"
      },
      {
        "type": 55,
        "frequency": 12410,
        "name": "APP/DEP"
      },
      {
        "type": 55,
        "frequency": 12490,
        "name": "APP/DEP"
      },
      {
        "type": 55,
        "frequency": 12680,
        "name": "APP/DEP"
      },
      {
        "type": 55,
        "frequency": 12865,
        "name": "APP/DEP"
      },
      {
        "type": 56,
        "frequency": 11920,
        "name": "APP/DEP"
      },
      {
        "type": 56,
        "frequency": 12070,
        "name": "APP/DEP"
      },
      {
        "type": 56,
        "frequency": 12370,
        "name": "APP/DEP"
      },
      {
        "type": 56,
        "frequency": 12410,
        "name": "APP/DEP"
      },
      {
        "type": 56,
        "frequency": 12490,
        "name": "APP/DEP"
      },
      {
        "type": 56,
        "frequency": 12680,
        "name": "APP/DEP"
      },
      {
        "type": 56,
        "frequency": 12865,
        "name": "APP/DEP"
      }
    ],
    "elevation": 1134,
    "tower": true,
    "name": "Phoenix Sky Harbor Intl",
    "runways": [
      {
        "type": 100,
        "width": 46.02,
        "surfaceType": null,
        "numberStart": "08",
        "numberEnd": "26",
        "latStart": 33.4408612,
        "lonStart": -112.02979379,
        "latEnd": 33.4408228,
        "lonEnd": -111.99213621,
        "length": 0,
        "surfacetype": 2
      },
      {
        "type": 100,
        "width": 46.02,
        "surfaceType": null,
        "numberStart": "07L",
        "numberEnd": "25R",
        "latStart": 33.43105683,
        "lonStart": -112.02709997,
        "latEnd": 33.43103717,
        "lonEnd": -111.99334803,
        "length": 0,
        "surfacetype": 2
      },
      {
        "type": 100,
        "width": 46.02,
        "surfaceType": null,
        "numberStart": "07R",
        "numberEnd": "25L",
        "latStart": 33.42885845,
        "lonStart": -112.02710296,
        "latEnd": 33.42884355,
        "lonEnd": -112.00153904,
        "length": 0,
        "surfacetype": 2
      }
    ],
    "id": 3121
  },
  {
    "type": 1,
    "icao": "0AZ5",
    "lat": 33.865865830000004,
    "lon": -112.60336834,
    "communications": [],
    "elevation": 2080,
    "tower": false,
    "name": "Castle Well",
    "runways": [
      {
        "type": 100,
        "width": 18.29,
        "surfaceType": null,
        "numberStart": "17",
        "numberEnd": "35",
        "latStart": 33.86860505,
        "lonStart": -112.60319545,
        "latEnd": 33.86312661,
        "lonEnd": -112.60354123,
        "length": 0,
        "surfacetype": 1
      }
    ],
    "id": 5712
  },
  {
    "type": 17,
    "icao": "0AZ6",
    "lat": 33.48170972,
    "lon": -112.07737139,
    "communications": [],
    "elevation": 1117,
    "tower": false,
    "name": "[H] St Josephs Hospital",
    "runways": [
      {
        "type": 102,
        "width": 13.7,
        "surfaceType": 2,
        "numberStart": "H1",
        "numberEnd": null,
        "latStart": 33.48170972,
        "lonStart": -112.07737139,
        "latEnd": null,
        "lonEnd": null,
        "length": 14.6
      },
      {
        "type": 102,
        "width": 13.7,
        "surfaceType": 2,
        "numberStart": "H2",
        "numberEnd": null,
        "latStart": 33.48170972,
        "lonStart": -112.07737139,
        "latEnd": null,
        "lonEnd": null,
        "length": 14.6
      },
      {
        "type": 102,
        "width": 13.7,
        "surfaceType": 2,
        "numberStart": "H3",
        "numberEnd": null,
        "latStart": 33.48170972,
        "lonStart": -112.07737139,
        "latEnd": null,
        "lonEnd": null,
        "length": 14.6
      }
    ],
    "id": 5713
  },
  {
    "type": 17,
    "icao": "1AZ1",
    "lat": 33.51504111,
    "lon": -112.25598862,
    "communications": [],
    "elevation": 1060,
    "tower": false,
    "name": "[H] Boulais",
    "runways": [
      {
        "type": 102,
        "width": 30.5,
        "surfaceType": 1,
        "numberStart": "H1",
        "numberEnd": null,
        "latStart": 33.51504111,
        "lonStart": -112.25598862,
        "latEnd": null,
        "lonEnd": null,
        "length": 30.5
      }
    ],
    "id": 6299
  },
  {
    "type": 1,
    "icao": "1AZ2",
    "lat": 33.41171027,
    "lon": -112.18223473,
    "communications": [],
    "elevation": 1015,
    "tower": false,
    "name": "Paradise Air Park",
    "runways": [
      {
        "type": 100,
        "width": 15.24,
        "surfaceType": null,
        "numberStart": "17",
        "numberEnd": "35",
        "latStart": 33.41499734,
        "lonStart": -112.18202836,
        "latEnd": 33.4084232,
        "lonEnd": -112.1824411,
        "length": 0,
        "surfacetype": 4
      }
    ],
    "id": 6300
  },
  {
    "type": 17,
    "icao": "1AZ6",
    "lat": 33.57406861,
    "lon": -112.10292834,
    "communications": [],
    "elevation": 1233,
    "tower": false,
    "name": "[H] Pulice Construction",
    "runways": [
      {
        "type": 102,
        "width": 21.3,
        "surfaceType": 1,
        "numberStart": "H1",
        "numberEnd": null,
        "latStart": 33.57406861,
        "lonStart": -112.10292834,
        "latEnd": null,
        "lonEnd": null,
        "length": 21.3
      }
    ],
    "id": 6302
  },
  {
    "type": 17,
    "icao": "1AZ7",
    "lat": 33.44976472,
    "lon": -112.22987584,
    "communications": [],
    "elevation": 1140,
    "tower": false,
    "name": "[H] S R P Tolleson Center",
    "runways": [
      {
        "type": 102,
        "width": 7.6,
        "surfaceType": 1,
        "numberStart": "H1",
        "numberEnd": null,
        "latStart": 33.44976472,
        "lonStart": -112.22987584,
        "latEnd": null,
        "lonEnd": null,
        "length": 7.6
      }
    ],
    "id": 6303
  },
  {
    "type": 17,
    "icao": "2AZ2",
    "lat": 33.56865111,
    "lon": -112.2279325,
    "communications": [],
    "elevation": 1133,
    "tower": false,
    "name": "[H] Sunstate-Glendale Helistop",
    "runways": [
      {
        "type": 102,
        "width": 30.5,
        "surfaceType": 1,
        "numberStart": "H1",
        "numberEnd": null,
        "latStart": 33.56865111,
        "lonStart": -112.2279325,
        "latEnd": null,
        "lonEnd": null,
        "length": 30.5
      }
    ],
    "id": 6883
  },
  {
    "type": 1,
    "icao": "2AZ3",
    "lat": 33.61281611,
    "lon": -112.3354375,
    "communications": [],
    "elevation": 1150,
    "tower": false,
    "name": "El Mirage-Village Square",
    "runways": [
      {
        "type": 100,
        "width": 30.48,
        "surfaceType": null,
        "numberStart": "05",
        "numberEnd": "23",
        "latStart": 33.61144629,
        "lonStart": -112.33866567,
        "latEnd": 33.61418593,
        "lonEnd": -112.33220933,
        "length": 0,
        "surfacetype": 3
      }
    ],
    "id": 6884
  },
  {
    "type": 1,
    "icao": "2AZ4",
    "lat": 33.053660550000004,
    "lon": -112.14570056,
    "communications": [],
    "elevation": 1215,
    "tower": false,
    "name": "Millar",
    "runways": [
      {
        "type": 100,
        "width": 22.86,
        "surfaceType": null,
        "numberStart": "16",
        "numberEnd": "34",
        "latStart": 33.05679147,
        "lonStart": -112.14615922,
        "latEnd": 33.05052963,
        "lonEnd": -112.1452419,
        "length": 0,
        "surfacetype": 4
      }
    ],
    "id": 6885
  },
  {
    "type": 1,
    "icao": "2AZ7",
    "lat": 33.684205,
    "lon": -112.16376584000001,
    "communications": [],
    "elevation": 1360,
    "tower": false,
    "name": "Mc Gills Ultralight Field",
    "runways": [
      {
        "type": 100,
        "width": 22.86,
        "surfaceType": null,
        "numberStart": "08",
        "numberEnd": "26",
        "latStart": 33.68437727,
        "lonStart": -112.16771613,
        "latEnd": 33.68403273,
        "lonEnd": -112.15981555,
        "length": 0,
        "surfacetype": 4
      },
      {
        "type": 100,
        "width": 22.86,
        "surfaceType": null,
        "numberStart": "01",
        "numberEnd": "19",
        "latStart": 33.68180632,
        "lonStart": -112.16498946,
        "latEnd": 33.68660368,
        "lonEnd": -112.16254222,
        "length": 0,
        "surfacetype": 4
      },
      {
        "type": 100,
        "width": 22.86,
        "surfaceType": null,
        "numberStart": "17",
        "numberEnd": "35",
        "latStart": 33.6866703,
        "lonStart": -112.16361057,
        "latEnd": 33.6817397,
        "lonEnd": -112.16392111,
        "length": 0,
        "surfacetype": 4
      }
    ],
    "id": 6888
  },
  {
    "type": 17,
    "icao": "3AZ4",
    "lat": 33.66587222,
    "lon": -112.11515167,
    "communications": [],
    "elevation": 1378,
    "tower": false,
    "name": "[H] Phoenix General Satellite Hospital",
    "runways": [
      {
        "type": 102,
        "width": 16.8,
        "surfaceType": 2,
        "numberStart": "H1",
        "numberEnd": null,
        "latStart": 33.66587222,
        "lonStart": -112.11515167,
        "latEnd": null,
        "lonEnd": null,
        "length": 16.8
      }
    ],
    "id": 7438
  },
  {
    "type": 17,
    "icao": "3AZ6",
    "lat": 33.65989833,
    "lon": -112.37321806,
    "communications": [],
    "elevation": 1253,
    "tower": false,
    "name": "[H] Del E Webb Memorial Hospital",
    "runways": [
      {
        "type": 102,
        "width": 15.2,
        "surfaceType": 2,
        "numberStart": "H1",
        "numberEnd": null,
        "latStart": 33.65989833,
        "lonStart": -112.37321806,
        "latEnd": null,
        "lonEnd": null,
        "length": 15.2
      }
    ],
    "id": 7440
  },
  {
    "type": 17,
    "icao": "4AZ5",
    "lat": 33.84503333,
    "lon": -112.26988334,
    "communications": [],
    "elevation": 1582,
    "tower": false,
    "name": "[H] New Waddell Dam",
    "runways": [
      {
        "type": 102,
        "width": 7.6,
        "surfaceType": 2,
        "numberStart": "H1",
        "numberEnd": null,
        "latStart": 33.84503333,
        "lonStart": -112.26988334,
        "latEnd": null,
        "lonEnd": null,
        "length": 9.1
      }
    ],
    "id": 7983
  },
  {
    "type": 1,
    "icao": "05E",
    "lat": 33.85392111,
    "lon": -112.65323028,
    "communications": [],
    "elevation": 1840,
    "tower": false,
    "name": "Ranta Strip",
    "runways": [
      {
        "type": 100,
        "width": 30.48,
        "surfaceType": null,
        "numberStart": "09",
        "numberEnd": "27",
        "latStart": 33.85466155,
        "lonStart": -112.65709225,
        "latEnd": 33.85318067,
        "lonEnd": -112.64936831,
        "length": 0,
        "surfacetype": 5
      }
    ],
    "id": 8549
  },
  {
    "type": 17,
    "icao": "12E",
    "lat": 33.44282111,
    "lon": -112.14876223,
    "communications": [],
    "elevation": 1048,
    "tower": false,
    "name": "[H] Phoenix Area",
    "runways": [
      {
        "type": 102,
        "width": 12.2,
        "surfaceType": 2,
        "numberStart": "H2",
        "numberEnd": null,
        "latStart": 33.44282111,
        "lonStart": -112.14876223,
        "latEnd": null,
        "lonEnd": null,
        "length": 12.2
      }
    ],
    "id": 10968
  },
  {
    "type": 17,
    "icao": "13E",
    "lat": 33.44865472,
    "lon": -112.08098223,
    "communications": [],
    "elevation": 1120,
    "tower": false,
    "name": "[H] KTSP",
    "runways": [
      {
        "type": 102,
        "width": 7.3,
        "surfaceType": 1,
        "numberStart": "H1",
        "numberEnd": null,
        "latStart": 33.44865472,
        "lonStart": -112.08098223,
        "latEnd": null,
        "lonEnd": null,
        "length": 7.3
      }
    ],
    "id": 11006
  },
  {
    "type": 17,
    "icao": "15E",
    "lat": 33.56670805,
    "lon": -112.06876112,
    "communications": [],
    "elevation": 1253,
    "tower": false,
    "name": "[H] John C Lincoln Hospital",
    "runways": [
      {
        "type": 102,
        "width": 12.2,
        "surfaceType": 2,
        "numberStart": "H1",
        "numberEnd": null,
        "latStart": 33.56670805,
        "lonStart": -112.06876112,
        "latEnd": null,
        "lonEnd": null,
        "length": 12.2
      }
    ],
    "id": 11093
  },
  {
    "type": 17,
    "icao": "16E",
    "lat": 33.46504333,
    "lon": -112.06014778,
    "communications": [],
    "elevation": 1139,
    "tower": false,
    "name": "[H] Good Samaritan Hospital",
    "runways": [
      {
        "type": 102,
        "width": 10.7,
        "surfaceType": 2,
        "numberStart": "H1",
        "numberEnd": null,
        "latStart": 33.46504333,
        "lonStart": -112.06014778,
        "latEnd": null,
        "lonEnd": null,
        "length": 10.7
      }
    ],
    "id": 11135
  },
  {
    "type": 17,
    "icao": "20E",
    "lat": 33.45643277,
    "lon": -112.02431334,
    "communications": [],
    "elevation": 1117,
    "tower": false,
    "name": "[H] Maricopa Medical Center",
    "runways": [
      {
        "type": 102,
        "width": 30.5,
        "surfaceType": 1,
        "numberStart": "H1",
        "numberEnd": null,
        "latStart": 33.45643277,
        "lonStart": -112.02431334,
        "latEnd": null,
        "lonEnd": null,
        "length": 30.5
      }
    ],
    "id": 11300
  },
  {
    "type": 1,
    "icao": "44E",
    "lat": 33.95391722,
    "lon": -112.99296195,
    "communications": [],
    "elevation": 2428,
    "tower": false,
    "name": "Forepaugh",
    "runways": [
      {
        "type": 100,
        "width": 25.91,
        "surfaceType": null,
        "numberStart": "03",
        "numberEnd": "21",
        "latStart": 33.94779865,
        "lonStart": -112.99984049,
        "latEnd": 33.96003579,
        "lonEnd": -112.98608341,
        "length": 0,
        "surfacetype": 4
      },
      {
        "type": 100,
        "width": 24.38,
        "surfaceType": null,
        "numberStart": "08",
        "numberEnd": "26",
        "latStart": 33.95409667,
        "lonStart": -112.99708983,
        "latEnd": 33.95373777,
        "lonEnd": -112.98883407,
        "length": 0,
        "surfacetype": 4
      }
    ],
    "id": 12244
  },
  {
    "type": 17,
    "icao": "AR31",
    "lat": 33.61392777,
    "lon": -112.27293501,
    "communications": [],
    "elevation": 1140,
    "tower": false,
    "name": "[H] C. Andrew Laird",
    "runways": [
      {
        "type": 102,
        "width": 9.1,
        "surfaceType": 1,
        "numberStart": "H1",
        "numberEnd": null,
        "latStart": 33.61392777,
        "lonStart": -112.27293501,
        "latEnd": null,
        "lonEnd": null,
        "length": 9.1
      }
    ],
    "id": 14620
  },
  {
    "type": 17,
    "icao": "AZ08",
    "lat": 33.60365,
    "lon": -112.28154612,
    "communications": [],
    "elevation": 1163,
    "tower": false,
    "name": "[H] Boswell Memorial Hospital",
    "runways": [
      {
        "type": 102,
        "width": 15.2,
        "surfaceType": 1,
        "numberStart": "H1",
        "numberEnd": null,
        "latStart": 33.60365,
        "lonStart": -112.28154612,
        "latEnd": null,
        "lonEnd": null,
        "length": 15.2
      }
    ],
    "id": 14813
  },
  {
    "type": 17,
    "icao": "AZ11",
    "lat": 33.46115444,
    "lon": -112.07570417,
    "communications": [],
    "elevation": 1327,
    "tower": false,
    "name": "[H] Kpnx-Tv Studios",
    "runways": [
      {
        "type": 102,
        "width": 7.6,
        "surfaceType": 1,
        "numberStart": "H1",
        "numberEnd": null,
        "latStart": 33.46115444,
        "lonStart": -112.07570417,
        "latEnd": null,
        "lonEnd": null,
        "length": 7.6
      }
    ],
    "id": 14816
  },
  {
    "type": 1,
    "icao": "AZ13",
    "lat": 33.01699222,
    "lon": -112.28126001,
    "communications": [],
    "elevation": 1410,
    "tower": false,
    "name": "Schu Ranch",
    "runways": [
      {
        "type": 100,
        "width": 27.43,
        "surfaceType": null,
        "numberStart": "17",
        "numberEnd": "35",
        "latStart": 33.01973144,
        "lonStart": -112.28108881,
        "latEnd": 33.014253,
        "lonEnd": -112.28143121,
        "length": 0,
        "surfacetype": 4
      }
    ],
    "id": 14818
  },
  {
    "type": 17,
    "icao": "AZ24",
    "lat": 33.52476416,
    "lon": -112.10153862,
    "communications": [],
    "elevation": 1172,
    "tower": false,
    "name": "[H] Phoenix Baptist Hospital",
    "runways": [
      {
        "type": 102,
        "width": 12.2,
        "surfaceType": 2,
        "numberStart": "H1",
        "numberEnd": null,
        "latStart": 33.52476416,
        "lonStart": -112.10153862,
        "latEnd": null,
        "lonEnd": null,
        "length": 18.3
      }
    ],
    "id": 14828
  },
  {
    "type": 17,
    "icao": "AZ29",
    "lat": 33.47559777,
    "lon": -112.22376501,
    "communications": [],
    "elevation": 1055,
    "tower": false,
    "name": "[H] Westridge Mall",
    "runways": [
      {
        "type": 102,
        "width": 45.7,
        "surfaceType": 1,
        "numberStart": "H1",
        "numberEnd": null,
        "latStart": 33.47559777,
        "lonStart": -112.22376501,
        "latEnd": null,
        "lonEnd": null,
        "length": 45.7
      }
    ],
    "id": 14832
  },
  {
    "type": 17,
    "icao": "AZ30",
    "lat": 33.48532055,
    "lon": -112.07459334,
    "communications": [],
    "elevation": 1100,
    "tower": false,
    "name": "[H] United Bank Plaza",
    "runways": [
      {
        "type": 102,
        "width": 121.9,
        "surfaceType": 3,
        "numberStart": "H1",
        "numberEnd": null,
        "latStart": 33.48532055,
        "lonStart": -112.07459334,
        "latEnd": null,
        "lonEnd": null,
        "length": 121.9
      }
    ],
    "id": 14833
  },
  {
    "type": 1,
    "icao": "AZ32",
    "lat": 33.84753277,
    "lon": -112.58795084,
    "communications": [],
    "elevation": 2080,
    "tower": false,
    "name": "Roesner Ranch",
    "runways": [
      {
        "type": 100,
        "width": 18.29,
        "surfaceType": null,
        "numberStart": "18",
        "numberEnd": "36",
        "latStart": 33.85381356,
        "lonStart": -112.58620491,
        "latEnd": 33.84125198,
        "lonEnd": -112.58969677,
        "length": 0,
        "surfacetype": 5
      }
    ],
    "id": 14835
  },
  {
    "type": 17,
    "icao": "AZ33",
    "lat": 33.42587777,
    "lon": -112.02986917,
    "communications": [],
    "elevation": 1140,
    "tower": false,
    "name": "[H] Knoell-Main Office",
    "runways": [
      {
        "type": 102,
        "width": 9.1,
        "surfaceType": 2,
        "numberStart": "H1",
        "numberEnd": null,
        "latStart": 33.42587777,
        "lonStart": -112.02986917,
        "latEnd": null,
        "lonEnd": null,
        "length": 9.1
      }
    ],
    "id": 14836
  },
  {
    "type": 1,
    "icao": "AZ34",
    "lat": 33.69781416,
    "lon": -112.36821862,
    "communications": [],
    "elevation": 1313,
    "tower": false,
    "name": "Harts Field",
    "runways": [
      {
        "type": 100,
        "width": 15.24,
        "surfaceType": null,
        "numberStart": "08",
        "numberEnd": "26",
        "latStart": 33.69800078,
        "lonStart": -112.37249878,
        "latEnd": 33.69762754,
        "lonEnd": -112.36393846,
        "length": 0,
        "surfacetype": 4
      }
    ],
    "id": 14837
  },
  {
    "type": 17,
    "icao": "AZ41",
    "lat": 33.48337611,
    "lon": -112.07014834,
    "communications": [],
    "elevation": 1850,
    "tower": false,
    "name": "[H] Abacus Tower",
    "runways": [
      {
        "type": 102,
        "width": 9.1,
        "surfaceType": 2,
        "numberStart": "H1",
        "numberEnd": null,
        "latStart": 33.48337611,
        "lonStart": -112.07014834,
        "latEnd": null,
        "lonEnd": null,
        "length": 9.1
      }
    ],
    "id": 14842
  },
  {
    "type": 1,
    "icao": "AZ44",
    "lat": 33.780313050000004,
    "lon": -112.34405222999999,
    "communications": [],
    "elevation": 1529,
    "tower": false,
    "name": "Clementine Mine",
    "runways": [
      {
        "type": 100,
        "width": 15.24,
        "surfaceType": null,
        "numberStart": "12",
        "numberEnd": "30",
        "latStart": 33.7825579,
        "lonStart": -112.3469485,
        "latEnd": 33.7780682,
        "lonEnd": -112.34115596,
        "length": 0,
        "surfacetype": 5
      }
    ],
    "id": 14845
  },
  {
    "type": 17,
    "icao": "AZ48",
    "lat": 33.46504333,
    "lon": -112.05792556,
    "communications": [],
    "elevation": 1146,
    "tower": false,
    "name": "[H] Good Samaritan Medical Center",
    "runways": [
      {
        "type": 102,
        "width": 21,
        "surfaceType": 2,
        "numberStart": "H1",
        "numberEnd": null,
        "latStart": 33.46504333,
        "lonStart": -112.05792556,
        "latEnd": null,
        "lonEnd": null,
        "length": 39.3
      }
    ],
    "id": 14849
  },
  {
    "type": 17,
    "icao": "AZ57",
    "lat": 33.58087416,
    "lon": -112.10320639,
    "communications": [],
    "elevation": 1243,
    "tower": false,
    "name": "[H] Arizona Public Service Co",
    "runways": [
      {
        "type": 102,
        "width": 35.4,
        "surfaceType": 1,
        "numberStart": "H1",
        "numberEnd": null,
        "latStart": 33.58087416,
        "lonStart": -112.10320639,
        "latEnd": null,
        "lonEnd": null,
        "length": 35.4
      }
    ],
    "id": 14857
  },
  {
    "type": 1,
    "icao": "AZ60",
    "lat": 33.50503972,
    "lon": -112.47349667,
    "communications": [],
    "elevation": 1168,
    "tower": false,
    "name": "[X] Coyner Airstrip",
    "runways": [
      {
        "type": 100,
        "width": 30.48,
        "surfaceType": null,
        "numberStart": "05",
        "numberEnd": "23",
        "latStart": 33.50329632,
        "lonStart": -112.47760013,
        "latEnd": 33.50678312,
        "lonEnd": -112.46939321,
        "length": 0,
        "surfacetype": 4
      },
      {
        "type": 100,
        "width": 30.48,
        "surfaceType": null,
        "numberStart": "17",
        "numberEnd": "35",
        "latStart": 33.50743654,
        "lonStart": -112.47334603,
        "latEnd": 33.5026429,
        "lonEnd": -112.47364731,
        "length": 0,
        "surfacetype": 4
      }
    ],
    "id": 14860
  },
  {
    "type": 17,
    "icao": "AZ62",
    "lat": 33.57781861,
    "lon": -112.12126306,
    "communications": [],
    "elevation": 1245,
    "tower": false,
    "name": "[H] The Hotel Westcourt",
    "runways": [
      {
        "type": 102,
        "width": 15.2,
        "surfaceType": 1,
        "numberStart": "H1",
        "numberEnd": null,
        "latStart": 33.57781861,
        "lonStart": -112.12126306,
        "latEnd": null,
        "lonEnd": null,
        "length": 15.2
      }
    ],
    "id": 14862
  },
  {
    "type": 1,
    "icao": "AZ64",
    "lat": 33.95225277,
    "lon": -112.68656501,
    "communications": [],
    "elevation": 2225,
    "tower": false,
    "name": "Rio Vista Hills",
    "runways": [
      {
        "type": 100,
        "width": 22.86,
        "surfaceType": null,
        "numberStart": "01",
        "numberEnd": "19",
        "latStart": 33.94909661,
        "lonStart": -112.68818008,
        "latEnd": 33.95540893,
        "lonEnd": -112.68494994,
        "length": 0,
        "surfacetype": 4
      }
    ],
    "id": 14864
  },
  {
    "type": 17,
    "icao": "AZ65",
    "lat": 33.38920722,
    "lon": -112.86073139,
    "communications": [],
    "elevation": 938,
    "tower": false,
    "name": "[H] Palo Verde Nuclear Generating Station",
    "runways": [
      {
        "type": 102,
        "width": 6.1,
        "surfaceType": 2,
        "numberStart": "H1",
        "numberEnd": null,
        "latStart": 33.38920722,
        "lonStart": -112.86073139,
        "latEnd": null,
        "lonEnd": null,
        "length": 6.1
      }
    ],
    "id": 14865
  },
  {
    "type": 17,
    "icao": "AZ69",
    "lat": 33.63837222,
    "lon": -112.17570973,
    "communications": [],
    "elevation": 1258,
    "tower": false,
    "name": "[H] Honeywell Inc",
    "runways": [
      {
        "type": 102,
        "width": 27.4,
        "surfaceType": 3,
        "numberStart": "H1",
        "numberEnd": null,
        "latStart": 33.63837222,
        "lonStart": -112.17570973,
        "latEnd": null,
        "lonEnd": null,
        "length": 30.5
      }
    ],
    "id": 14869
  },
  {
    "type": 17,
    "icao": "AZ72",
    "lat": 33.44865472,
    "lon": -112.08209306,
    "communications": [],
    "elevation": 1145,
    "tower": false,
    "name": "[H] Police & Public Safety Building",
    "runways": [
      {
        "type": 102,
        "width": 12.2,
        "surfaceType": 2,
        "numberStart": "H1",
        "numberEnd": null,
        "latStart": 33.44865472,
        "lonStart": -112.08209306,
        "latEnd": null,
        "lonEnd": null,
        "length": 12.2
      }
    ],
    "id": 14872
  },
  {
    "type": 1,
    "icao": "AZ78",
    "lat": 33.01111111,
    "lon": -112.28166666999999,
    "communications": [],
    "elevation": 1420,
    "tower": false,
    "name": "Mels Ranch",
    "runways": [
      {
        "type": 100,
        "width": 18.29,
        "surfaceType": null,
        "numberStart": "14",
        "numberEnd": "32",
        "latStart": 33.01353302,
        "lonStart": -112.28320233,
        "latEnd": 33.0086892,
        "lonEnd": -112.28013101,
        "length": 0,
        "surfacetype": 4
      }
    ],
    "id": 14878
  },
  {
    "type": 1,
    "icao": "AZ79",
    "lat": 33.53004111,
    "lon": -112.21654251000001,
    "communications": [],
    "elevation": 1111,
    "tower": false,
    "name": "Airscrew Performance Flightpark",
    "runways": [
      {
        "type": 100,
        "width": 18.29,
        "surfaceType": null,
        "numberStart": "17",
        "numberEnd": "35",
        "latStart": 33.53055334,
        "lonStart": -112.21651031,
        "latEnd": 33.52952888,
        "lonEnd": -112.21657471,
        "length": 0,
        "surfacetype": 3
      }
    ],
    "id": 14879
  },
  {
    "type": 17,
    "icao": "AZ83",
    "lat": 33.43587722,
    "lon": -112.08042584,
    "communications": [],
    "elevation": 1069,
    "tower": false,
    "name": "[H] Phoenix Memorial Hospital",
    "runways": [
      {
        "type": 102,
        "width": 11,
        "surfaceType": 1,
        "numberStart": "H1",
        "numberEnd": null,
        "latStart": 33.43587722,
        "lonStart": -112.08042584,
        "latEnd": null,
        "lonEnd": null,
        "length": 11
      }
    ],
    "id": 14883
  },
  {
    "type": 1,
    "icao": "AZ85",
    "lat": 33.53392694,
    "lon": -112.96018083999999,
    "communications": [],
    "elevation": 1248,
    "tower": false,
    "name": "Tonopah",
    "runways": [
      {
        "type": 100,
        "width": 18.29,
        "surfaceType": null,
        "numberStart": "13",
        "numberEnd": "31",
        "latStart": 33.53729396,
        "lonStart": -112.96322469,
        "latEnd": 33.53055992,
        "lonEnd": -112.95713699,
        "length": 0,
        "surfacetype": 4
      }
    ],
    "id": 14885
  },
  {
    "type": 1,
    "icao": "AZ90",
    "lat": 33.35337861,
    "lon": -112.12737139000001,
    "communications": [],
    "elevation": 1225,
    "tower": false,
    "name": "Hangar Haciendas",
    "runways": [
      {
        "type": 100,
        "width": 24.38,
        "surfaceType": null,
        "numberStart": "08",
        "numberEnd": "26",
        "latStart": 33.35357241,
        "lonStart": -112.1317985,
        "latEnd": 33.35318481,
        "lonEnd": -112.12294428,
        "length": 0,
        "surfacetype": 2
      }
    ],
    "id": 14887
  },
  {
    "type": 17,
    "icao": "AZ93",
    "lat": 33.74308888,
    "lon": -112.76795417,
    "communications": [],
    "elevation": 1660,
    "tower": false,
    "name": "[H] Toyota Arizona Proving Ground",
    "runways": [
      {
        "type": 102,
        "width": 18.3,
        "surfaceType": 2,
        "numberStart": "H1",
        "numberEnd": null,
        "latStart": 33.74308888,
        "lonStart": -112.76795417,
        "latEnd": null,
        "lonEnd": null,
        "length": 18.3
      }
    ],
    "id": 14890
  },
  {
    "type": 17,
    "icao": "AZ94",
    "lat": 33.52143138,
    "lon": -112.01959195,
    "communications": [],
    "elevation": 1240,
    "tower": false,
    "name": "[H] Biltmore Golf Course",
    "runways": [
      {
        "type": 102,
        "width": 12.2,
        "surfaceType": 1,
        "numberStart": "H1",
        "numberEnd": null,
        "latStart": 33.52143138,
        "lonStart": -112.01959195,
        "latEnd": null,
        "lonEnd": null,
        "length": 24.4
      }
    ],
    "id": 14891
  },
  {
    "type": 17,
    "icao": "AZ98",
    "lat": 33.56865222,
    "lon": -112.07098306,
    "communications": [],
    "elevation": 1285,
    "tower": false,
    "name": "[H] John C. Lincoln Helistop",
    "runways": [
      {
        "type": 102,
        "width": 12.2,
        "surfaceType": 2,
        "numberStart": "H1",
        "numberEnd": null,
        "latStart": 33.56865222,
        "lonStart": -112.07098306,
        "latEnd": null,
        "lonEnd": null,
        "length": 12.2
      }
    ],
    "id": 14895
  },
  {
    "type": 1,
    "icao": "P48",
    "lat": 33.80059111,
    "lon": -112.25071528,
    "communications": [],
    "elevation": 1580,
    "tower": false,
    "name": "Pleasant Valley",
    "runways": [
      {
        "type": 100,
        "width": 30.48,
        "surfaceType": null,
        "numberStart": "05",
        "numberEnd": "23",
        "latStart": 33.7980694,
        "lonStart": -112.25667106,
        "latEnd": 33.80311282,
        "lonEnd": -112.2447595,
        "length": 0,
        "surfacetype": 4
      },
      {
        "type": 100,
        "width": 30.48,
        "surfaceType": null,
        "numberStart": "14",
        "numberEnd": "32",
        "latStart": 33.80321842,
        "lonStart": -112.25232625,
        "latEnd": 33.7979638,
        "lonEnd": -112.24910431,
        "length": 0,
        "surfacetype": 4
      }
    ],
    "id": 23791
  }
]