[
  {
    "type": 1,
    "icao": "FY2M",
    "lat": -23.0923,
    "lon": 15.95485,
    "communications": [],
    "elevation": 3900,
    "tower": false,
    "name": "Niedersachsen",
    "runways": [
      {
        "type": 100,
        "width": 10.06,
        "surfaceType": null,
        "numberStart": "09",
        "numberEnd": "27",
        "latStart": -23.0923,
        "lonStart": 15.9519,
        "latEnd": -23.0923,
        "lonEnd": 15.9578,
        "length": 0,
        "surfacetype": 4
      }
    ],
    "id": 17337
  },
  {
    "type": 1,
    "icao": "FY16",
    "lat": -23.0993,
    "lon": 15.5375,
    "communications": [],
    "elevation": 3000,
    "tower": false,
    "name": "Ganab",
    "runways": [
      {
        "type": 100,
        "width": 10.06,
        "surfaceType": null,
        "numberStart": "09",
        "numberEnd": "27",
        "latStart": -23.0993,
        "lonStart": 15.5316,
        "latEnd": -23.0993,
        "lonEnd": 15.5434,
        "length": 0,
        "surfacetype": 4
      }
    ],
    "id": 17412
  },
  {
    "type": 1,
    "icao": "FYGO",
    "lat": -23.5493,
    "lon": 15.04285,
    "communications": [],
    "elevation": 1400,
    "tower": false,
    "name": "Gobabeb",
    "runways": [
      {
        "type": 100,
        "width": 10.06,
        "surfaceType": null,
        "numberStart": "04",
        "numberEnd": "22",
        "latStart": -23.5524,
        "lonStart": 15.04,
        "latEnd": -23.5462,
        "lonEnd": 15.0457,
        "length": 0,
        "surfacetype": 4
      }
    ],
    "id": 17495
  },
  {
    "type": 1,
    "icao": "FYNN",
    "lat": -23.99555,
    "lon": 15.93335,
    "communications": [],
    "elevation": 3500,
    "tower": false,
    "name": "Namib Naukluft Lodge",
    "runways": [
      {
        "type": 100,
        "width": 24.99,
        "surfaceType": null,
        "numberStart": "13",
        "numberEnd": "31",
        "latStart": -23.9921,
        "lonStart": 15.9288,
        "latEnd": -23.999,
        "lonEnd": 15.9379,
        "length": 0,
        "surfacetype": 4
      }
    ],
    "id": 17550
  },
  {
    "type": 1,
    "icao": "FYRZ",
    "lat": -23.541,
    "lon": 15.842649999999999,
    "communications": [],
    "elevation": 2800,
    "tower": false,
    "name": "Rostock Ritz",
    "runways": [
      {
        "type": 100,
        "width": 20.12,
        "surfaceType": null,
        "numberStart": "09",
        "numberEnd": "27",
        "latStart": -23.541,
        "lonStart": 15.8348,
        "latEnd": -23.541,
        "lonEnd": 15.8505,
        "length": 0,
        "surfacetype": 5
      }
    ],
    "id": 17585
  }
]