[
  {
    "type": 1,
    "icao": "EGUD",
    "lat": 51.689267925,
    "lon": 25.18254719,
    "communications": [],
    "elevation": 229,
    "tower": false,
    "name": "Abingdon Dalton Barracks",
    "runways": [
      {
        "type": 100,
        "width": 45.11,
        "surfaceType": null,
        "numberStart": "17",
        "numberEnd": "35",
        "latStart": 51.6962609,
        "lonStart": -1.3176536,
        "latEnd": 51.67831126,
        "lonEnd": -1.31424499,
        "length": 0,
        "surfacetype": 1
      },
      {
        "type": 100,
        "width": 45.11,
        "surfaceType": null,
        "numberStart": "07",
        "numberEnd": "25",
        "latStart": 51.68946673,
        "lonStart": -1.32350171,
        "latEnd": 51.69303281,
        "lonEnd": -1.30310248,
        "length": 0,
        "surfacetype": 1
      }
    ],
    "id": 528
  },
  {
    "type": 1,
    "icao": "EGLT",
    "lat": 51.42054755,
    "lon": 25.379831345,
    "communications": [],
    "elevation": 220,
    "tower": false,
    "name": "Ascot Heliport [H]",
    "runways": [
      {
        "type": 100,
        "width": 29.87,
        "surfaceType": null,
        "numberStart": "14",
        "numberEnd": "32",
        "latStart": 51.42141362,
        "lonStart": -0.66001879,
        "latEnd": 51.41968148,
        "lonEnd": -0.6582129,
        "length": 0,
        "surfacetype": 3
      }
    ],
    "id": 1256
  },
  {
    "type": 1,
    "icao": "EGTA",
    "lat": 51.776160715,
    "lon": 25.417908044999997,
    "communications": [],
    "elevation": 289,
    "tower": false,
    "name": "Aylesbury",
    "runways": [
      {
        "type": 100,
        "width": 89.92,
        "surfaceType": null,
        "numberStart": "06",
        "numberEnd": "24",
        "latStart": 51.77286946,
        "lonStart": -0.94363588,
        "latEnd": 51.77945197,
        "lonEnd": -0.93458359,
        "length": 0,
        "surfacetype": 3
      }
    ],
    "id": 1387
  },
  {
    "type": 1,
    "icao": "EGDD",
    "lat": 51.91656600000001,
    "lon": 25.389792875,
    "communications": [],
    "elevation": 266,
    "tower": false,
    "name": "Bicester Airfield",
    "runways": [
      {
        "type": 100,
        "width": 24.08,
        "surfaceType": null,
        "numberStart": "18",
        "numberEnd": "36",
        "latStart": 51.92060449,
        "lonStart": -1.13391994,
        "latEnd": 51.91246151,
        "lonEnd": -1.13145406,
        "length": 0,
        "surfacetype": 3
      },
      {
        "type": 100,
        "width": 24.08,
        "surfaceType": null,
        "numberStart": "13",
        "numberEnd": "31",
        "latStart": 51.91937302,
        "lonStart": -1.13783841,
        "latEnd": 51.91588698,
        "lonEnd": -1.12536159,
        "length": 0,
        "surfacetype": 3
      },
      {
        "type": 100,
        "width": 24.08,
        "surfaceType": null,
        "numberStart": "06",
        "numberEnd": "24",
        "latStart": 51.91287493,
        "lonStart": -1.13602796,
        "latEnd": 51.91819507,
        "lonEnd": -1.12393604,
        "length": 0,
        "surfacetype": 3
      }
    ],
    "id": 2669
  },
  {
    "type": 1,
    "icao": "EGKB",
    "lat": 51.32670994,
    "lon": 25.6786257125,
    "communications": [
      {
        "type": 50,
        "frequency": 12187,
        "name": "ATIS"
      },
      {
        "type": 54,
        "frequency": 13480,
        "name": "TWR"
      },
      {
        "type": 55,
        "frequency": 12940,
        "name": "APP"
      },
      {
        "type": 55,
        "frequency": 13270,
        "name": "THAMES RDR"
      }
    ],
    "elevation": 598,
    "tower": true,
    "name": "Biggin Hill",
    "runways": [
      {
        "type": 100,
        "width": 45.11,
        "surfaceType": null,
        "numberStart": "03",
        "numberEnd": "21",
        "latStart": 51.32360828,
        "lonStart": 0.02685702,
        "latEnd": 51.33823399,
        "lonEnd": 0.03803716,
        "length": 0,
        "surfacetype": 1
      },
      {
        "type": 100,
        "width": 17.98,
        "surfaceType": null,
        "numberStart": "11",
        "numberEnd": "29",
        "latStart": 51.3234413,
        "lonStart": 0.02785565,
        "latEnd": 51.32155619,
        "lonEnd": 0.03875348,
        "length": 0,
        "surfacetype": 1
      }
    ],
    "id": 2714
  },
  {
    "type": 1,
    "icao": "EGLK",
    "lat": 51.324043805,
    "lon": 25.234652735,
    "communications": [
      {
        "type": 54,
        "frequency": 12230,
        "name": "Blackbushe Radio"
      }
    ],
    "elevation": 325,
    "tower": true,
    "name": "Blackbushe",
    "runways": [
      {
        "type": 100,
        "width": 46.02,
        "surfaceType": null,
        "numberStart": "07",
        "numberEnd": "25",
        "latStart": 51.32212485,
        "lonStart": -0.85665729,
        "latEnd": 51.32596276,
        "lonEnd": -0.83826009,
        "length": 0,
        "surfacetype": 1
      }
    ],
    "id": 2799
  },
  {
    "type": 1,
    "icao": "EGLP",
    "lat": 51.383719854999995,
    "lon": 25.105037305,
    "communications": [],
    "elevation": 209,
    "tower": false,
    "name": "Brimpton",
    "runways": [
      {
        "type": 100,
        "width": 17.98,
        "surfaceType": null,
        "numberStart": "07",
        "numberEnd": "25",
        "latStart": 51.38253208,
        "lonStart": -1.17483302,
        "latEnd": 51.38490763,
        "lonEnd": -1.16765945,
        "length": 0,
        "surfacetype": 3
      }
    ],
    "id": 3204
  },
  {
    "type": 1,
    "icao": "EGLB",
    "lat": 51.349862810000005,
    "lon": 25.440252165,
    "communications": [],
    "elevation": 49,
    "tower": false,
    "name": "Brooklands",
    "runways": [
      {
        "type": 100,
        "width": 7.92,
        "surfaceType": null,
        "numberStart": "01",
        "numberEnd": "19",
        "latStart": 51.34882829,
        "lonStart": -0.470393,
        "latEnd": 51.35089733,
        "lonEnd": -0.46998076,
        "length": 0,
        "surfacetype": 1
      }
    ],
    "id": 3244
  },
  {
    "type": 1,
    "icao": "EGLJ",
    "lat": 51.676367809999995,
    "lon": 25.292788143333336,
    "communications": [
      {
        "type": 54,
        "frequency": 12540,
        "name": "Chalgrove Radio"
      }
    ],
    "elevation": 238,
    "tower": true,
    "name": "Chalgrove",
    "runways": [
      {
        "type": 100,
        "width": 46.02,
        "surfaceType": null,
        "numberStart": "18",
        "numberEnd": "36",
        "latStart": 51.682086,
        "lonStart": -1.077389,
        "latEnd": 51.67002386,
        "lonEnd": -1.07653566,
        "length": 0,
        "surfacetype": 1
      },
      {
        "type": 100,
        "width": 46.02,
        "surfaceType": null,
        "numberStart": "06",
        "numberEnd": "24",
        "latStart": 51.675356,
        "lonStart": -1.091586,
        "latEnd": 51.681719,
        "lonEnd": -1.076092,
        "length": 0,
        "surfacetype": 1
      },
      {
        "type": 100,
        "width": 46.02,
        "surfaceType": null,
        "numberStart": "13",
        "numberEnd": "31",
        "latStart": 51.679036,
        "lonStart": -1.096025,
        "latEnd": 51.669986,
        "lonEnd": -1.074475,
        "length": 0,
        "surfacetype": 1
      }
    ],
    "id": 4761
  },
  {
    "type": 1,
    "icao": "EGML",
    "lat": 51.52948473000001,
    "lon": 25.885941545,
    "communications": [],
    "elevation": 52,
    "tower": false,
    "name": "Damyns Hall",
    "runways": [
      {
        "type": 100,
        "width": 20.12,
        "surfaceType": null,
        "numberStart": "14",
        "numberEnd": "32",
        "latStart": 51.53222817,
        "lonStart": 0.24116132,
        "latEnd": 51.52864167,
        "lonEnd": 0.24567967,
        "length": 0,
        "surfacetype": 3
      },
      {
        "type": 100,
        "width": 20.12,
        "surfaceType": null,
        "numberStart": "03",
        "numberEnd": "21",
        "latStart": 51.52601383,
        "lonStart": 0.24290794,
        "latEnd": 51.53105525,
        "lonEnd": 0.24799843,
        "length": 0,
        "surfacetype": 3
      }
    ],
    "id": 5977
  },
  {
    "type": 1,
    "icao": "EGLD",
    "lat": 51.5885036025,
    "lon": 25.535847447500004,
    "communications": [
      {
        "type": 54,
        "frequency": 13072,
        "name": "Denham Ground"
      }
    ],
    "elevation": 249,
    "tower": true,
    "name": "Denham",
    "runways": [
      {
        "type": 100,
        "width": 17.98,
        "surfaceType": null,
        "numberStart": "06",
        "numberEnd": "24",
        "latStart": 51.58663809,
        "lonStart": -0.51781112,
        "latEnd": 51.59021494,
        "lonEnd": -0.50817301,
        "length": 0,
        "surfacetype": 2
      },
      {
        "type": 100,
        "width": 17.98,
        "surfaceType": null,
        "numberStart": "12",
        "numberEnd": "30",
        "latStart": 51.58973879,
        "lonStart": -0.51643662,
        "latEnd": 51.58742259,
        "lonEnd": -0.50947864,
        "length": 0,
        "surfacetype": 3
      }
    ],
    "id": 6181
  },
  {
    "type": 1,
    "icao": "EGTN",
    "lat": 51.93122328,
    "lon": 25.253825640000002,
    "communications": [],
    "elevation": 550,
    "tower": false,
    "name": "Enstone",
    "runways": [
      {
        "type": 100,
        "width": 17.98,
        "surfaceType": null,
        "numberStart": "08",
        "numberEnd": "26",
        "latStart": 51.93240368,
        "lonStart": -1.4223916,
        "latEnd": 51.93004288,
        "lonEnd": -1.43583233,
        "length": 0,
        "surfacetype": 1
      }
    ],
    "id": 7210
  },
  {
    "type": 1,
    "icao": "EGLF",
    "lat": 51.27570368,
    "lon": 25.244407374999998,
    "communications": [
      {
        "type": 50,
        "frequency": 12840,
        "name": "Farnborough Information"
      },
      {
        "type": 54,
        "frequency": 12250,
        "name": "Farnborough Tower"
      },
      {
        "type": 55,
        "frequency": 13005,
        "name": "Farnborough Director"
      },
      {
        "type": 55,
        "frequency": 13435,
        "name": "Farnborough Radar"
      },
      {
        "type": 55,
        "frequency": 12525,
        "name": "Farnborough Radar"
      }
    ],
    "elevation": 238,
    "tower": true,
    "name": "Farnborough",
    "runways": [
      {
        "type": 100,
        "width": 46.02,
        "surfaceType": null,
        "numberStart": "06",
        "numberEnd": "24",
        "latStart": 51.27055885,
        "lonStart": -0.79203376,
        "latEnd": 51.28084851,
        "lonEnd": -0.76114481,
        "length": 0,
        "surfacetype": 1
      }
    ],
    "id": 7815
  },
  {
    "type": 1,
    "icao": "EGMF",
    "lat": 51.33224447,
    "lon": 25.96549696,
    "communications": [],
    "elevation": 420,
    "tower": false,
    "name": "Farthing Corner",
    "runways": [
      {
        "type": 100,
        "width": 20.12,
        "surfaceType": null,
        "numberStart": "5",
        "numberEnd": "23",
        "latStart": 51.33130051,
        "lonStart": 0.59780549,
        "latEnd": 51.33318843,
        "lonEnd": 0.60205646,
        "length": 0,
        "surfacetype": 3
      }
    ],
    "id": 7828
  },
  {
    "type": 1,
    "icao": "EG40",
    "lat": 51.985313,
    "lon": 25.461721885,
    "communications": [],
    "elevation": 405,
    "tower": false,
    "name": "Finmere",
    "runways": [
      {
        "type": 100,
        "width": 45.11,
        "surfaceType": null,
        "numberStart": "10",
        "numberEnd": "28",
        "latStart": 51.98536805,
        "lonStart": -1.06181418,
        "latEnd": 51.98525795,
        "lonEnd": -1.05157182,
        "length": 0,
        "surfacetype": 1
      }
    ],
    "id": 9299
  },
  {
    "type": 1,
    "icao": "EDLH",
    "lat": 51.690194004,
    "lon": 25.365013076000004,
    "communications": [
      {
        "type": 51,
        "frequency": 12250,
        "name": "Hamm Info 2"
      },
      {
        "type": 54,
        "frequency": 13405,
        "name": "Hamm Info 1"
      }
    ],
    "elevation": 190,
    "tower": true,
    "name": "Hamm- Lippewiesen",
    "runways": [
      {
        "type": 100,
        "width": 20,
        "surfaceType": null,
        "numberStart": "06",
        "numberEnd": "24",
        "latStart": 51.689002,
        "lonStart": 7.814448,
        "latEnd": 51.691887,
        "lonEnd": 7.822296,
        "length": 0,
        "surfacetype": 1
      },
      {
        "type": 100,
        "width": 30,
        "surfaceType": null,
        "numberStart": "05",
        "numberEnd": "23",
        "latStart": 51.688415,
        "lonStart": 7.812852,
        "latEnd": 51.692328,
        "lonEnd": 7.82349455,
        "length": 0,
        "surfacetype": 3
      },
      {
        "type": 102,
        "width": 16.7,
        "surfaceType": 15,
        "numberStart": "H1",
        "numberEnd": null,
        "latStart": 51.68933802,
        "lonStart": 7.81355038,
        "latEnd": null,
        "lonEnd": null,
        "length": 16.7
      }
    ],
    "id": 11363
  },
  {
    "type": 1,
    "icao": "EG53",
    "lat": 51.275994795,
    "lon": 25.165584575,
    "communications": [],
    "elevation": 225,
    "tower": false,
    "name": "Hook",
    "runways": [
      {
        "type": 100,
        "width": 14.94,
        "surfaceType": null,
        "numberStart": "08",
        "numberEnd": "26",
        "latStart": 51.27470759,
        "lonStart": -0.94611285,
        "latEnd": 51.277282,
        "lonEnd": -0.93525271,
        "length": 0,
        "surfacetype": 3
      }
    ],
    "id": 12022
  },
  {
    "type": 1,
    "icao": "EGHL",
    "lat": 51.187477185000006,
    "lon": 25.07227174,
    "communications": [
      {
        "type": 54,
        "frequency": 12665,
        "name": "Lasham Radio"
      },
      {
        "type": 55,
        "frequency": 12525,
        "name": "Farnborough Radar"
      }
    ],
    "elevation": 618,
    "tower": true,
    "name": "Lasham",
    "runways": [
      {
        "type": 100,
        "width": 39.93,
        "surfaceType": null,
        "numberStart": "09",
        "numberEnd": "27",
        "latStart": 51.18687932,
        "lonStart": -1.04353157,
        "latEnd": 51.18807505,
        "lonEnd": -1.01959551,
        "length": 0,
        "surfacetype": 1
      }
    ],
    "id": 14994
  },
  {
    "type": 1,
    "icao": "EGKH",
    "lat": 51.1569579975,
    "lon": 25.899600352500002,
    "communications": [
      {
        "type": 54,
        "frequency": 12200,
        "name": "Lashenden Radio"
      }
    ],
    "elevation": 72,
    "tower": true,
    "name": "Lashenden Headcorn",
    "runways": [
      {
        "type": 100,
        "width": 29.87,
        "surfaceType": null,
        "numberStart": "10",
        "numberEnd": "28",
        "latStart": 51.157628,
        "lonStart": 0.636442,
        "latEnd": 51.155858,
        "lonEnd": 0.648378,
        "length": 0,
        "surfacetype": 3
      },
      {
        "type": 100,
        "width": 20.12,
        "surfaceType": null,
        "numberStart": "03",
        "numberEnd": "21",
        "latStart": 51.15604312,
        "lonStart": 0.64779854,
        "latEnd": 51.15830287,
        "lonEnd": 0.64966308,
        "length": 0,
        "surfacetype": 3
      }
    ],
    "id": 14995
  },
  {
    "type": 1,
    "icao": "EGLC",
    "lat": 51.505230604999994,
    "lon": 25.77461193,
    "communications": [
      {
        "type": 50,
        "frequency": 13635,
        "name": "City Information"
      },
      {
        "type": 53,
        "frequency": 12182,
        "name": "City Ground"
      },
      {
        "type": 54,
        "frequency": 11807,
        "name": "City Tower"
      },
      {
        "type": 54,
        "frequency": 11840,
        "name": "City Tower"
      },
      {
        "type": 55,
        "frequency": 13270,
        "name": "City Approach"
      }
    ],
    "elevation": 19,
    "tower": true,
    "name": "London City",
    "runways": [
      {
        "type": 100,
        "width": 29.87,
        "surfaceType": null,
        "numberStart": "09",
        "numberEnd": "27",
        "latStart": 51.50557275,
        "lonStart": 0.0443354,
        "latEnd": 51.50488846,
        "lonEnd": 0.0660151,
        "length": 0,
        "surfacetype": 2
      }
    ],
    "id": 15424
  },
  {
    "type": 1,
    "icao": "EGKK",
    "lat": 51.148753,
    "lon": 25.469526979999998,
    "communications": [
      {
        "type": 50,
        "frequency": 13652,
        "name": "Gatwick Information"
      },
      {
        "type": 52,
        "frequency": 12195,
        "name": "Gatwick Delivery"
      },
      {
        "type": 53,
        "frequency": 12180,
        "name": "Gatwick Ground"
      },
      {
        "type": 54,
        "frequency": 12422,
        "name": "Gatwick Tower"
      },
      {
        "type": 55,
        "frequency": 12682,
        "name": "Gatwick Director"
      },
      {
        "type": 55,
        "frequency": 11895,
        "name": "Gatwick Director"
      },
      {
        "type": 55,
        "frequency": 12902,
        "name": "Gatwick Director"
      }
    ],
    "elevation": 196,
    "tower": true,
    "name": "London Gatwick",
    "runways": [
      {
        "type": 100,
        "width": 45.11,
        "surfaceType": null,
        "numberStart": "08R",
        "numberEnd": "26L",
        "latStart": 51.14510986,
        "lonStart": -0.2123137,
        "latEnd": 51.15119014,
        "lonEnd": -0.1681923,
        "length": 0,
        "surfacetype": 1
      },
      {
        "type": 100,
        "width": 45.11,
        "surfaceType": null,
        "numberStart": "08L",
        "numberEnd": "26R",
        "latStart": 51.14691084,
        "lonStart": -0.21256968,
        "latEnd": 51.15180116,
        "lonEnd": -0.17681432,
        "length": 0,
        "surfacetype": 1
      }
    ],
    "id": 15425
  },
  {
    "type": 1,
    "icao": "EGLL",
    "lat": 51.47112475,
    "lon": 25.491681890000002,
    "communications": [
      {
        "type": 50,
        "frequency": 12185,
        "name": "ATIS"
      },
      {
        "type": 50,
        "frequency": 12807,
        "name": "ATIS"
      },
      {
        "type": 52,
        "frequency": 12197,
        "name": "PRE TAXI CLNC"
      },
      {
        "type": 53,
        "frequency": 12170,
        "name": "GND"
      },
      {
        "type": 53,
        "frequency": 12190,
        "name": "GND"
      },
      {
        "type": 54,
        "frequency": 11850,
        "name": "TWR"
      },
      {
        "type": 54,
        "frequency": 11870,
        "name": "TWR"
      },
      {
        "type": 54,
        "frequency": 12447,
        "name": "TWR"
      },
      {
        "type": 55,
        "frequency": 11972,
        "name": "APP"
      },
      {
        "type": 55,
        "frequency": 12040,
        "name": "APP"
      },
      {
        "type": 55,
        "frequency": 12562,
        "name": "APP"
      },
      {
        "type": 55,
        "frequency": 12752,
        "name": "APP"
      },
      {
        "type": 55,
        "frequency": 13497,
        "name": "APP"
      }
    ],
    "elevation": 83,
    "tower": true,
    "name": "London Heathrow",
    "runways": [
      {
        "type": 100,
        "width": 49.99,
        "surfaceType": null,
        "numberStart": "09R",
        "numberEnd": "27L",
        "latStart": 51.46467738,
        "lonStart": -0.48657514,
        "latEnd": 51.46485512,
        "lonEnd": -0.43393256,
        "length": 0,
        "surfacetype": 1
      },
      {
        "type": 100,
        "width": 49.99,
        "surfaceType": null,
        "numberStart": "09L",
        "numberEnd": "27R",
        "latStart": 51.47738838,
        "lonStart": -0.48913054,
        "latEnd": 51.47757812,
        "lonEnd": -0.43292116,
        "length": 0,
        "surfacetype": 1
      }
    ],
    "id": 15426
  },
  {
    "type": 1,
    "icao": "EGGW",
    "lat": 51.87462863,
    "lon": 25.74684296,
    "communications": [
      {
        "type": 50,
        "frequency": 12057,
        "name": "Arrival and Departure Information"
      },
      {
        "type": 53,
        "frequency": 12175,
        "name": "Luton ground"
      },
      {
        "type": 54,
        "frequency": 12672,
        "name": "Luton tower"
      },
      {
        "type": 54,
        "frequency": 13255,
        "name": "Luton Tower"
      },
      {
        "type": 55,
        "frequency": 12875,
        "name": "Luton Radar"
      },
      {
        "type": 55,
        "frequency": 12955,
        "name": "Luton Radar"
      }
    ],
    "elevation": 526,
    "tower": true,
    "name": "London Luton",
    "runways": [
      {
        "type": 100,
        "width": 46.02,
        "surfaceType": null,
        "numberStart": "08",
        "numberEnd": "26",
        "latStart": 51.87201894,
        "lonStart": -0.3835524,
        "latEnd": 51.87723832,
        "lonEnd": -0.35334812,
        "length": 0,
        "surfacetype": 1
      }
    ],
    "id": 15427
  },
  {
    "type": 1,
    "icao": "EG77",
    "lat": 51.39448199,
    "lon": 25.04280533,
    "communications": [],
    "elevation": 250,
    "tower": false,
    "name": "Newbury Racecourse",
    "runways": [
      {
        "type": 100,
        "width": 29.87,
        "surfaceType": null,
        "numberStart": "11",
        "numberEnd": "29",
        "latStart": 51.39526964,
        "lonStart": -1.30808368,
        "latEnd": 51.39369434,
        "lonEnd": -1.29786881,
        "length": 0,
        "surfacetype": 3
      }
    ],
    "id": 18272
  },
  {
    "type": 1,
    "icao": "EGSX",
    "lat": 51.721382260000006,
    "lon": 25.9360094575,
    "communications": [
      {
        "type": 54,
        "frequency": 12352,
        "name": "North Weald Radio"
      }
    ],
    "elevation": 321,
    "tower": true,
    "name": "North Weald",
    "runways": [
      {
        "type": 100,
        "width": 45.11,
        "surfaceType": null,
        "numberStart": "02",
        "numberEnd": "20",
        "latStart": 51.71387406,
        "lonStart": 0.15076001,
        "latEnd": 51.73007752,
        "lonEnd": 0.15812736,
        "length": 0,
        "surfacetype": 1
      },
      {
        "type": 100,
        "width": 35.05,
        "surfaceType": null,
        "numberStart": "13",
        "numberEnd": "31",
        "latStart": 51.72236567,
        "lonStart": 0.14398851,
        "latEnd": 51.71921179,
        "lonEnd": 0.15227157,
        "length": 0,
        "surfacetype": 1
      }
    ],
    "id": 18465
  },
  {
    "type": 1,
    "icao": "EGTK",
    "lat": 51.83656751625001,
    "lon": 25.257842785,
    "communications": [
      {
        "type": 50,
        "frequency": 13622,
        "name": "Oxford Information"
      },
      {
        "type": 53,
        "frequency": 12195,
        "name": "Oxford Ground"
      },
      {
        "type": 54,
        "frequency": 13342,
        "name": "Oxford Tower"
      }
    ],
    "elevation": 270,
    "tower": true,
    "name": "Oxford Kidlington",
    "runways": [
      {
        "type": 100,
        "width": 29.87,
        "surfaceType": null,
        "numberStart": "01",
        "numberEnd": "19",
        "latStart": 51.83006662,
        "lonStart": -1.32205496,
        "latEnd": 51.84337183,
        "lonEnd": -1.31800116,
        "length": 0,
        "surfacetype": 1
      },
      {
        "type": 100,
        "width": 28.04,
        "surfaceType": null,
        "numberStart": "11",
        "numberEnd": "29",
        "latStart": 51.841047,
        "lonStart": -1.324197,
        "latEnd": 51.838697,
        "lonEnd": -1.313833,
        "length": 0,
        "surfacetype": 1
      },
      {
        "type": 100,
        "width": 46.94,
        "surfaceType": null,
        "numberStart": "03",
        "numberEnd": "21",
        "latStart": 51.83004865,
        "lonStart": -1.32068164,
        "latEnd": 51.83874985,
        "lonEnd": -1.31451914,
        "length": 0,
        "surfacetype": 3
      },
      {
        "type": 100,
        "width": 45.11,
        "surfaceType": null,
        "numberStart": "09",
        "numberEnd": "27",
        "latStart": 51.83501378,
        "lonStart": -1.3266882,
        "latEnd": 51.8355454,
        "lonEnd": -1.31438273,
        "length": 0,
        "surfacetype": 3
      }
    ],
    "id": 19139
  },
  {
    "type": 1,
    "icao": "EGLG",
    "lat": 51.801899565,
    "lon": 25.81799469,
    "communications": [
      {
        "type": 54,
        "frequency": 12025,
        "name": "Panshanger Radio"
      }
    ],
    "elevation": 249,
    "tower": true,
    "name": "Panshanger",
    "runways": [
      {
        "type": 100,
        "width": 25.91,
        "surfaceType": null,
        "numberStart": "11",
        "numberEnd": "29",
        "latStart": 51.80347279,
        "lonStart": -0.16433696,
        "latEnd": 51.80032634,
        "lonEnd": -0.15109626,
        "length": 0,
        "surfacetype": 3
      }
    ],
    "id": 19730
  },
  {
    "type": 1,
    "icao": "EGUB",
    "lat": 51.615029,
    "lon": 25.262743880000002,
    "communications": [
      {
        "type": 53,
        "frequency": 12180,
        "name": "Benson Ground"
      },
      {
        "type": 54,
        "frequency": 12715,
        "name": "Benson Tower"
      },
      {
        "type": 55,
        "frequency": 12090,
        "name": "Benson Zone"
      },
      {
        "type": 55,
        "frequency": 13645,
        "name": "Benson Approach"
      }
    ],
    "elevation": 226,
    "tower": true,
    "name": "RAF Benson",
    "runways": [
      {
        "type": 100,
        "width": 46.02,
        "surfaceType": null,
        "numberStart": "01",
        "numberEnd": "19",
        "latStart": 51.606919,
        "lonStart": -1.09765124,
        "latEnd": 51.623139,
        "lonEnd": -1.094069,
        "length": 0,
        "surfacetype": 1
      }
    ],
    "id": 20760
  },
  {
    "type": 1,
    "icao": "EGVN",
    "lat": 51.749978999999996,
    "lon": 25.074841629999998,
    "communications": [
      {
        "type": 53,
        "frequency": 12172,
        "name": "Brize Ground"
      },
      {
        "type": 54,
        "frequency": 12372,
        "name": "Brize Tower"
      },
      {
        "type": 55,
        "frequency": 12725,
        "name": "Brize Approach"
      },
      {
        "type": 55,
        "frequency": 13375,
        "name": "Brize Director"
      }
    ],
    "elevation": 289,
    "tower": true,
    "name": "RAF Brize Norton",
    "runways": [
      {
        "type": 100,
        "width": 56.08,
        "surfaceType": null,
        "numberStart": "08",
        "numberEnd": "26",
        "latStart": 51.74606774,
        "lonStart": -1.604207,
        "latEnd": 51.75389026,
        "lonEnd": -1.56170978,
        "length": 0,
        "surfacetype": 1
      }
    ],
    "id": 20762
  },
  {
    "type": 1,
    "icao": "EGWN",
    "lat": 51.791636732499995,
    "lon": 25.5266085825,
    "communications": [
      {
        "type": 54,
        "frequency": 13042,
        "name": "Halton Radio"
      }
    ],
    "elevation": 370,
    "tower": true,
    "name": "RAF Halton",
    "runways": [
      {
        "type": 100,
        "width": 42.06,
        "surfaceType": null,
        "numberStart": "02",
        "numberEnd": "20",
        "latStart": 51.7871691,
        "lonStart": -0.73940541,
        "latEnd": 51.79726539,
        "lonEnd": -0.73367455,
        "length": 0,
        "surfacetype": 3
      },
      {
        "type": 100,
        "width": 42.06,
        "surfaceType": null,
        "numberStart": "08",
        "numberEnd": "26",
        "latStart": 51.78982178,
        "lonStart": -0.74371631,
        "latEnd": 51.79229066,
        "lonEnd": -0.73185446,
        "length": 0,
        "surfacetype": 3
      }
    ],
    "id": 20772
  },
  {
    "type": 1,
    "icao": "EGKN",
    "lat": 51.30477438,
    "lon": 25.603730964999997,
    "communications": [],
    "elevation": 566,
    "tower": false,
    "name": "RAF Kenley",
    "runways": [
      {
        "type": 100,
        "width": 46.02,
        "surfaceType": null,
        "numberStart": "2",
        "numberEnd": "20",
        "latStart": 51.3018585,
        "lonStart": -0.09625906,
        "latEnd": 51.3093383,
        "lonEnd": -0.09114915,
        "length": 0,
        "surfacetype": 2
      },
      {
        "type": 100,
        "width": 46.02,
        "surfaceType": null,
        "numberStart": "12",
        "numberEnd": "30",
        "latStart": 51.30560808,
        "lonStart": -0.10044802,
        "latEnd": 51.30229264,
        "lonEnd": -0.0923444,
        "length": 0,
        "surfacetype": 2
      }
    ],
    "id": 20775
  },
  {
    "type": 1,
    "icao": "EGVO",
    "lat": 51.234183,
    "lon": 25.138962775,
    "communications": [
      {
        "type": 54,
        "frequency": 12210,
        "name": "Odiham Tower"
      },
      {
        "type": 55,
        "frequency": 13130,
        "name": "Odiham Approach"
      }
    ],
    "elevation": 405,
    "tower": true,
    "name": "RAF Odiham",
    "runways": [
      {
        "type": 100,
        "width": 39.93,
        "surfaceType": null,
        "numberStart": "09",
        "numberEnd": "27",
        "latStart": 51.23455772,
        "lonStart": -0.95588273,
        "latEnd": 51.23380828,
        "lonEnd": -0.92962527,
        "length": 0,
        "surfacetype": 1
      }
    ],
    "id": 20786
  },
  {
    "type": 1,
    "icao": "EGTO",
    "lat": 51.35216818,
    "lon": 25.92753371666667,
    "communications": [
      {
        "type": 50,
        "frequency": 12225,
        "name": "Rochester Information"
      }
    ],
    "elevation": 425,
    "tower": false,
    "name": "Rochester",
    "runways": [
      {
        "type": 100,
        "width": 35.05,
        "surfaceType": null,
        "numberStart": "16",
        "numberEnd": "34",
        "latStart": 51.35593397,
        "lonStart": 0.50036119,
        "latEnd": 51.34776911,
        "lonEnd": 0.50542601,
        "length": 0,
        "surfacetype": 3
      },
      {
        "type": 100,
        "width": 32,
        "surfaceType": null,
        "numberStart": "02L",
        "numberEnd": "20R",
        "latStart": 51.349325,
        "lonStart": 0.502872,
        "latEnd": 51.356256,
        "lonEnd": 0.507192,
        "length": 0,
        "surfacetype": 3
      },
      {
        "type": 100,
        "width": 21.03,
        "surfaceType": null,
        "numberStart": "02R",
        "numberEnd": "20L",
        "latStart": 51.348931,
        "lonStart": 0.50315,
        "latEnd": 51.354794,
        "lonEnd": 0.506772,
        "length": 0,
        "surfacetype": 3
      }
    ],
    "id": 21616
  },
  {
    "type": 1,
    "icao": "EG86",
    "lat": 51.3365364,
    "lon": 25.51153675,
    "communications": [],
    "elevation": 160,
    "tower": false,
    "name": "Rushett Farm Chessington",
    "runways": [
      {
        "type": 100,
        "width": 22.86,
        "surfaceType": null,
        "numberStart": "02",
        "numberEnd": "20",
        "latStart": 51.33441146,
        "lonStart": -0.31558784,
        "latEnd": 51.33866134,
        "lonEnd": -0.31317818,
        "length": 0,
        "surfacetype": 3
      }
    ],
    "id": 21847
  },
  {
    "type": 1,
    "icao": "EGSG",
    "lat": 51.65361776249999,
    "lon": 25.904076123750002,
    "communications": [
      {
        "type": 54,
        "frequency": 12280,
        "name": "Stapleford Radio"
      }
    ],
    "elevation": 185,
    "tower": true,
    "name": "Stapleford",
    "runways": [
      {
        "type": 100,
        "width": 29.87,
        "surfaceType": null,
        "numberStart": "04L",
        "numberEnd": "22R",
        "latStart": 51.648736,
        "lonStart": 0.151008,
        "latEnd": 51.65535,
        "lonEnd": 0.158592,
        "length": 0,
        "surfacetype": 3
      },
      {
        "type": 100,
        "width": 17.98,
        "surfaceType": null,
        "numberStart": "04C",
        "numberEnd": "22C",
        "latStart": 51.65200539,
        "lonStart": 0.15546336,
        "latEnd": 51.6563769,
        "lonEnd": 0.16045562,
        "length": 0,
        "surfacetype": 1
      },
      {
        "type": 100,
        "width": 46.02,
        "surfaceType": null,
        "numberStart": "04R",
        "numberEnd": "22L",
        "latStart": 51.648528,
        "lonStart": 0.151444,
        "latEnd": 51.65669238,
        "lonEnd": 0.16080146,
        "length": 0,
        "surfacetype": 3
      },
      {
        "type": 100,
        "width": 46.02,
        "surfaceType": null,
        "numberStart": "10",
        "numberEnd": "28",
        "latStart": 51.65610331,
        "lonStart": 0.15112423,
        "latEnd": 51.65515012,
        "lonEnd": 0.16116495,
        "length": 0,
        "surfacetype": 3
      }
    ],
    "id": 24115
  },
  {
    "type": 1,
    "icao": "EGMT",
    "lat": 51.53751116000001,
    "lon": 25.95082864833333,
    "communications": [],
    "elevation": 20,
    "tower": false,
    "name": "Thurrock",
    "runways": [
      {
        "type": 100,
        "width": 29.87,
        "surfaceType": null,
        "numberStart": "07C",
        "numberEnd": "25C",
        "latStart": 51.53652472,
        "lonStart": 0.36356046,
        "latEnd": 51.5386162,
        "lonEnd": 0.37299654,
        "length": 0,
        "surfacetype": 3
      },
      {
        "type": 100,
        "width": 29.87,
        "surfaceType": null,
        "numberStart": "07R",
        "numberEnd": "25L",
        "latStart": 51.53627035,
        "lonStart": 0.36370628,
        "latEnd": 51.53833434,
        "lonEnd": 0.37302939,
        "length": 0,
        "surfacetype": 3
      },
      {
        "type": 100,
        "width": 29.87,
        "surfaceType": null,
        "numberStart": "07L",
        "numberEnd": "25R",
        "latStart": 51.53643817,
        "lonStart": 0.36187143,
        "latEnd": 51.53888318,
        "lonEnd": 0.37289545,
        "length": 0,
        "surfacetype": 3
      }
    ],
    "id": 25339
  },
  {
    "type": 1,
    "icao": "EGLM",
    "lat": 51.49963751166666,
    "lon": 25.361204845000003,
    "communications": [
      {
        "type": 54,
        "frequency": 12260,
        "name": "Waltham Radio"
      }
    ],
    "elevation": 129,
    "tower": true,
    "name": "White Waltham",
    "runways": [
      {
        "type": 100,
        "width": 45.11,
        "surfaceType": null,
        "numberStart": "07",
        "numberEnd": "25",
        "latStart": 51.498636,
        "lonStart": -0.781661,
        "latEnd": 51.50293049,
        "lonEnd": -0.76716454,
        "length": 0,
        "surfacetype": 3
      },
      {
        "type": 100,
        "width": 45.11,
        "surfaceType": null,
        "numberStart": "03",
        "numberEnd": "21",
        "latStart": 51.495744,
        "lonStart": -0.77515,
        "latEnd": 51.504044,
        "lonEnd": -0.768597,
        "length": 0,
        "surfacetype": 3
      },
      {
        "type": 100,
        "width": 29.87,
        "surfaceType": null,
        "numberStart": "11",
        "numberEnd": "29",
        "latStart": 51.499658,
        "lonStart": -0.779747,
        "latEnd": 51.49681258,
        "lonEnd": -0.76715137,
        "length": 0,
        "surfacetype": 3
      }
    ],
    "id": 27220
  },
  {
    "type": 1,
    "icao": "EGTB",
    "lat": 51.611060003333336,
    "lon": 25.40001479,
    "communications": [
      {
        "type": 54,
        "frequency": 12177,
        "name": "Wycombe Ground"
      },
      {
        "type": 54,
        "frequency": 12655,
        "name": "Wycombe Tower"
      }
    ],
    "elevation": 520,
    "tower": true,
    "name": "Wycombe Air Park",
    "runways": [
      {
        "type": 100,
        "width": 22.86,
        "surfaceType": null,
        "numberStart": "07",
        "numberEnd": "25",
        "latStart": 51.610206,
        "lonStart": -0.812894,
        "latEnd": 51.613258,
        "lonEnd": -0.803564,
        "length": 0,
        "surfacetype": 1
      },
      {
        "type": 100,
        "width": 29.87,
        "surfaceType": null,
        "numberStart": "17",
        "numberEnd": "35",
        "latStart": 51.61330702,
        "lonStart": -0.80881126,
        "latEnd": 51.607128,
        "lonEnd": -0.806619,
        "length": 0,
        "surfacetype": 3
      },
      {
        "type": 100,
        "width": 22.86,
        "surfaceType": null,
        "numberStart": "07R",
        "numberEnd": "25L",
        "latStart": 51.609914,
        "lonStart": -0.811139,
        "latEnd": 51.612547,
        "lonEnd": -0.803072,
        "length": 0,
        "surfacetype": 3
      }
    ],
    "id": 27608
  }
]