[
  {
    "type": 1,
    "icao": "VVGL",
    "lat": 21.0409735,
    "lon": 105.8860095,
    "communications": [],
    "elevation": 50,
    "tower": false,
    "name": "HANOI GIA LAM",
    "runways": [
      {
        "type": 100,
        "width": 45.11,
        "surfaceType": null,
        "numberStart": "02",
        "numberEnd": "20",
        "latStart": 21.032739,
        "lonStart": 105.882047,
        "latEnd": 21.049208,
        "lonEnd": 105.889972,
        "length": 0,
        "surfacetype": 1
      }
    ],
    "id": 31186
  },
  {
    "type": 1,
    "icao": "VVNB",
    "lat": 21.22033,
    "lon": 105.80558,
    "communications": [
      {
        "type": 50,
        "frequency": 12640,
        "name": "ATIS"
      },
      {
        "type": 54,
        "frequency": 11820,
        "name": "TWR"
      },
      {
        "type": 54,
        "frequency": 11880,
        "name": "TWR"
      },
      {
        "type": 55,
        "frequency": 12100,
        "name": "APP"
      },
      {
        "type": 55,
        "frequency": 12590,
        "name": "APP"
      },
      {
        "type": 55,
        "frequency": 13230,
        "name": "APP"
      }
    ],
    "elevation": 39,
    "tower": true,
    "name": "Noi Bai International Airport",
    "runways": [
      {
        "type": 100,
        "width": 45.11,
        "surfaceType": null,
        "numberStart": "11L",
        "numberEnd": "29R",
        "latStart": 21.22527398,
        "lonStart": 105.79257414,
        "latEnd": 21.21675802,
        "lonEnd": 105.82203586,
        "length": 0,
        "surfacetype": 1
      },
      {
        "type": 100,
        "width": 45,
        "surfaceType": null,
        "numberStart": "11R",
        "numberEnd": "29L",
        "latStart": 21.22469972,
        "lonStart": 105.78636445,
        "latEnd": 21.21458828,
        "lonEnd": 105.82134555,
        "length": 0,
        "surfacetype": 2
      }
    ],
    "id": 31188
  }
]