[
  {
    "type": 1,
    "icao": "EBAM",
    "lat": 50.739989705,
    "lon": 3.4851637650000002,
    "communications": [
      {
        "type": 51,
        "frequency": 11975,
        "name": "Amougies Radio"
      }
    ],
    "elevation": 47,
    "tower": true,
    "name": "Amougies",
    "runways": [
      {
        "type": 100,
        "width": 22,
        "surfaceType": null,
        "numberStart": "9",
        "numberEnd": "27",
        "latStart": 50.74041658,
        "lonStart": 3.48090095,
        "latEnd": 50.73956283,
        "lonEnd": 3.48942658,
        "length": 0,
        "surfacetype": 3
      }
    ],
    "id": 942
  },
  {
    "type": 1,
    "icao": "LFAV",
    "lat": 50.327806795714295,
    "lon": 3.4606414742857146,
    "communications": [
      {
        "type": 50,
        "frequency": 12260,
        "name": "VALENCIENNES FSS"
      },
      {
        "type": 51,
        "frequency": 12260,
        "name": "VALENCIENNES MULT"
      },
      {
        "type": 55,
        "frequency": 12647,
        "name": "LILLE APP"
      }
    ],
    "elevation": 165,
    "tower": true,
    "name": "Valenciennes Denain",
    "runways": [
      {
        "type": 100,
        "width": 45,
        "surfaceType": null,
        "numberStart": "11",
        "numberEnd": "29",
        "latStart": 50.32853634,
        "lonStart": 3.45005001,
        "latEnd": 50.3230806,
        "lonEnd": 3.47247223,
        "length": 0,
        "surfacetype": 1
      },
      {
        "type": 100,
        "width": 95.29,
        "surfaceType": null,
        "numberStart": "07",
        "numberEnd": "25",
        "latStart": 50.32786358,
        "lonStart": 3.45538318,
        "latEnd": 50.33055047,
        "lonEnd": 3.46306359,
        "length": 0,
        "surfacetype": 3
      },
      {
        "type": 100,
        "width": 80,
        "surfaceType": null,
        "numberStart": "11L",
        "numberEnd": "29R",
        "latStart": 50.32789713,
        "lonStart": 3.45762386,
        "latEnd": 50.32591036,
        "lonEnd": 3.46579065,
        "length": 0,
        "surfacetype": 3
      },
      {
        "type": 102,
        "width": 14.9,
        "surfaceType": 1,
        "numberStart": "H1",
        "numberEnd": null,
        "latStart": 50.33080909,
        "lonStart": 3.4601068,
        "latEnd": null,
        "lonEnd": null,
        "length": 14.9
      }
    ],
    "id": 3545
  },
  {
    "type": 1,
    "icao": "LFQQ",
    "lat": 50.568471571428574,
    "lon": 3.0947138485714283,
    "communications": [
      {
        "type": 50,
        "frequency": 11932,
        "name": "LFQQ ATIS"
      },
      {
        "type": 53,
        "frequency": 12185,
        "name": "LILLE GND"
      },
      {
        "type": 54,
        "frequency": 11855,
        "name": "LILLE TWR"
      },
      {
        "type": 55,
        "frequency": 12027,
        "name": "LILLE APP"
      },
      {
        "type": 55,
        "frequency": 12647,
        "name": "LILLE APP"
      }
    ],
    "elevation": 154,
    "tower": true,
    "name": "Lille Lesquin",
    "runways": [
      {
        "type": 100,
        "width": 44.5,
        "surfaceType": null,
        "numberStart": "08",
        "numberEnd": "26",
        "latStart": 50.562897,
        "lonStart": 3.083009,
        "latEnd": 50.568439,
        "lonEnd": 3.121949,
        "length": 0,
        "surfacetype": 1
      },
      {
        "type": 100,
        "width": 29.87,
        "surfaceType": null,
        "numberStart": "01",
        "numberEnd": "19",
        "latStart": 50.560156,
        "lonStart": 3.085435,
        "latEnd": 50.573846,
        "lonEnd": 3.091141,
        "length": 0,
        "surfacetype": 1
      },
      {
        "type": 102,
        "width": 14.9,
        "surfaceType": 1,
        "numberStart": "H1",
        "numberEnd": null,
        "latStart": 50.567346,
        "lonStart": 3.094168,
        "latEnd": null,
        "lonEnd": null,
        "length": 14.9
      },
      {
        "type": 102,
        "width": 19.8,
        "surfaceType": 1,
        "numberStart": "H2",
        "numberEnd": null,
        "latStart": 50.573965,
        "lonStart": 3.09414294,
        "latEnd": null,
        "lonEnd": null,
        "length": 29.9
      },
      {
        "type": 102,
        "width": 11.9,
        "surfaceType": 1,
        "numberStart": "H3",
        "numberEnd": null,
        "latStart": 50.572652,
        "lonStart": 3.093152,
        "latEnd": null,
        "lonEnd": null,
        "length": 11.9
      }
    ],
    "id": 3662
  },
  {
    "type": 1,
    "icao": "EBCV",
    "lat": 50.57584,
    "lon": 3.8310765,
    "communications": [
      {
        "type": 54,
        "frequency": 13650,
        "name": "TWR"
      },
      {
        "type": 54,
        "frequency": 12210,
        "name": "TWR"
      },
      {
        "type": 55,
        "frequency": 12662,
        "name": "BRUSSELS APP"
      },
      {
        "type": 56,
        "frequency": 12662,
        "name": "BRUSSELS DEP"
      }
    ],
    "elevation": 201,
    "tower": true,
    "name": "Chievres AB",
    "runways": [
      {
        "type": 100,
        "width": 49.99,
        "surfaceType": null,
        "numberStart": "08",
        "numberEnd": "26",
        "latStart": 50.574319,
        "lonStart": 3.817722,
        "latEnd": 50.577361,
        "lonEnd": 3.844431,
        "length": 0,
        "surfacetype": 1
      }
    ],
    "id": 16134
  },
  {
    "type": 1,
    "icao": "EBGG",
    "lat": 50.755005,
    "lon": 3.865231,
    "communications": [],
    "elevation": 66,
    "tower": true,
    "name": "Geraardsbergen Overboelare",
    "runways": [
      {
        "type": 100,
        "width": 30.48,
        "surfaceType": null,
        "numberStart": "03",
        "numberEnd": "21",
        "latStart": 50.75279403,
        "lonStart": 3.86278389,
        "latEnd": 50.75721597,
        "lonEnd": 3.86767811,
        "length": 0,
        "surfacetype": 3
      }
    ],
    "id": 16138
  },
  {
    "type": 1,
    "icao": "EBKT",
    "lat": 50.8187748,
    "lon": 3.20897787,
    "communications": [
      {
        "type": 51,
        "frequency": 12025,
        "name": "AFIS"
      }
    ],
    "elevation": 63,
    "tower": false,
    "name": "WEVELGEM",
    "runways": [
      {
        "type": 100,
        "width": 45.11,
        "surfaceType": null,
        "numberStart": "06",
        "numberEnd": "24",
        "latStart": 50.81476951,
        "lonStart": 3.19707342,
        "latEnd": 50.82278009,
        "lonEnd": 3.22088232,
        "length": 0,
        "surfacetype": 1
      }
    ],
    "id": 16140
  },
  {
    "type": 1,
    "icao": "EBMO",
    "lat": 50.853336,
    "lon": 3.1466659999999997,
    "communications": [],
    "elevation": 66,
    "tower": true,
    "name": "Moorsele",
    "runways": [
      {
        "type": 100,
        "width": 22.86,
        "surfaceType": null,
        "numberStart": "04",
        "numberEnd": "22",
        "latStart": 50.85109607,
        "lonStart": 3.14368881,
        "latEnd": 50.85557593,
        "lonEnd": 3.14964319,
        "length": 0,
        "surfacetype": 3
      }
    ],
    "id": 16143
  },
  {
    "type": 1,
    "icao": "EBSG",
    "lat": 50.458037475,
    "lon": 3.820932335,
    "communications": [],
    "elevation": 75,
    "tower": true,
    "name": "St. Ghislain",
    "runways": [
      {
        "type": 100,
        "width": 21.95,
        "surfaceType": null,
        "numberStart": "09",
        "numberEnd": "27",
        "latStart": 50.45783328,
        "lonStart": 3.81601634,
        "latEnd": 50.45824167,
        "lonEnd": 3.82584833,
        "length": 0,
        "surfacetype": 1
      }
    ],
    "id": 16147
  },
  {
    "type": 1,
    "icao": "EBTY",
    "lat": 50.531682215000004,
    "lon": 3.4961604299999998,
    "communications": [],
    "elevation": 161,
    "tower": true,
    "name": "Tournai Maubray",
    "runways": [
      {
        "type": 100,
        "width": 49.99,
        "surfaceType": null,
        "numberStart": "11",
        "numberEnd": "29",
        "latStart": 50.53244891,
        "lonStart": 3.49180625,
        "latEnd": 50.53091552,
        "lonEnd": 3.50051461,
        "length": 0,
        "surfacetype": 3
      }
    ],
    "id": 16155
  },
  {
    "type": 1,
    "icao": "LFQI",
    "lat": 50.221861,
    "lon": 3.154166,
    "communications": [
      {
        "type": 54,
        "frequency": 11852,
        "name": "CAMBRAI TWR"
      },
      {
        "type": 54,
        "frequency": 12210,
        "name": "CAMBRAI TWR"
      },
      {
        "type": 55,
        "frequency": 12330,
        "name": "CAMBRAI_GCA APP"
      },
      {
        "type": 55,
        "frequency": 11970,
        "name": "CAMBRAI APP"
      }
    ],
    "elevation": 256,
    "tower": true,
    "name": "Epinoy BA",
    "runways": [
      {
        "type": 100,
        "width": 49.99,
        "surfaceType": null,
        "numberStart": "10",
        "numberEnd": "28",
        "latStart": 50.222666,
        "lonStart": 3.136562,
        "latEnd": 50.221056,
        "lonEnd": 3.17177,
        "length": 0,
        "surfacetype": 1
      }
    ],
    "id": 20438
  },
  {
    "type": 1,
    "icao": "LFQO",
    "lat": 50.6882035,
    "lon": 3.0746195000000003,
    "communications": [
      {
        "type": 51,
        "frequency": 12200,
        "name": "MARCQ MULT"
      }
    ],
    "elevation": 68,
    "tower": true,
    "name": "Marcq en Baroeul",
    "runways": [
      {
        "type": 100,
        "width": 100.58,
        "surfaceType": null,
        "numberStart": "17",
        "numberEnd": "35",
        "latStart": 50.693561,
        "lonStart": 3.073787,
        "latEnd": 50.685997,
        "lonEnd": 3.075463,
        "length": 0,
        "surfacetype": 3
      },
      {
        "type": 100,
        "width": 100.58,
        "surfaceType": null,
        "numberStart": "08",
        "numberEnd": "26",
        "latStart": 50.685622,
        "lonStart": 3.0689,
        "latEnd": 50.687634,
        "lonEnd": 3.080328,
        "length": 0,
        "surfacetype": 3
      }
    ],
    "id": 20442
  },
  {
    "type": 1,
    "icao": "LFYG",
    "lat": 50.1406825,
    "lon": 3.2638625,
    "communications": [
      {
        "type": 54,
        "frequency": 12292,
        "name": "NIERGNIES AA"
      }
    ],
    "elevation": 312,
    "tower": true,
    "name": "Cambrai Niergnies",
    "runways": [
      {
        "type": 100,
        "width": 19.81,
        "surfaceType": null,
        "numberStart": "08",
        "numberEnd": "26",
        "latStart": 50.140461,
        "lonStart": 3.257548,
        "latEnd": 50.142569,
        "lonEnd": 3.269204,
        "length": 0,
        "surfacetype": 1
      },
      {
        "type": 100,
        "width": 99.97,
        "surfaceType": null,
        "numberStart": "08R",
        "numberEnd": "26L",
        "latStart": 50.138892,
        "lonStart": 3.258981,
        "latEnd": 50.140808,
        "lonEnd": 3.269717,
        "length": 0,
        "surfacetype": 15
      }
    ],
    "id": 20473
  }
]