[
  {
    "type": 1,
    "icao": "OINJ",
    "lat": 36.655142999999995,
    "lon": 44.500107,
    "communications": [
      {
        "type": 54,
        "frequency": 12190,
        "name": "INFO"
      }
    ],
    "elevation": -79,
    "tower": false,
    "name": "BISHE KOLA",
    "runways": [
      {
        "type": 100,
        "width": 29.87,
        "surfaceType": null,
        "numberStart": "09",
        "numberEnd": "27",
        "latStart": 36.654264,
        "lonStart": 52.344192,
        "latEnd": 36.656022,
        "lonEnd": 52.354997,
        "length": 0,
        "surfacetype": 1
      }
    ],
    "id": 1752
  },
  {
    "type": 1,
    "icao": "OINN",
    "lat": 36.6638375,
    "lon": 44.0577765,
    "communications": [
      {
        "type": 54,
        "frequency": 12170,
        "name": "TWR"
      },
      {
        "type": 54,
        "frequency": 12460,
        "name": "TWR"
      }
    ],
    "elevation": -61,
    "tower": true,
    "name": "NOSHAHR",
    "runways": [
      {
        "type": 100,
        "width": 35.05,
        "surfaceType": null,
        "numberStart": "10",
        "numberEnd": "28",
        "latStart": 36.666553,
        "lonStart": 51.454431,
        "latEnd": 36.661122,
        "lonEnd": 51.474403,
        "length": 0,
        "surfacetype": 1
      }
    ],
    "id": 18009
  },
  {
    "type": 1,
    "icao": "OINZ",
    "lat": 36.6446,
    "lon": 44.908583,
    "communications": [
      {
        "type": 50,
        "frequency": 12685,
        "name": "DASHT E NAZ INFO"
      },
      {
        "type": 54,
        "frequency": 11960,
        "name": "TWR"
      },
      {
        "type": 54,
        "frequency": 12170,
        "name": "TWR"
      },
      {
        "type": 54,
        "frequency": 11845,
        "name": "TWR"
      }
    ],
    "elevation": 35,
    "tower": true,
    "name": "SARI DASHT E NAZ",
    "runways": [
      {
        "type": 100,
        "width": 45.11,
        "surfaceType": null,
        "numberStart": "16",
        "numberEnd": "34",
        "latStart": 36.655856,
        "lonStart": 53.183822,
        "latEnd": 36.633344,
        "lonEnd": 53.193544,
        "length": 0,
        "surfacetype": 1
      }
    ],
    "id": 22082
  }
]