[
  {
    "type": 1,
    "icao": "WBKD",
    "lat": 5.032246000000001,
    "lon": 118.324036,
    "communications": [
      {
        "type": 54,
        "frequency": 12230,
        "name": "TWR"
      }
    ],
    "elevation": 45,
    "tower": true,
    "name": "Lahad Datu",
    "runways": [
      {
        "type": 100,
        "width": 29.87,
        "surfaceType": null,
        "numberStart": "11",
        "numberEnd": "29",
        "latStart": 5.034956,
        "lonStart": 118.318444,
        "latEnd": 5.029536,
        "lonEnd": 118.329628,
        "length": 0,
        "surfacetype": 1
      }
    ],
    "id": 14798
  },
  {
    "type": 1,
    "icao": "WBKS",
    "lat": 5.9008970000000005,
    "lon": 118.05948599999999,
    "communications": [
      {
        "type": 53,
        "frequency": 12190,
        "name": "GND"
      },
      {
        "type": 54,
        "frequency": 12105,
        "name": "TWR"
      },
      {
        "type": 55,
        "frequency": 12320,
        "name": "APP"
      }
    ],
    "elevation": 46,
    "tower": true,
    "name": "Sandakan",
    "runways": [
      {
        "type": 100,
        "width": 46.02,
        "surfaceType": null,
        "numberStart": "08",
        "numberEnd": "26",
        "latStart": 5.899322,
        "lonStart": 118.049961,
        "latEnd": 5.902472,
        "lonEnd": 118.069011,
        "length": 0,
        "surfacetype": 1
      }
    ],
    "id": 22836
  }
]