[
  {
    "type": 1,
    "icao": "EIAB",
    "lat": 53.591985425000004,
    "lon": 22.969501295,
    "communications": [
      {
        "type": 51,
        "frequency": 12260,
        "name": "Abbeyshrule Radio"
      }
    ],
    "elevation": 188,
    "tower": false,
    "name": "Abbeyshrule",
    "runways": [
      {
        "type": 100,
        "width": 17.98,
        "surfaceType": null,
        "numberStart": "10",
        "numberEnd": "28",
        "latStart": 53.59186495,
        "lonStart": -7.65310331,
        "latEnd": 53.5921059,
        "lonEnd": -7.64066829,
        "length": 0,
        "surfacetype": 1
      }
    ],
    "id": 514
  },
  {
    "type": 1,
    "icao": "EIBR",
    "lat": 53.068348365,
    "lon": 22.583596565,
    "communications": [
      {
        "type": 51,
        "frequency": 12295,
        "name": "Birr Radio"
      }
    ],
    "elevation": 250,
    "tower": false,
    "name": "Birr",
    "runways": [
      {
        "type": 100,
        "width": 17.98,
        "surfaceType": null,
        "numberStart": "18",
        "numberEnd": "36",
        "latStart": 53.0709124,
        "lonStart": -7.8985912,
        "latEnd": 53.06578433,
        "lonEnd": -7.8987997,
        "length": 0,
        "surfacetype": 3
      }
    ],
    "id": 2765
  },
  {
    "type": 1,
    "icao": "EICS",
    "lat": 53.778333,
    "lon": 22.966732135,
    "communications": [],
    "elevation": 148,
    "tower": false,
    "name": "Castleforbes",
    "runways": [
      {
        "type": 100,
        "width": 29.87,
        "surfaceType": null,
        "numberStart": "15",
        "numberEnd": "33",
        "latStart": 53.78280536,
        "lonStart": -7.84039637,
        "latEnd": 53.77386064,
        "lonEnd": -7.8301594,
        "length": 0,
        "surfacetype": 3
      }
    ],
    "id": 4643
  },
  {
    "type": 1,
    "icao": "EDWE",
    "lat": 53.39060369999999,
    "lon": 22.612322723333335,
    "communications": [
      {
        "type": 54,
        "frequency": 11860,
        "name": "Emden Info"
      },
      {
        "type": 55,
        "frequency": 12360,
        "name": "WITTMUND/JEVER RADAR"
      },
      {
        "type": 55,
        "frequency": 12465,
        "name": "BREMEN RADAR"
      }
    ],
    "elevation": 1,
    "tower": true,
    "name": "Emden",
    "runways": [
      {
        "type": 100,
        "width": 29.87,
        "surfaceType": null,
        "numberStart": "07",
        "numberEnd": "25",
        "latStart": 53.38934,
        "lonStart": 7.217272,
        "latEnd": 53.3928,
        "lonEnd": 7.235933,
        "length": 0,
        "surfacetype": 1
      },
      {
        "type": 102,
        "width": 15.7,
        "surfaceType": 1,
        "numberStart": "H",
        "numberEnd": null,
        "latStart": 53.3896711,
        "lonStart": 7.22689617,
        "latEnd": null,
        "lonEnd": null,
        "length": 16.4
      }
    ],
    "id": 7153
  },
  {
    "type": 1,
    "icao": "EICM",
    "lat": 53.30015129,
    "lon": 22.17549829,
    "communications": [
      {
        "type": 50,
        "frequency": 12182,
        "name": "ATIS"
      },
      {
        "type": 53,
        "frequency": 12182,
        "name": "GND"
      },
      {
        "type": 54,
        "frequency": 12250,
        "name": "TWR"
      }
    ],
    "elevation": 81,
    "tower": true,
    "name": "Galway",
    "runways": [
      {
        "type": 100,
        "width": 29.87,
        "surfaceType": null,
        "numberStart": "08",
        "numberEnd": "26",
        "latStart": 53.298781,
        "lonStart": -8.950525,
        "latEnd": 53.30152158,
        "lonEnd": -8.93296635,
        "length": 0,
        "surfacetype": 1
      }
    ],
    "id": 10284
  },
  {
    "type": 1,
    "icao": "EDDH",
    "lat": 53.630011801428566,
    "lon": 22.456587225714287,
    "communications": [
      {
        "type": 50,
        "frequency": 12312,
        "name": "EDDH ATIS"
      },
      {
        "type": 53,
        "frequency": 12180,
        "name": "HAMBURG GND"
      },
      {
        "type": 54,
        "frequency": 12127,
        "name": "HAMBURG TWR"
      },
      {
        "type": 54,
        "frequency": 12685,
        "name": "HAMBURG TWR"
      },
      {
        "type": 55,
        "frequency": 11820,
        "name": "HAMBURG APP"
      },
      {
        "type": 55,
        "frequency": 12462,
        "name": "HAMBURG APP"
      }
    ],
    "elevation": 53,
    "tower": true,
    "name": "Hamburg",
    "runways": [
      {
        "type": 100,
        "width": 46.02,
        "surfaceType": null,
        "numberStart": "05",
        "numberEnd": "23",
        "latStart": 53.61823179,
        "lonStart": 9.9637106,
        "latEnd": 53.63690839,
        "lonEnd": 10.0015102,
        "length": 0,
        "surfacetype": 1
      },
      {
        "type": 100,
        "width": 46.02,
        "surfaceType": null,
        "numberStart": "15",
        "numberEnd": "33",
        "latStart": 53.6544132,
        "lonStart": 9.9752118,
        "latEnd": 53.62510683,
        "lonEnd": 10.00050753,
        "length": 0,
        "surfacetype": 1
      },
      {
        "type": 102,
        "width": 29,
        "surfaceType": 1,
        "numberStart": "H2",
        "numberEnd": null,
        "latStart": 53.62692979,
        "lonStart": 10.00126195,
        "latEnd": null,
        "lonEnd": null,
        "length": 28
      },
      {
        "type": 102,
        "width": 7,
        "surfaceType": 1,
        "numberStart": "H3",
        "numberEnd": null,
        "latStart": 53.62435115,
        "lonStart": 9.99692418,
        "latEnd": null,
        "lonEnd": null,
        "length": 7
      },
      {
        "type": 102,
        "width": 7,
        "surfaceType": 1,
        "numberStart": "H4",
        "numberEnd": null,
        "latStart": 53.62414146,
        "lonStart": 9.99698683,
        "latEnd": null,
        "lonEnd": null,
        "length": 7
      }
    ],
    "id": 11350
  },
  {
    "type": 1,
    "icao": "EIKN",
    "lat": 53.910305795,
    "lon": 22.538349475,
    "communications": [
      {
        "type": 53,
        "frequency": 12190,
        "name": "GND"
      },
      {
        "type": 54,
        "frequency": 13070,
        "name": "TWR"
      },
      {
        "type": 54,
        "frequency": 13069,
        "name": "TWR"
      }
    ],
    "elevation": 665,
    "tower": true,
    "name": "Ireland West Airport Knock",
    "runways": [
      {
        "type": 100,
        "width": 45.11,
        "surfaceType": null,
        "numberStart": "09",
        "numberEnd": "27",
        "latStart": 53.90829759,
        "lonStart": -8.83561505,
        "latEnd": 53.912314,
        "lonEnd": -8.80133304,
        "length": 0,
        "surfacetype": 1
      }
    ],
    "id": 12547
  },
  {
    "type": 1,
    "icao": "EDWL",
    "lat": 53.742617743333334,
    "lon": 22.90992629333333,
    "communications": [
      {
        "type": 54,
        "frequency": 12202,
        "name": "Langeoog INFO"
      }
    ],
    "elevation": 6,
    "tower": true,
    "name": "Langeoog",
    "runways": [
      {
        "type": 100,
        "width": 14.94,
        "surfaceType": null,
        "numberStart": "05",
        "numberEnd": "23",
        "latStart": 53.740668,
        "lonStart": 7.493569,
        "latEnd": 53.744069,
        "lonEnd": 7.501743,
        "length": 0,
        "surfacetype": 1
      },
      {
        "type": 102,
        "width": 14.9,
        "surfaceType": 2,
        "numberStart": "H",
        "numberEnd": null,
        "latStart": 53.74311623,
        "lonStart": 7.49214088,
        "latEnd": null,
        "lonEnd": null,
        "length": 14.9
      }
    ],
    "id": 14930
  },
  {
    "type": 1,
    "icao": "ETNT",
    "lat": 53.54797987333333,
    "lon": 22.95070468666667,
    "communications": [
      {
        "type": 54,
        "frequency": 11872,
        "name": "Wittmund tower"
      }
    ],
    "elevation": 26,
    "tower": true,
    "name": "Wittmundhafen AB",
    "runways": [
      {
        "type": 100,
        "width": 30,
        "surfaceType": null,
        "numberStart": "08",
        "numberEnd": "26",
        "latStart": 53.54504,
        "lonStart": 7.645155,
        "latEnd": 53.550767,
        "lonEnd": 7.689686,
        "length": 0,
        "surfacetype": 1
      },
      {
        "type": 102,
        "width": 33.7,
        "surfaceType": 1,
        "numberStart": "H1",
        "numberEnd": null,
        "latStart": 53.54813262,
        "lonStart": 7.65619206,
        "latEnd": null,
        "lonEnd": null,
        "length": 34.7
      }
    ],
    "id": 27479
  }
]