[
  {
    "type": 1,
    "icao": "FABS",
    "lat": -25.533244695,
    "lon": 27.775608495,
    "communications": [
      {
        "type": 51,
        "frequency": 12420,
        "name": "Unmanned Unicom"
      }
    ],
    "elevation": 3740,
    "tower": false,
    "name": "Brits",
    "runways": [
      {
        "type": 100,
        "width": 18,
        "surfaceType": null,
        "numberStart": "02",
        "numberEnd": "20",
        "latStart": -25.53707139,
        "lonStart": 27.77558496,
        "latEnd": -25.529418,
        "lonEnd": 27.77563203,
        "length": 0,
        "surfacetype": 1
      }
    ],
    "id": 2127
  },
  {
    "type": 1,
    "icao": "FALA",
    "lat": -25.938125525,
    "lon": 27.926043687499998,
    "communications": [],
    "elevation": 4517,
    "tower": true,
    "name": "Lanseria",
    "runways": [
      {
        "type": 100,
        "width": 45,
        "surfaceType": null,
        "numberStart": "07",
        "numberEnd": "25",
        "latStart": -25.948289,
        "lonStart": 27.915431,
        "latEnd": -25.930431,
        "lonEnd": 27.936939,
        "length": 0,
        "surfacetype": 1
      },
      {
        "type": 102,
        "width": 10,
        "surfaceType": 1,
        "numberStart": "H2",
        "numberEnd": null,
        "latStart": -25.9357296,
        "lonStart": 27.92735733,
        "latEnd": null,
        "lonEnd": null,
        "length": 10
      },
      {
        "type": 102,
        "width": 15,
        "surfaceType": 1,
        "numberStart": "H1",
        "numberEnd": null,
        "latStart": -25.9380525,
        "lonStart": 27.92444742,
        "latEnd": null,
        "lonEnd": null,
        "length": 15.4
      }
    ],
    "id": 2139
  },
  {
    "type": 1,
    "icao": "FAPN",
    "lat": -25.3338375,
    "lon": 27.173563475,
    "communications": [
      {
        "type": 54,
        "frequency": 11840,
        "name": "TWR"
      }
    ],
    "elevation": 3412,
    "tower": true,
    "name": "Pilanesberg INTL",
    "runways": [
      {
        "type": 100,
        "width": 30,
        "surfaceType": null,
        "numberStart": "05",
        "numberEnd": "23",
        "latStart": -25.34374448,
        "lonStart": 27.16529427,
        "latEnd": -25.32393052,
        "lonEnd": 27.18183268,
        "length": 0,
        "surfacetype": 1
      }
    ],
    "id": 2150
  },
  {
    "type": 1,
    "icao": "FARG",
    "lat": -25.644444,
    "lon": 27.27102,
    "communications": [
      {
        "type": 51,
        "frequency": 12240,
        "name": "TIBA"
      }
    ],
    "elevation": 3700,
    "tower": false,
    "name": "Rustenburg",
    "runways": [
      {
        "type": 100,
        "width": 15.4,
        "surfaceType": null,
        "numberStart": "16",
        "numberEnd": "34",
        "latStart": -25.639756,
        "lonStart": 27.267389,
        "latEnd": -25.649132,
        "lonEnd": 27.274651,
        "length": 0,
        "surfacetype": 1
      }
    ],
    "id": 2155
  }
]