[
  {
    "type": 1,
    "icao": "UEEE",
    "lat": 62.093235175,
    "lon": 129.77081317750003,
    "communications": [
      {
        "type": 53,
        "frequency": 12170,
        "name": "Yakutsk Taxiing"
      },
      {
        "type": 54,
        "frequency": 12000,
        "name": "Yakutsk Start"
      },
      {
        "type": 54,
        "frequency": 12030,
        "name": "Yakutsk Krug"
      },
      {
        "type": 55,
        "frequency": 12930,
        "name": "Yakutsk Podhod"
      }
    ],
    "elevation": 325,
    "tower": true,
    "name": "Yakutsk",
    "runways": [
      {
        "type": 100,
        "width": 49.07,
        "surfaceType": null,
        "numberStart": "05L",
        "numberEnd": "23R",
        "latStart": 62.08268292,
        "lonStart": 129.7536411,
        "latEnd": 62.10216892,
        "lonEnd": 129.7772131,
        "length": 0,
        "surfacetype": 2
      },
      {
        "type": 100,
        "width": 60.05,
        "surfaceType": null,
        "numberStart": "05R",
        "numberEnd": "23L",
        "latStart": 62.08183943,
        "lonStart": 129.75664713,
        "latEnd": 62.10624943,
        "lonEnd": 129.79575138,
        "length": 0,
        "surfacetype": 1
      }
    ],
    "id": 5061
  },
  {
    "type": 1,
    "icao": "UEMM",
    "lat": 62.109438,
    "lon": 129.565984885,
    "communications": [
      {
        "type": 54,
        "frequency": 12210,
        "name": "Magan Tower"
      },
      {
        "type": 55,
        "frequency": 12869,
        "name": "Magan Podhod"
      }
    ],
    "elevation": 623,
    "tower": true,
    "name": "Magam",
    "runways": [
      {
        "type": 100,
        "width": 70.1,
        "surfaceType": null,
        "numberStart": "05",
        "numberEnd": "23",
        "latStart": 62.12146208,
        "lonStart": 129.58082529,
        "latEnd": 62.09741392,
        "lonEnd": 129.55114448,
        "length": 0,
        "surfacetype": 3
      }
    ],
    "id": 30270
  }
]