[
  {
    "type": 1,
    "icao": "6Y4",
    "lat": 46.0521775,
    "lon": -87.25819417,
    "communications": [],
    "elevation": 970,
    "tower": false,
    "name": "Bonnie Field",
    "runways": [
      {
        "type": 100,
        "width": 30.48,
        "surfaceType": null,
        "numberStart": "12",
        "numberEnd": "30",
        "latStart": 46.05379637,
        "lonStart": -87.26277227,
        "latEnd": 46.05055863,
        "lonEnd": -87.25361607,
        "length": 0,
        "surfacetype": 3
      }
    ],
    "id": 2978
  },
  {
    "type": 1,
    "icao": "0MI7",
    "lat": 46.34521861,
    "lon": -87.78846806,
    "communications": [],
    "elevation": 1446,
    "tower": false,
    "name": "Edward F Johnson",
    "runways": [
      {
        "type": 100,
        "width": 36.58,
        "surfaceType": null,
        "numberStart": "18",
        "numberEnd": "36",
        "latStart": 46.34857416,
        "lonStart": -87.78872281,
        "latEnd": 46.34186306,
        "lonEnd": -87.78821331,
        "length": 0,
        "surfacetype": 3
      }
    ],
    "id": 6980
  },
  {
    "type": 1,
    "icao": "0MI4",
    "lat": 46.27022277,
    "lon": -87.38652834,
    "communications": [],
    "elevation": 1120,
    "tower": false,
    "name": "Lesterson Field",
    "runways": [
      {
        "type": 100,
        "width": 30.48,
        "surfaceType": null,
        "numberStart": "18",
        "numberEnd": "36",
        "latStart": 46.2743316,
        "lonStart": -87.38683985,
        "latEnd": 46.26611394,
        "lonEnd": -87.38621683,
        "length": 0,
        "surfacetype": 3
      }
    ],
    "id": 15198
  },
  {
    "type": 1,
    "icao": "KMQT",
    "lat": 46.5341471475,
    "lon": -87.5608876325,
    "communications": [],
    "elevation": 1419,
    "tower": false,
    "name": "Marquette County",
    "runways": [
      {
        "type": 100,
        "width": 45.72,
        "surfaceType": null,
        "numberStart": "08",
        "numberEnd": "26",
        "latStart": 46.53177888,
        "lonStart": -87.57563722,
        "latEnd": 46.53582833,
        "lonEnd": -87.55049138,
        "length": 0,
        "surfacetype": 1
      },
      {
        "type": 100,
        "width": 22.86,
        "surfaceType": null,
        "numberStart": "01",
        "numberEnd": "19",
        "latStart": 46.53048166,
        "lonStart": -87.56003888,
        "latEnd": 46.53849972,
        "lonEnd": -87.55738305,
        "length": 0,
        "surfacetype": 1
      }
    ],
    "id": 16720
  },
  {
    "type": 1,
    "icao": "KSAW",
    "lat": 46.353641505,
    "lon": -87.39531023,
    "communications": [
      {
        "type": 50,
        "frequency": 11837,
        "name": "AWOS 3"
      },
      {
        "type": 51,
        "frequency": 11997,
        "name": "CTAF"
      },
      {
        "type": 51,
        "frequency": 12270,
        "name": "UNICOM"
      },
      {
        "type": 53,
        "frequency": 12165,
        "name": "GND"
      },
      {
        "type": 54,
        "frequency": 11997,
        "name": "TWR"
      }
    ],
    "elevation": 1221,
    "tower": true,
    "name": "SAWYER INTL",
    "runways": [
      {
        "type": 100,
        "width": 47.08,
        "surfaceType": null,
        "numberStart": "01",
        "numberEnd": "19",
        "latStart": 46.33685078,
        "lonStart": -87.39930175,
        "latEnd": 46.37043223,
        "lonEnd": -87.39131871,
        "length": 0,
        "surfacetype": 2
      }
    ],
    "id": 22103
  },
  {
    "type": 1,
    "icao": "1MI9",
    "lat": 46.47215833,
    "lon": -87.35013889000001,
    "communications": [],
    "elevation": 660,
    "tower": false,
    "name": "Southfork",
    "runways": [
      {
        "type": 100,
        "width": 36.58,
        "surfaceType": null,
        "numberStart": "17",
        "numberEnd": "35",
        "latStart": 46.47369512,
        "lonStart": -87.35065405,
        "latEnd": 46.47062154,
        "lonEnd": -87.34962373,
        "length": 0,
        "surfacetype": 3
      }
    ],
    "id": 23914
  }
]