[
  {
    "type": 1,
    "icao": "SEIB",
    "lat": 0.3384195,
    "lon": -38.896929,
    "communications": [
      {
        "type": 54,
        "frequency": 12270,
        "name": "IBARRA TWR"
      }
    ],
    "elevation": 7304,
    "tower": true,
    "name": "ATAHUALPA",
    "runways": [
      {
        "type": 100,
        "width": 20.12,
        "surfaceType": null,
        "numberStart": "02",
        "numberEnd": "20",
        "latStart": 0.330508,
        "lonStart": -78.140189,
        "latEnd": 0.346331,
        "lonEnd": -78.132656,
        "length": 0,
        "surfacetype": 1
      }
    ],
    "id": 441
  },
  {
    "type": 1,
    "icao": "SENL",
    "lat": 0.0923,
    "lon": -38.38955,
    "communications": [
      {
        "type": 54,
        "frequency": 11880,
        "name": "NUEVA LOJA TWR"
      },
      {
        "type": 55,
        "frequency": 12040,
        "name": "NUEVA LOJA APP"
      }
    ],
    "elevation": 982,
    "tower": true,
    "name": "LAGO AGRIO",
    "runways": [
      {
        "type": 100,
        "width": 45.11,
        "surfaceType": null,
        "numberStart": "05",
        "numberEnd": "23",
        "latStart": 0.086072,
        "lonStart": -76.877628,
        "latEnd": 0.098528,
        "lonEnd": -76.861,
        "length": 0,
        "surfacetype": 1
      }
    ],
    "id": 14309
  },
  {
    "type": 1,
    "icao": "SKIP",
    "lat": 0.861925,
    "lon": -38.406471,
    "communications": [
      {
        "type": 54,
        "frequency": 11830,
        "name": "TWR"
      },
      {
        "type": 55,
        "frequency": 12010,
        "name": "ANDES APP"
      }
    ],
    "elevation": 9765,
    "tower": true,
    "name": "SAN LUIS",
    "runways": [
      {
        "type": 100,
        "width": 28.04,
        "surfaceType": null,
        "numberStart": "06",
        "numberEnd": "24",
        "latStart": 0.858081,
        "lonStart": -77.678711,
        "latEnd": 0.865769,
        "lonEnd": -77.664814,
        "length": 0,
        "surfacetype": 1
      }
    ],
    "id": 21986
  },
  {
    "type": 1,
    "icao": "SETU",
    "lat": 0.809507,
    "lon": -38.450601,
    "communications": [
      {
        "type": 54,
        "frequency": 12200,
        "name": "TULCAN TWR"
      },
      {
        "type": 55,
        "frequency": 12010,
        "name": "ANDES APP"
      }
    ],
    "elevation": 9649,
    "tower": true,
    "name": "TENIENTE CORONEL LUIS A MANTILLA",
    "runways": [
      {
        "type": 100,
        "width": 29.87,
        "surfaceType": null,
        "numberStart": "05",
        "numberEnd": "23",
        "latStart": 0.803083,
        "lonStart": -77.717133,
        "latEnd": 0.815931,
        "lonEnd": -77.698981,
        "length": 0,
        "surfacetype": 1
      }
    ],
    "id": 24649
  }
]