[
  {
    "type": 1,
    "icao": "RJAZ",
    "lat": 34.1861115,
    "lon": 139.136673,
    "communications": [],
    "elevation": 454,
    "tower": true,
    "name": "Kozushima",
    "runways": [
      {
        "type": 100,
        "width": 24.99,
        "surfaceType": null,
        "numberStart": "11",
        "numberEnd": "29",
        "latStart": 34.18695162,
        "lonStart": 139.13244272,
        "latEnd": 34.18527138,
        "lonEnd": 139.14090328,
        "length": 0,
        "surfacetype": 1
      }
    ],
    "id": 14106
  },
  {
    "type": 1,
    "icao": "RJTQ",
    "lat": 34.0721375,
    "lon": 139.55985600000002,
    "communications": [
      {
        "type": 54,
        "frequency": 11805,
        "name": "RDO"
      }
    ],
    "elevation": 67,
    "tower": true,
    "name": "MIYAKEJIMA",
    "runways": [
      {
        "type": 100,
        "width": 30.48,
        "surfaceType": null,
        "numberStart": "02",
        "numberEnd": "20",
        "latStart": 34.066411,
        "lonStart": 139.557756,
        "latEnd": 34.077864,
        "lonEnd": 139.561956,
        "length": 0,
        "surfacetype": 1
      }
    ],
    "id": 16160
  },
  {
    "type": 1,
    "icao": "RJAN",
    "lat": 34.3695412,
    "lon": 139.2685394,
    "communications": [],
    "elevation": 94,
    "tower": true,
    "name": "Niijima",
    "runways": [
      {
        "type": 100,
        "width": 24.99,
        "surfaceType": null,
        "numberStart": "11",
        "numberEnd": "29",
        "latStart": 34.37041183,
        "lonStart": 139.26430893,
        "latEnd": 34.36867057,
        "lonEnd": 139.27276987,
        "length": 0,
        "surfacetype": 1
      }
    ],
    "id": 18328
  },
  {
    "type": 1,
    "icao": "RJTO",
    "lat": 34.7819225,
    "lon": 139.36031454,
    "communications": [
      {
        "type": 51,
        "frequency": 11860,
        "name": "OSHIMA MULT"
      },
      {
        "type": 51,
        "frequency": 12620,
        "name": "OSHIMA MULT"
      },
      {
        "type": 55,
        "frequency": 12370,
        "name": "TOKYO APP"
      },
      {
        "type": 55,
        "frequency": 13415,
        "name": "TOKYO APP"
      }
    ],
    "elevation": 125,
    "tower": false,
    "name": "RJTO-Oshima",
    "runways": [
      {
        "type": 100,
        "width": 46.02,
        "surfaceType": null,
        "numberStart": "03",
        "numberEnd": "21",
        "latStart": 34.774167,
        "lonStart": 139.35692804,
        "latEnd": 34.789678,
        "lonEnd": 139.36370104,
        "length": 0,
        "surfacetype": 1
      }
    ],
    "id": 20972
  },
  {
    "type": 1,
    "icao": "RJTE",
    "lat": 34.986971999999994,
    "lon": 139.829125,
    "communications": [
      {
        "type": 54,
        "frequency": 12200,
        "name": "TWR"
      },
      {
        "type": 54,
        "frequency": 12620,
        "name": "TWR"
      },
      {
        "type": 55,
        "frequency": 11910,
        "name": "TOKYO APP"
      },
      {
        "type": 55,
        "frequency": 12600,
        "name": "TOKYO APP"
      }
    ],
    "elevation": 10,
    "tower": true,
    "name": "TATEYAMA",
    "runways": [
      {
        "type": 100,
        "width": 45.11,
        "surfaceType": null,
        "numberStart": "09",
        "numberEnd": "27",
        "latStart": 34.986861,
        "lonStart": 139.827472,
        "latEnd": 34.987083,
        "lonEnd": 139.830778,
        "length": 0,
        "surfacetype": 2
      }
    ],
    "id": 24609
  }
]