[
  {
    "type": 1,
    "icao": "EIDL",
    "lat": 55.044196,
    "lon": 23.352714,
    "communications": [
      {
        "type": 50,
        "frequency": 12991,
        "name": "ATIS"
      },
      {
        "type": 50,
        "frequency": 12992,
        "name": "ATIS"
      },
      {
        "type": 53,
        "frequency": 12980,
        "name": "GND"
      },
      {
        "type": 54,
        "frequency": 12980,
        "name": "TWR"
      }
    ],
    "elevation": 29,
    "tower": true,
    "name": "Donegal",
    "runways": [
      {
        "type": 100,
        "width": 29.87,
        "surfaceType": null,
        "numberStart": "03",
        "numberEnd": "21",
        "latStart": 55.037886,
        "lonStart": -8.345078,
        "latEnd": 55.050506,
        "lonEnd": -8.336994,
        "length": 0,
        "surfacetype": 1
      }
    ],
    "id": 6377
  },
  {
    "type": 1,
    "icao": "EGAE",
    "lat": 55.042790284999995,
    "lon": 23.934950115,
    "communications": [
      {
        "type": 54,
        "frequency": 13415,
        "name": "TWR"
      },
      {
        "type": 55,
        "frequency": 12362,
        "name": "APP"
      }
    ],
    "elevation": 21,
    "tower": true,
    "name": "Londonderry Eglinton",
    "runways": [
      {
        "type": 100,
        "width": 45.11,
        "surfaceType": null,
        "numberStart": "08",
        "numberEnd": "26",
        "latStart": 55.04035096,
        "lonStart": -7.17532938,
        "latEnd": 55.04522961,
        "lonEnd": -7.14732622,
        "length": 0,
        "surfacetype": 1
      }
    ],
    "id": 15429
  }
]