[
  {
    "type": 1,
    "icao": "CFP8",
    "lat": 60.8117365,
    "lon": -135.18253449999997,
    "communications": [],
    "elevation": 2165,
    "tower": false,
    "name": "Cousins",
    "runways": [
      {
        "type": 100,
        "width": 39.93,
        "surfaceType": null,
        "numberStart": "15",
        "numberEnd": "33",
        "latStart": 60.815938,
        "lonStart": -135.188349,
        "latEnd": 60.807535,
        "lonEnd": -135.17672,
        "length": 0,
        "surfacetype": 5
      }
    ],
    "id": 5417
  },
  {
    "type": 1,
    "icao": "CYXY",
    "lat": 60.71380615100001,
    "lon": -135.071649853,
    "communications": [
      {
        "type": 50,
        "frequency": 12525,
        "name": "ATIS"
      },
      {
        "type": 54,
        "frequency": 11830,
        "name": "TWR"
      },
      {
        "type": 53,
        "frequency": 12190,
        "name": "GND"
      },
      {
        "type": 56,
        "frequency": 13415,
        "name": "APP/DEP"
      },
      {
        "type": 51,
        "frequency": 11830,
        "name": "MANDATORY FREQ"
      }
    ],
    "elevation": 2316,
    "tower": true,
    "name": "WHITEHORSE INTL",
    "runways": [
      {
        "type": 100,
        "width": 45.72,
        "surfaceType": null,
        "numberStart": "13R",
        "numberEnd": "31L",
        "latStart": 60.72169044,
        "lonStart": -135.07668543,
        "latEnd": 60.69739613,
        "lonEnd": -135.05785907,
        "length": 0,
        "surfacetype": 1
      },
      {
        "type": 100,
        "width": 24.38,
        "surfaceType": null,
        "numberStart": "13L",
        "numberEnd": "31R",
        "latStart": 60.71846397,
        "lonStart": -135.07034204,
        "latEnd": 60.7082349,
        "lonEnd": -135.06237987,
        "length": 0,
        "surfacetype": 1
      },
      {
        "type": 100,
        "width": 22.86,
        "surfaceType": null,
        "numberStart": "01",
        "numberEnd": "19",
        "latStart": 60.7112142,
        "lonStart": -135.07281174,
        "latEnd": 60.71598295,
        "lonEnd": -135.06614607,
        "length": 0,
        "surfacetype": 1
      },
      {
        "type": 102,
        "width": 15.2,
        "surfaceType": 2,
        "numberStart": "H1",
        "numberEnd": null,
        "latStart": 60.71723068,
        "lonStart": -135.07831374,
        "latEnd": null,
        "lonEnd": null,
        "length": 15.2
      },
      {
        "type": 102,
        "width": 15.2,
        "surfaceType": 2,
        "numberStart": "H2",
        "numberEnd": null,
        "latStart": 60.71754841,
        "lonStart": -135.07876268,
        "latEnd": null,
        "lonEnd": null,
        "length": 15.2
      },
      {
        "type": 102,
        "width": 15.2,
        "surfaceType": 2,
        "numberStart": "H3",
        "numberEnd": null,
        "latStart": 60.71747554,
        "lonStart": -135.07917786,
        "latEnd": null,
        "lonEnd": null,
        "length": 15.2
      },
      {
        "type": 102,
        "width": 12.2,
        "surfaceType": 2,
        "numberStart": "H4",
        "numberEnd": null,
        "latStart": 60.71282429,
        "lonStart": -135.07402003,
        "latEnd": null,
        "lonEnd": null,
        "length": 12.2
      }
    ],
    "id": 26625
  }
]