[
  {
    "type": 1,
    "icao": "WBGP",
    "lat": 2.010773855,
    "lon": 57.46975533,
    "communications": [],
    "elevation": 63,
    "tower": false,
    "name": "Kapit",
    "runways": [
      {
        "type": 100,
        "width": 17.07,
        "surfaceType": null,
        "numberStart": "16",
        "numberEnd": "34",
        "latStart": 2.01291068,
        "lonStart": 112.93087363,
        "latEnd": 2.00863703,
        "lonEnd": 112.93199612,
        "length": 0,
        "surfacetype": 1
      }
    ],
    "id": 13603
  },
  {
    "type": 1,
    "icao": "WBGK",
    "lat": 2.90711065,
    "lon": 57.489774085,
    "communications": [],
    "elevation": 15,
    "tower": false,
    "name": "Mukah",
    "runways": [
      {
        "type": 100,
        "width": 28.04,
        "surfaceType": null,
        "numberStart": "8",
        "numberEnd": "26",
        "latStart": 2.90593454,
        "lonStart": 112.07126141,
        "latEnd": 2.90828676,
        "lonEnd": 112.08456132,
        "length": 0,
        "surfacetype": 1
      }
    ],
    "id": 17688
  },
  {
    "type": 1,
    "icao": "WBGS",
    "lat": 2.261603,
    "lon": 57.1147155,
    "communications": [
      {
        "type": 50,
        "frequency": 12765,
        "name": "ATIS"
      },
      {
        "type": 53,
        "frequency": 12190,
        "name": "GND"
      },
      {
        "type": 54,
        "frequency": 12320,
        "name": "TWR"
      },
      {
        "type": 54,
        "frequency": 12260,
        "name": "TWR"
      },
      {
        "type": 55,
        "frequency": 12260,
        "name": "APP"
      },
      {
        "type": 55,
        "frequency": 12320,
        "name": "APP"
      }
    ],
    "elevation": 122,
    "tower": true,
    "name": "Sibu",
    "runways": [
      {
        "type": 100,
        "width": 45.11,
        "surfaceType": null,
        "numberStart": "13",
        "numberEnd": "31",
        "latStart": 2.26965,
        "lonStart": 111.975875,
        "latEnd": 2.253556,
        "lonEnd": 111.994772,
        "length": 0,
        "surfacetype": 1
      }
    ],
    "id": 23475
  }
]