[
  {
    "type": 1,
    "icao": "U03",
    "lat": 42.5915275,
    "lon": -36.1069445,
    "communications": [
      {
        "type": 51,
        "frequency": 12290,
        "name": "CTAF"
      }
    ],
    "elevation": 3660,
    "tower": false,
    "name": "BUHL MUNI",
    "runways": [
      {
        "type": 100,
        "width": 18.29,
        "surfaceType": null,
        "numberStart": "09",
        "numberEnd": "27",
        "latStart": 42.593333,
        "lonStart": -114.803611,
        "latEnd": 42.589722,
        "lonEnd": -114.79,
        "length": 0,
        "surfacetype": 1
      }
    ],
    "id": 1964
  },
  {
    "type": 1,
    "icao": "U89",
    "lat": 42.9456945,
    "lon": -36.195277499999996,
    "communications": [
      {
        "type": 51,
        "frequency": 12290,
        "name": "CTAF"
      }
    ],
    "elevation": 2536,
    "tower": false,
    "name": "GLENNS FERRY MUNI",
    "runways": [
      {
        "type": 100,
        "width": 18.29,
        "surfaceType": null,
        "numberStart": "08",
        "numberEnd": "26",
        "latStart": 42.946111,
        "lonStart": -115.335833,
        "latEnd": 42.945278,
        "lonEnd": -115.324444,
        "length": 0,
        "surfacetype": 1
      }
    ],
    "id": 10032
  },
  {
    "type": 1,
    "icao": "U91",
    "lat": 42.36656583,
    "lon": -36.76041161,
    "communications": [],
    "elevation": 5134,
    "tower": false,
    "name": "Grasmere",
    "runways": [
      {
        "type": 100,
        "width": 45.72,
        "surfaceType": null,
        "numberStart": "05",
        "numberEnd": "23",
        "latStart": 42.36503178,
        "lonStart": -115.8889231,
        "latEnd": 42.36809988,
        "lonEnd": -115.87959636,
        "length": 0,
        "surfacetype": 3
      }
    ],
    "id": 10714
  },
  {
    "type": 1,
    "icao": "KTWF",
    "lat": 42.4825,
    "lon": -36.00881875,
    "communications": [
      {
        "type": 50,
        "frequency": 13502,
        "name": "ASOS"
      },
      {
        "type": 51,
        "frequency": 11820,
        "name": "CTAF"
      },
      {
        "type": 51,
        "frequency": 12295,
        "name": "UNICOM"
      },
      {
        "type": 53,
        "frequency": 12170,
        "name": "TWIN FALLS GND"
      },
      {
        "type": 54,
        "frequency": 11820,
        "name": "TWIN FALLS TWR"
      },
      {
        "type": 55,
        "frequency": 12670,
        "name": "TWIN FALLS APP/DEP"
      }
    ],
    "elevation": 4151,
    "tower": true,
    "name": "JOSLIN FLD MAGIC VALLEY RGNL",
    "runways": [
      {
        "type": 100,
        "width": 45.72,
        "surfaceType": null,
        "numberStart": "07",
        "numberEnd": "25",
        "latStart": 42.481256,
        "lonStart": -114.503219,
        "latEnd": 42.480711,
        "lonEnd": -114.470975,
        "length": 0,
        "surfacetype": 1
      },
      {
        "type": 100,
        "width": 22.86,
        "surfaceType": null,
        "numberStart": "12",
        "numberEnd": "30",
        "latStart": 42.487211,
        "lonStart": -114.493589,
        "latEnd": 42.480822,
        "lonEnd": -114.485331,
        "length": 0,
        "surfacetype": 1
      }
    ],
    "id": 12809
  },
  {
    "type": 1,
    "icao": "3U0",
    "lat": 42.020738609999995,
    "lon": -36.65771941,
    "communications": [],
    "elevation": 5829,
    "tower": false,
    "name": "Murphy Hot Springs",
    "runways": [
      {
        "type": 100,
        "width": 36.58,
        "surfaceType": null,
        "numberStart": "01",
        "numberEnd": "19",
        "latStart": 42.014267,
        "lonStart": -115.34264904,
        "latEnd": 42.02721022,
        "lonEnd": -115.33415152,
        "length": 0,
        "surfacetype": 3
      }
    ],
    "id": 17741
  },
  {
    "type": 1,
    "icao": "ID39",
    "lat": 42.79573055,
    "lon": -36.470871415000005,
    "communications": [],
    "elevation": 2620,
    "tower": false,
    "name": "Owen Ranches Inc",
    "runways": [
      {
        "type": 100,
        "width": 30.48,
        "surfaceType": null,
        "numberStart": "09",
        "numberEnd": "27",
        "latStart": 42.79637213,
        "lonStart": -115.7368318,
        "latEnd": 42.79508897,
        "lonEnd": -115.7311121,
        "length": 0,
        "surfacetype": 3
      }
    ],
    "id": 19121
  },
  {
    "type": 1,
    "icao": "2U2",
    "lat": 42.185454160000006,
    "lon": -36.964577729999995,
    "communications": [],
    "elevation": 5356,
    "tower": false,
    "name": "Riddle",
    "runways": [
      {
        "type": 100,
        "width": 53.34,
        "surfaceType": null,
        "numberStart": "03",
        "numberEnd": "21",
        "latStart": 42.18250074,
        "lonStart": -116.11756304,
        "latEnd": 42.18840758,
        "lonEnd": -116.10930808,
        "length": 0,
        "surfacetype": 3
      }
    ],
    "id": 21463
  }
]