[
  {
    "type": 1,
    "icao": "CL25",
    "lat": 34.93552916,
    "lon": -119.45178695,
    "communications": [],
    "elevation": 3175,
    "tower": false,
    "name": "7R Ranch",
    "runways": [
      {
        "type": 100,
        "width": 12.19,
        "surfaceType": null,
        "numberStart": "11",
        "numberEnd": "29",
        "latStart": 34.93733144,
        "lonStart": -119.45504628,
        "latEnd": 34.93372688,
        "lonEnd": -119.44852762,
        "length": 0,
        "surfacetype": 3
      }
    ],
    "id": 19
  },
  {
    "type": 1,
    "icao": "KCMA",
    "lat": 34.213744985000005,
    "lon": -119.09383632000001,
    "communications": [
      {
        "type": 50,
        "frequency": 12602,
        "name": "ATIS"
      },
      {
        "type": 51,
        "frequency": 12820,
        "name": "CTAF"
      },
      {
        "type": 52,
        "frequency": 12075,
        "name": "CLNC DEL"
      },
      {
        "type": 52,
        "frequency": 12180,
        "name": "CLNC DEL"
      },
      {
        "type": 53,
        "frequency": 12180,
        "name": "GND"
      },
      {
        "type": 54,
        "frequency": 12820,
        "name": "TWR"
      },
      {
        "type": 55,
        "frequency": 12470,
        "name": "PT MUGU APP/DEP"
      }
    ],
    "elevation": 77,
    "tower": true,
    "name": "CAMARILLO",
    "runways": [
      {
        "type": 100,
        "width": 46.02,
        "surfaceType": null,
        "numberStart": "08",
        "numberEnd": "26",
        "latStart": 34.21382572,
        "lonStart": -119.10380841,
        "latEnd": 34.21366425,
        "lonEnd": -119.08386423,
        "length": 0,
        "surfacetype": 1
      }
    ],
    "id": 3564
  },
  {
    "type": 1,
    "icao": "CA97",
    "lat": 34.01972611,
    "lon": -119.85290667000001,
    "communications": [],
    "elevation": 250,
    "tower": false,
    "name": "Christy Airstrip",
    "runways": [
      {
        "type": 100,
        "width": 15.24,
        "surfaceType": null,
        "numberStart": "09",
        "numberEnd": "27",
        "latStart": 34.02055758,
        "lonStart": -119.85693018,
        "latEnd": 34.01889464,
        "lonEnd": -119.84888316,
        "length": 0,
        "surfacetype": 3
      }
    ],
    "id": 4972
  },
  {
    "type": 1,
    "icao": "02CL",
    "lat": 34.75841018375,
    "lon": -119.06314492,
    "communications": [],
    "elevation": 5160,
    "tower": false,
    "name": "Conover Air Lodge",
    "runways": [
      {
        "type": 100,
        "width": 15,
        "surfaceType": null,
        "numberStart": "01",
        "numberEnd": "19",
        "latStart": 34.75520152,
        "lonStart": -119.06591579,
        "latEnd": 34.76073563,
        "lonEnd": -119.06523904,
        "length": 0,
        "surfacetype": 4
      },
      {
        "type": 100,
        "width": 17,
        "surfaceType": null,
        "numberStart": "05",
        "numberEnd": "23",
        "latStart": 34.75461142,
        "lonStart": -119.06711218,
        "latEnd": 34.7588547,
        "lonEnd": -119.06078647,
        "length": 0,
        "surfacetype": 4
      },
      {
        "type": 100,
        "width": 15,
        "surfaceType": null,
        "numberStart": "04",
        "numberEnd": "22",
        "latStart": 34.75470361,
        "lonStart": -119.06731663,
        "latEnd": 34.76046265,
        "lonEnd": -119.061098,
        "length": 0,
        "surfacetype": 4
      },
      {
        "type": 100,
        "width": 17,
        "surfaceType": null,
        "numberStart": "16",
        "numberEnd": "34",
        "latStart": 34.76519957,
        "lonStart": -119.05875117,
        "latEnd": 34.75751237,
        "lonEnd": -119.05894008,
        "length": 0,
        "surfacetype": 4
      }
    ],
    "id": 5269
  },
  {
    "type": 1,
    "icao": "3CA3",
    "lat": 34.92219694,
    "lon": -119.52595722999999,
    "communications": [],
    "elevation": 2440,
    "tower": false,
    "name": "Dixon",
    "runways": [
      {
        "type": 100,
        "width": 15.24,
        "surfaceType": null,
        "numberStart": "17",
        "numberEnd": "35",
        "latStart": 34.92574045,
        "lonStart": -119.52565503,
        "latEnd": 34.91865343,
        "lonEnd": -119.52625943,
        "length": 0,
        "surfacetype": 4
      }
    ],
    "id": 6320
  },
  {
    "type": 1,
    "icao": "L88",
    "lat": 34.939954745,
    "lon": -119.685617555,
    "communications": [
      {
        "type": 51,
        "frequency": 12290,
        "name": "CTAF"
      }
    ],
    "elevation": 2203,
    "tower": false,
    "name": "NEW CUYAMA",
    "runways": [
      {
        "type": 100,
        "width": 18.29,
        "surfaceType": null,
        "numberStart": "10",
        "numberEnd": "28",
        "latStart": 34.94238449,
        "lonStart": -119.69156403,
        "latEnd": 34.937525,
        "lonEnd": -119.67967108,
        "length": 0,
        "surfacetype": 1
      }
    ],
    "id": 17907
  },
  {
    "type": 1,
    "icao": "KOXR",
    "lat": 34.200805020000004,
    "lon": -119.20722563999999,
    "communications": [
      {
        "type": 50,
        "frequency": 11805,
        "name": "ATIS"
      },
      {
        "type": 51,
        "frequency": 13495,
        "name": "CTAF"
      },
      {
        "type": 53,
        "frequency": 12190,
        "name": "GND"
      },
      {
        "type": 54,
        "frequency": 13495,
        "name": "TWR"
      },
      {
        "type": 55,
        "frequency": 12470,
        "name": "PT MUGU APP/DEP"
      }
    ],
    "elevation": 42,
    "tower": true,
    "name": "Oxnard",
    "runways": [
      {
        "type": 100,
        "width": 33.53,
        "surfaceType": null,
        "numberStart": "07",
        "numberEnd": "25",
        "latStart": 34.20087367,
        "lonStart": -119.2171011,
        "latEnd": 34.20073637,
        "lonEnd": -119.19735018,
        "length": 0,
        "surfacetype": 1
      }
    ],
    "id": 19140
  },
  {
    "type": 1,
    "icao": "KNTD",
    "lat": 34.11919852,
    "lon": -119.1145151075,
    "communications": [
      {
        "type": 53,
        "frequency": 12160,
        "name": "point mugu ground"
      },
      {
        "type": 54,
        "frequency": 12485,
        "name": "point mugu tower"
      },
      {
        "type": 54,
        "frequency": 13517,
        "name": "point mugu tower"
      },
      {
        "type": 55,
        "frequency": 12865,
        "name": "point mugu approach"
      }
    ],
    "elevation": 13,
    "tower": true,
    "name": "Point Mugu",
    "runways": [
      {
        "type": 100,
        "width": 60.96,
        "surfaceType": null,
        "numberStart": "03",
        "numberEnd": "21",
        "latStart": 34.10844442,
        "lonStart": -119.13079689,
        "latEnd": 34.13036103,
        "lonEnd": -119.10522397,
        "length": 0,
        "surfacetype": 1
      },
      {
        "type": 100,
        "width": 60.96,
        "surfaceType": null,
        "numberStart": "09",
        "numberEnd": "27",
        "latStart": 34.1209473,
        "lonStart": -119.11982387,
        "latEnd": 34.11704133,
        "lonEnd": -119.1022157,
        "length": 0,
        "surfacetype": 1
      }
    ],
    "id": 20305
  },
  {
    "type": 1,
    "icao": "KSBA",
    "lat": 34.427506684444445,
    "lon": -119.83899708444444,
    "communications": [
      {
        "type": 50,
        "frequency": 13265,
        "name": "KSBA ATIS"
      },
      {
        "type": 51,
        "frequency": 11970,
        "name": "SANTA BARBARA CTAF"
      },
      {
        "type": 52,
        "frequency": 13290,
        "name": "SANTA BARBARA CLD"
      },
      {
        "type": 53,
        "frequency": 12170,
        "name": "SANTA BARBARA GND"
      },
      {
        "type": 54,
        "frequency": 11970,
        "name": "SANTA BARBARA TWR"
      }
    ],
    "elevation": 13,
    "tower": true,
    "name": "Santa Barbara Mun",
    "runways": [
      {
        "type": 100,
        "width": 46.02,
        "surfaceType": null,
        "numberStart": "07",
        "numberEnd": "25",
        "latStart": 34.42723788,
        "lonStart": -119.85469996,
        "latEnd": 34.42765788,
        "lonEnd": -119.83461596,
        "length": 0,
        "surfacetype": 1
      },
      {
        "type": 100,
        "width": 29.87,
        "surfaceType": null,
        "numberStart": "15R",
        "numberEnd": "33L",
        "latStart": 34.43026514,
        "lonStart": -119.84156189,
        "latEnd": 34.41914914,
        "lonEnd": -119.83812989,
        "length": 0,
        "surfacetype": 1
      },
      {
        "type": 100,
        "width": 22.86,
        "surfaceType": null,
        "numberStart": "15L",
        "numberEnd": "33R",
        "latStart": 34.43050419,
        "lonStart": -119.84040322,
        "latEnd": 34.41939819,
        "lonEnd": -119.83697522,
        "length": 0,
        "surfacetype": 1
      },
      {
        "type": 102,
        "width": 15.1,
        "surfaceType": 2,
        "numberStart": "H1",
        "numberEnd": null,
        "latStart": 34.43086982,
        "lonStart": -119.83485477,
        "latEnd": null,
        "lonEnd": null,
        "length": 15.3
      },
      {
        "type": 102,
        "width": 15.1,
        "surfaceType": 2,
        "numberStart": "H2",
        "numberEnd": null,
        "latStart": 34.43111619,
        "lonStart": -119.83486246,
        "latEnd": null,
        "lonEnd": null,
        "length": 15.3
      },
      {
        "type": 102,
        "width": 14.8,
        "surfaceType": 2,
        "numberStart": "H3",
        "numberEnd": null,
        "latStart": 34.43136173,
        "lonStart": -119.83487039,
        "latEnd": null,
        "lonEnd": null,
        "length": 14.9
      }
    ],
    "id": 22885
  },
  {
    "type": 1,
    "icao": "KSZN",
    "lat": 34.06055833,
    "lon": -119.91513001000001,
    "communications": [],
    "elevation": 50,
    "tower": false,
    "name": "Santa Cruz Island",
    "runways": [
      {
        "type": 100,
        "width": 15.24,
        "surfaceType": null,
        "numberStart": "09",
        "numberEnd": "27",
        "latStart": 34.06127169,
        "lonStart": -119.9185836,
        "latEnd": 34.05984497,
        "lonEnd": -119.91167642,
        "length": 0,
        "surfacetype": 4
      }
    ],
    "id": 22891
  },
  {
    "type": 1,
    "icao": "KSZP",
    "lat": 34.346929063333334,
    "lon": -119.06140461333332,
    "communications": [],
    "elevation": 245,
    "tower": false,
    "name": "Santa Paula",
    "runways": [
      {
        "type": 100,
        "width": 18.29,
        "surfaceType": null,
        "numberStart": "04",
        "numberEnd": "22",
        "latStart": 34.34496963,
        "lonStart": -119.06545107,
        "latEnd": 34.34897659,
        "lonEnd": -119.05788017,
        "length": 0,
        "surfacetype": 1
      },
      {
        "type": 102,
        "width": 20.7,
        "surfaceType": 1,
        "numberStart": "H1",
        "numberEnd": null,
        "latStart": 34.34684097,
        "lonStart": -119.0608826,
        "latEnd": null,
        "lonEnd": null,
        "length": 21.7
      }
    ],
    "id": 22917
  },
  {
    "type": 17,
    "icao": "CA72",
    "lat": 34.27472222,
    "lon": -119.25694445,
    "communications": [],
    "elevation": 173,
    "tower": false,
    "name": "[H] Community Memorial Hospital",
    "runways": [
      {
        "type": 102,
        "width": 23.5,
        "surfaceType": 2,
        "numberStart": "H1",
        "numberEnd": null,
        "latStart": 34.27472222,
        "lonStart": -119.25694445,
        "latEnd": null,
        "lonEnd": null,
        "length": 29.3
      }
    ],
    "id": 29091
  },
  {
    "type": 17,
    "icao": "13L",
    "lat": 34.43027222,
    "lon": -119.91208362,
    "communications": [],
    "elevation": 15,
    "tower": false,
    "name": "[H] Elwood Onshore Facility",
    "runways": [
      {
        "type": 102,
        "width": 10.7,
        "surfaceType": 1,
        "numberStart": "H1",
        "numberEnd": null,
        "latStart": 34.43027222,
        "lonStart": -119.91208362,
        "latEnd": null,
        "lonEnd": null,
        "length": 10.7
      }
    ],
    "id": 29535
  },
  {
    "type": 17,
    "icao": "CA96",
    "lat": 34.4336075,
    "lon": -119.80958278,
    "communications": [],
    "elevation": 43,
    "tower": false,
    "name": "[H] Goleta Valley Community Hospital",
    "runways": [
      {
        "type": 102,
        "width": 12.8,
        "surfaceType": 2,
        "numberStart": "H1",
        "numberEnd": null,
        "latStart": 34.4336075,
        "lonStart": -119.80958278,
        "latEnd": null,
        "lonEnd": null,
        "length": 12.8
      }
    ],
    "id": 29956
  },
  {
    "type": 17,
    "icao": "8CA7",
    "lat": 34.33305222,
    "lon": -119.56123556,
    "communications": [],
    "elevation": 110,
    "tower": false,
    "name": "[H] Platform Henry",
    "runways": [
      {
        "type": 102,
        "width": 16.8,
        "surfaceType": 1,
        "numberStart": "H1",
        "numberEnd": null,
        "latStart": 34.33305222,
        "lonStart": -119.56123556,
        "latEnd": null,
        "lonEnd": null,
        "length": 17.7
      }
    ],
    "id": 32053
  },
  {
    "type": 17,
    "icao": "6L8",
    "lat": 34.33110833,
    "lon": -119.60429306,
    "communications": [],
    "elevation": 98,
    "tower": false,
    "name": "[H] Platform Hillhouse",
    "runways": [
      {
        "type": 102,
        "width": 12.2,
        "surfaceType": 1,
        "numberStart": "H1",
        "numberEnd": null,
        "latStart": 34.33110833,
        "lonStart": -119.60429306,
        "latEnd": null,
        "lonEnd": null,
        "length": 12.2
      }
    ],
    "id": 32055
  },
  {
    "type": 17,
    "icao": "9L5",
    "lat": 34.3897175,
    "lon": -119.90597139,
    "communications": [],
    "elevation": 86,
    "tower": false,
    "name": "[H] Platform Holly",
    "runways": [
      {
        "type": 102,
        "width": 13.7,
        "surfaceType": 1,
        "numberStart": "H1",
        "numberEnd": null,
        "latStart": 34.3897175,
        "lonStart": -119.90597139,
        "latEnd": null,
        "lonEnd": null,
        "length": 13.7
      }
    ],
    "id": 32056
  },
  {
    "type": 17,
    "icao": "CL73",
    "lat": 34.20222666,
    "lon": -119.20288528,
    "communications": [],
    "elevation": 41,
    "tower": false,
    "name": "[H] Rotor-Aids Maintenance Hangar",
    "runways": [
      {
        "type": 102,
        "width": 19.8,
        "surfaceType": 1,
        "numberStart": "H1",
        "numberEnd": null,
        "latStart": 34.20222666,
        "lonStart": -119.20288528,
        "latEnd": null,
        "lonEnd": null,
        "length": 19.8
      }
    ],
    "id": 32431
  },
  {
    "type": 17,
    "icao": "3CL9",
    "lat": 34.28805555,
    "lon": -119.16899445,
    "communications": [],
    "elevation": 271,
    "tower": false,
    "name": "[H] Sce Northern Division",
    "runways": [
      {
        "type": 102,
        "width": 9.1,
        "surfaceType": 1,
        "numberStart": "H1",
        "numberEnd": null,
        "latStart": 34.28805555,
        "lonStart": -119.16899445,
        "latEnd": null,
        "lonEnd": null,
        "length": 9.1
      }
    ],
    "id": 32586
  },
  {
    "type": 17,
    "icao": "2CL6",
    "lat": 34.21667138,
    "lon": -119.15788417,
    "communications": [],
    "elevation": 76,
    "tower": false,
    "name": "[H] St Johns Regional Medical Center",
    "runways": [
      {
        "type": 102,
        "width": 18.3,
        "surfaceType": 2,
        "numberStart": "H1",
        "numberEnd": null,
        "latStart": 34.21667138,
        "lonStart": -119.15788417,
        "latEnd": null,
        "lonEnd": null,
        "length": 18.3
      }
    ],
    "id": 32909
  },
  {
    "type": 17,
    "icao": "49CA",
    "lat": 34.28666472,
    "lon": -119.58901417,
    "communications": [],
    "elevation": 88,
    "tower": false,
    "name": "[H] Texaco Platform Habitat",
    "runways": [
      {
        "type": 102,
        "width": 14.6,
        "surfaceType": 1,
        "numberStart": "H1",
        "numberEnd": null,
        "latStart": 34.28666472,
        "lonStart": -119.58901417,
        "latEnd": null,
        "lonEnd": null,
        "length": 14.6
      }
    ],
    "id": 33266
  }
]