[
  {
    "type": 1,
    "icao": "LEJU",
    "lat": 37.295397405,
    "lon": 15.56358301,
    "communications": [],
    "elevation": 482,
    "tower": false,
    "name": "LA JULIANA",
    "runways": [
      {
        "type": 100,
        "width": 17,
        "surfaceType": null,
        "numberStart": "09",
        "numberEnd": "27",
        "latStart": 37.29534293,
        "lonStart": -6.16828586,
        "latEnd": 37.29545188,
        "lonEnd": -6.15828256,
        "length": 0,
        "surfacetype": 1
      }
    ],
    "id": 14271
  },
  {
    "type": 1,
    "icao": "LEMO",
    "lat": 37.174890000000005,
    "lon": 15.783587945,
    "communications": [
      {
        "type": 54,
        "frequency": 12210,
        "name": "TWR"
      },
      {
        "type": 55,
        "frequency": 12000,
        "name": "SEVILLA APP"
      },
      {
        "type": 55,
        "frequency": 12080,
        "name": "SEVILLA APP"
      },
      {
        "type": 55,
        "frequency": 12850,
        "name": "SEVILLA APP"
      }
    ],
    "elevation": 285,
    "tower": true,
    "name": "MORON AB",
    "runways": [
      {
        "type": 100,
        "width": 60.96,
        "surfaceType": null,
        "numberStart": "02",
        "numberEnd": "20",
        "latStart": 37.159647,
        "lonStart": -5.62295711,
        "latEnd": 37.190133,
        "lonEnd": -5.60913574,
        "length": 0,
        "surfacetype": 1
      }
    ],
    "id": 16264
  },
  {
    "type": 1,
    "icao": "LEZL",
    "lat": 37.417938985,
    "lon": 15.752968435000001,
    "communications": [
      {
        "type": 54,
        "frequency": 11810,
        "name": "Seville Tower"
      },
      {
        "type": 53,
        "frequency": 12170,
        "name": "Seville Ground"
      },
      {
        "type": 55,
        "frequency": 12000,
        "name": "Seville Approach"
      },
      {
        "type": 55,
        "frequency": 12850,
        "name": "Seville Approach"
      },
      {
        "type": 55,
        "frequency": 12080,
        "name": "Seville Approach"
      },
      {
        "type": 50,
        "frequency": 11817,
        "name": "ATIS"
      }
    ],
    "elevation": 110,
    "tower": true,
    "name": "SEVILLA SAN PABLO",
    "runways": [
      {
        "type": 100,
        "width": 45,
        "surfaceType": null,
        "numberStart": "09",
        "numberEnd": "27",
        "latStart": 37.41787038,
        "lonStart": -5.91207072,
        "latEnd": 37.41800759,
        "lonEnd": -5.87399959,
        "length": 0,
        "surfacetype": 1
      }
    ],
    "id": 22175
  },
  {
    "type": 1,
    "icao": "LE85",
    "lat": 37.35180178,
    "lon": 15.664355835,
    "communications": [
      {
        "type": 54,
        "frequency": 12660,
        "name": "TWR"
      }
    ],
    "elevation": 25,
    "tower": true,
    "name": "TABLADA",
    "runways": [
      {
        "type": 100,
        "width": 44.34,
        "surfaceType": null,
        "numberStart": "18",
        "numberEnd": "36",
        "latStart": 37.3599032,
        "lonStart": -6.01498869,
        "latEnd": 37.34370036,
        "lonEnd": -6.01452984,
        "length": 0,
        "surfacetype": 2
      }
    ],
    "id": 24527
  }
]