[
  {
    "type": 1,
    "icao": "LFRN",
    "lat": 48.0684682,
    "lon": 18.1830814,
    "communications": [
      {
        "type": 50,
        "frequency": 13640,
        "name": "LFRN ATIS"
      },
      {
        "type": 51,
        "frequency": 12050,
        "name": "RENNES MULT"
      },
      {
        "type": 53,
        "frequency": 12172,
        "name": "RENNES GND"
      },
      {
        "type": 54,
        "frequency": 12050,
        "name": "RENNES TWR"
      },
      {
        "type": 55,
        "frequency": 13400,
        "name": "RENNES APP"
      },
      {
        "type": 55,
        "frequency": 12490,
        "name": "RENNES APP"
      }
    ],
    "elevation": 124,
    "tower": true,
    "name": "Rennes St Jacques",
    "runways": [
      {
        "type": 100,
        "width": 29.87,
        "surfaceType": null,
        "numberStart": "14",
        "numberEnd": "32",
        "latStart": 48.069911,
        "lonStart": -1.740498,
        "latEnd": 48.063881,
        "lonEnd": -1.733498,
        "length": 0,
        "surfacetype": 1
      },
      {
        "type": 100,
        "width": 45.11,
        "surfaceType": null,
        "numberStart": "10",
        "numberEnd": "28",
        "latStart": 48.073689,
        "lonStart": -1.746064,
        "latEnd": 48.070159,
        "lonEnd": -1.718286,
        "length": 0,
        "surfacetype": 1
      },
      {
        "type": 102,
        "width": 34.1,
        "surfaceType": 2,
        "numberStart": "H1",
        "numberEnd": null,
        "latStart": 48.064701,
        "lonStart": -1.732071,
        "latEnd": null,
        "lonEnd": null,
        "length": 34.1
      }
    ],
    "id": 21361
  }
]