[
  {
    "type": 1,
    "icao": "GCLP",
    "lat": 27.931550615,
    "lon": 6.2766223875,
    "communications": [
      {
        "type": 54,
        "frequency": 11830,
        "name": "GCLP TWR"
      },
      {
        "type": 55,
        "frequency": 12430,
        "name": "GCLP APP"
      },
      {
        "type": 55,
        "frequency": 12365,
        "name": "GCLP APP"
      },
      {
        "type": 55,
        "frequency": 12130,
        "name": "GCLP APP"
      }
    ],
    "elevation": 77,
    "tower": true,
    "name": "Gran Canaria",
    "runways": [
      {
        "type": 100,
        "width": 45.11,
        "surfaceType": null,
        "numberStart": "03L",
        "numberEnd": "21R",
        "latStart": 27.91881859,
        "lonStart": -15.39236624,
        "latEnd": 27.94500214,
        "lonEnd": -15.38079089,
        "length": 0,
        "surfacetype": 1
      },
      {
        "type": 100,
        "width": 45.11,
        "surfaceType": null,
        "numberStart": "03R",
        "numberEnd": "21L",
        "latStart": 27.9181594,
        "lonStart": -15.39036868,
        "latEnd": 27.94422233,
        "lonEnd": -15.37882399,
        "length": 0,
        "surfacetype": 1
      }
    ],
    "id": 10677
  },
  {
    "type": 1,
    "icao": "GMML",
    "lat": 27.14365,
    "lon": 6.96182,
    "communications": [
      {
        "type": 54,
        "frequency": 13110,
        "name": "LAAYOUNE TWR"
      },
      {
        "type": 55,
        "frequency": 12750,
        "name": "LAAYOUNE APP"
      }
    ],
    "elevation": 207,
    "tower": true,
    "name": "HASSAN I",
    "runways": [
      {
        "type": 100,
        "width": 45.11,
        "surfaceType": null,
        "numberStart": "02",
        "numberEnd": "20",
        "latStart": 27.130214,
        "lonStart": -13.235392,
        "latEnd": 27.153583,
        "lonEnd": -13.22765,
        "length": 0,
        "surfacetype": 1
      },
      {
        "type": 100,
        "width": 45.11,
        "surfaceType": null,
        "numberStart": "04",
        "numberEnd": "22",
        "latStart": 27.135806,
        "lonStart": -13.225908,
        "latEnd": 27.154997,
        "lonEnd": -13.212647,
        "length": 0,
        "surfacetype": 1
      }
    ],
    "id": 11044
  }
]