[
  {
    "type": 1,
    "icao": "ENOP",
    "lat": 62.650277,
    "lon": 36.24532066,
    "communications": [
      {
        "type": 51,
        "frequency": 12295,
        "name": "Oppdal UNICOM"
      }
    ],
    "elevation": 1830,
    "tower": false,
    "name": "FAGERHAUG",
    "runways": [
      {
        "type": 100,
        "width": 18.29,
        "surfaceType": null,
        "numberStart": "07",
        "numberEnd": "25",
        "latStart": 62.64884028,
        "lonStart": 9.8389276,
        "latEnd": 62.65171372,
        "lonEnd": 9.8560744,
        "length": 0,
        "surfacetype": 1
      }
    ],
    "id": 7388
  },
  {
    "type": 1,
    "icao": "ENGN",
    "lat": 62.117154,
    "lon": 36.109655,
    "communications": [],
    "elevation": 2263,
    "tower": false,
    "name": "Folldal",
    "runways": [
      {
        "type": 100,
        "width": 20.12,
        "surfaceType": null,
        "numberStart": "10",
        "numberEnd": "28",
        "latStart": 62.115878,
        "lonStart": 10.10088,
        "latEnd": 62.11843,
        "lonEnd": 10.118589,
        "length": 0,
        "surfacetype": 5
      }
    ],
    "id": 9555
  },
  {
    "type": 1,
    "icao": "ENRO",
    "lat": 62.5791445,
    "lon": 36.953357,
    "communications": [
      {
        "type": 54,
        "frequency": 12040,
        "name": "TWR"
      }
    ],
    "elevation": 2054,
    "tower": true,
    "name": "ROROS",
    "runways": [
      {
        "type": 100,
        "width": 39.93,
        "surfaceType": null,
        "numberStart": "14",
        "numberEnd": "32",
        "latStart": 62.584703,
        "lonStart": 11.333128,
        "latEnd": 62.573586,
        "lonEnd": 11.356342,
        "length": 0,
        "surfacetype": 1
      }
    ],
    "id": 21030
  }
]