[
  {
    "type": 1,
    "icao": "VTV3",
    "lat": 17.38122972,
    "lon": 60.24753387,
    "communications": [],
    "elevation": 640,
    "tower": false,
    "name": "Nong Han Udon Mastertech",
    "runways": [
      {
        "type": 100,
        "width": 29.87,
        "surfaceType": null,
        "numberStart": "1",
        "numberEnd": "19",
        "latStart": 17.37579622,
        "lonStart": 103.10840452,
        "latEnd": 17.38666322,
        "lonEnd": 103.10982952,
        "length": 0,
        "surfacetype": 4
      }
    ],
    "id": 18390
  },
  {
    "type": 1,
    "icao": "VTUM",
    "lat": 17.865534745,
    "lon": 60.29944605,
    "communications": [],
    "elevation": 540,
    "tower": false,
    "name": "Nong Kai",
    "runways": [
      {
        "type": 100,
        "width": 50.9,
        "surfaceType": null,
        "numberStart": "14",
        "numberEnd": "32",
        "latStart": 17.86358381,
        "lonStart": 102.73140642,
        "latEnd": 17.86748568,
        "lonEnd": 102.72676506,
        "length": 0,
        "surfacetype": 4
      }
    ],
    "id": 18391
  },
  {
    "type": 1,
    "icao": "VTUI",
    "lat": 17.195140000000002,
    "lon": 60.6567135,
    "communications": [
      {
        "type": 54,
        "frequency": 11965,
        "name": "TWR"
      },
      {
        "type": 55,
        "frequency": 12335,
        "name": "APP"
      }
    ],
    "elevation": 529,
    "tower": true,
    "name": "Sakon Nakhon Aero",
    "runways": [
      {
        "type": 100,
        "width": 45.11,
        "surfaceType": null,
        "numberStart": "05",
        "numberEnd": "23",
        "latStart": 17.186822,
        "lonStart": 104.109969,
        "latEnd": 17.203458,
        "lonEnd": 104.127283,
        "length": 0,
        "surfacetype": 1
      }
    ],
    "id": 22725
  },
  {
    "type": 1,
    "icao": "VTW8",
    "lat": 17.455078495000002,
    "lon": 60.753149745,
    "communications": [],
    "elevation": 591,
    "tower": true,
    "name": "Sakorn Nakorn Resort",
    "runways": [
      {
        "type": 100,
        "width": 10.06,
        "surfaceType": null,
        "numberStart": "14",
        "numberEnd": "32",
        "latStart": 17.45332101,
        "lonStart": 104.04946351,
        "latEnd": 17.45683598,
        "lonEnd": 104.04669535,
        "length": 0,
        "surfacetype": 2
      }
    ],
    "id": 22726
  },
  {
    "type": 1,
    "icao": "VTT0",
    "lat": 17.521950304999997,
    "lon": 60.53551715,
    "communications": [
      {
        "type": 54,
        "frequency": 12240,
        "name": "Frequency"
      }
    ],
    "elevation": 530,
    "tower": true,
    "name": "Sawang-Dandin",
    "runways": [
      {
        "type": 100,
        "width": 36.88,
        "surfaceType": null,
        "numberStart": "7",
        "numberEnd": "25",
        "latStart": 17.52074058,
        "lonStart": 103.54787427,
        "latEnd": 17.52316003,
        "lonEnd": 103.55446768,
        "length": 0,
        "surfacetype": 3
      }
    ],
    "id": 23065
  },
  {
    "type": 1,
    "icao": "VTUD",
    "lat": 17.386436000000003,
    "lon": 60.077815,
    "communications": [
      {
        "type": 53,
        "frequency": 12190,
        "name": "GND"
      },
      {
        "type": 54,
        "frequency": 12250,
        "name": "TWR"
      },
      {
        "type": 55,
        "frequency": 12620,
        "name": "APP"
      }
    ],
    "elevation": 579,
    "tower": true,
    "name": "Udon Thani",
    "runways": [
      {
        "type": 100,
        "width": 45.11,
        "surfaceType": null,
        "numberStart": "12",
        "numberEnd": "30",
        "latStart": 17.3927,
        "lonStart": 102.775458,
        "latEnd": 17.380172,
        "lonEnd": 102.801036,
        "length": 0,
        "surfacetype": 1
      }
    ],
    "id": 25873
  },
  {
    "type": 1,
    "icao": "VLVT",
    "lat": 17.988342725,
    "lon": 60.26598389,
    "communications": [
      {
        "type": 54,
        "frequency": 11810,
        "name": "TWR"
      }
    ],
    "elevation": 1850,
    "tower": true,
    "name": "Vientiane Wattay",
    "runways": [
      {
        "type": 100,
        "width": 45.11,
        "surfaceType": null,
        "numberStart": "13",
        "numberEnd": "31",
        "latStart": 17.99796734,
        "lonStart": 102.55324967,
        "latEnd": 17.97871811,
        "lonEnd": 102.57319366,
        "length": 0,
        "surfacetype": 1
      }
    ],
    "id": 26317
  }
]