[
  {
    "type": 1,
    "icao": "CYGM",
    "lat": 50.627915,
    "lon": -23.214864,
    "communications": [
      {
        "type": 51,
        "frequency": 12215,
        "name": "UNICOM"
      },
      {
        "type": 54,
        "frequency": 12215,
        "name": "MF"
      }
    ],
    "elevation": 753,
    "tower": false,
    "name": "GIMLI INDUSTRIAL PARK",
    "runways": [
      {
        "type": 100,
        "width": 45.72,
        "surfaceType": null,
        "numberStart": "15",
        "numberEnd": "33",
        "latStart": 50.636111,
        "lonStart": -97.049447,
        "latEnd": 50.619719,
        "lonEnd": -97.034722,
        "length": 0,
        "surfacetype": 1
      }
    ],
    "id": 10007
  },
  {
    "type": 1,
    "icao": "CYAV",
    "lat": 50.056504499999996,
    "lon": -23.490416999999997,
    "communications": [
      {
        "type": 50,
        "frequency": 12580,
        "name": "ATIS"
      },
      {
        "type": 51,
        "frequency": 11850,
        "name": "CTAF"
      },
      {
        "type": 53,
        "frequency": 12180,
        "name": "GND"
      },
      {
        "type": 54,
        "frequency": 12070,
        "name": "TWR"
      },
      {
        "type": 54,
        "frequency": 11850,
        "name": "TWR"
      }
    ],
    "elevation": 759,
    "tower": true,
    "name": "WINNIPEG ST ANDREWS",
    "runways": [
      {
        "type": 100,
        "width": 22.86,
        "surfaceType": null,
        "numberStart": "13",
        "numberEnd": "31",
        "latStart": 50.061389,
        "lonStart": -97.035556,
        "latEnd": 50.055833,
        "lonEnd": -97.026111,
        "length": 0,
        "surfacetype": 1
      },
      {
        "type": 100,
        "width": 22.86,
        "surfaceType": null,
        "numberStart": "18",
        "numberEnd": "36",
        "latStart": 50.061389,
        "lonStart": -97.036806,
        "latEnd": 50.053472,
        "lonEnd": -97.038889,
        "length": 0,
        "surfacetype": 1
      },
      {
        "type": 100,
        "width": 22.86,
        "surfaceType": null,
        "numberStart": "04",
        "numberEnd": "22",
        "latStart": 50.050833,
        "lonStart": -97.035556,
        "latEnd": 50.056111,
        "lonEnd": -97.026944,
        "length": 0,
        "surfacetype": 1
      }
    ],
    "id": 26702
  }
]