[
  {
    "type": 1,
    "icao": "ENSN",
    "lat": 59.185027500000004,
    "lon": 34.37824,
    "communications": [
      {
        "type": 54,
        "frequency": 11920,
        "name": "AFIS"
      },
      {
        "type": 55,
        "frequency": 13405,
        "name": "FARRIS APP"
      }
    ],
    "elevation": 463,
    "tower": true,
    "name": "GEITERYGGEN",
    "runways": [
      {
        "type": 100,
        "width": 32,
        "surfaceType": null,
        "numberStart": "01",
        "numberEnd": "19",
        "latStart": 59.178811,
        "lonStart": 9.565236,
        "latEnd": 59.191244,
        "lonEnd": 9.568914,
        "length": 0,
        "surfacetype": 1
      }
    ],
    "id": 9915
  },
  {
    "type": 1,
    "icao": "ENJB",
    "lat": 59.298020895,
    "lon": 34.832013765,
    "communications": [],
    "elevation": 89,
    "tower": false,
    "name": "Jarlsberg",
    "runways": [
      {
        "type": 100,
        "width": 17.98,
        "surfaceType": null,
        "numberStart": "18",
        "numberEnd": "36",
        "latStart": 59.30161271,
        "lonStart": 10.36959845,
        "latEnd": 59.29442908,
        "lonEnd": 10.37035798,
        "length": 0,
        "surfacetype": 1
      }
    ],
    "id": 12918
  },
  {
    "type": 1,
    "icao": "ENLU",
    "lat": 59.2978354,
    "lon": 34.2109515,
    "communications": [],
    "elevation": 190,
    "tower": false,
    "name": "Nome",
    "runways": [
      {
        "type": 100,
        "width": 24.99,
        "surfaceType": null,
        "numberStart": "11",
        "numberEnd": "29",
        "latStart": 59.2992748,
        "lonStart": 9.125507,
        "latEnd": 59.296396,
        "lonEnd": 9.139946,
        "length": 0,
        "surfacetype": 3
      }
    ],
    "id": 18387
  },
  {
    "type": 1,
    "icao": "ENNO",
    "lat": 59.565683500000006,
    "lon": 34.381986500000004,
    "communications": [
      {
        "type": 54,
        "frequency": 11880,
        "name": "INFO"
      }
    ],
    "elevation": 63,
    "tower": true,
    "name": "Notodden",
    "runways": [
      {
        "type": 100,
        "width": 39.93,
        "surfaceType": null,
        "numberStart": "12",
        "numberEnd": "30",
        "latStart": 59.56945,
        "lonStart": 9.202056,
        "latEnd": 59.561917,
        "lonEnd": 9.221725,
        "length": 0,
        "surfacetype": 1
      }
    ],
    "id": 18504
  },
  {
    "type": 1,
    "icao": "ENTO",
    "lat": 59.1866625,
    "lon": 34.7157635,
    "communications": [
      {
        "type": 50,
        "frequency": 11907,
        "name": "ATIS"
      },
      {
        "type": 53,
        "frequency": 12617,
        "name": "GND"
      },
      {
        "type": 54,
        "frequency": 11865,
        "name": "TWR"
      },
      {
        "type": 55,
        "frequency": 13405,
        "name": "FARRIS TCA"
      }
    ],
    "elevation": 286,
    "tower": true,
    "name": "TORP",
    "runways": [
      {
        "type": 100,
        "width": 45.11,
        "surfaceType": null,
        "numberStart": "18",
        "numberEnd": "36",
        "latStart": 59.200117,
        "lonStart": 10.258319,
        "latEnd": 59.173208,
        "lonEnd": 10.258872,
        "length": 0,
        "surfacetype": 1
      }
    ],
    "id": 24802
  },
  {
    "type": 1,
    "icao": "ESCM",
    "lat": 59.89675877599999,
    "lon": 34.510272717999996,
    "communications": [
      {
        "type": 54,
        "frequency": 11920,
        "name": "TWR"
      },
      {
        "type": 55,
        "frequency": 13040,
        "name": "APP"
      },
      {
        "type": 55,
        "frequency": 13420,
        "name": "STOCKHOLM TCA"
      }
    ],
    "elevation": 68,
    "tower": true,
    "name": "Uppsala-C\u0004rna",
    "runways": [
      {
        "type": 100,
        "width": 39.93,
        "surfaceType": null,
        "numberStart": "08",
        "numberEnd": "26",
        "latStart": 59.894776,
        "lonStart": 17.56999777,
        "latEnd": 59.89939,
        "lonEnd": 17.60387,
        "length": 0,
        "surfacetype": 1
      },
      {
        "type": 100,
        "width": 40,
        "surfaceType": null,
        "numberStart": "03",
        "numberEnd": "21",
        "latStart": 59.893129,
        "lonStart": 17.58326699,
        "latEnd": 59.907449,
        "lonEnd": 17.601894,
        "length": 0,
        "surfacetype": 1
      },
      {
        "type": 102,
        "width": 30,
        "surfaceType": 1,
        "numberStart": "H1",
        "numberEnd": null,
        "latStart": 59.88904988,
        "lonStart": 17.59125983,
        "latEnd": null,
        "lonEnd": null,
        "length": 30
      }
    ],
    "id": 25966
  }
]