[
  {
    "type": 1,
    "icao": "LBSF",
    "lat": 42.696411295,
    "lon": 23.41790948,
    "communications": [
      {
        "type": 54,
        "frequency": 11810,
        "name": "Tower"
      },
      {
        "type": 55,
        "frequency": 12370,
        "name": "Approach"
      },
      {
        "type": 56,
        "frequency": 12370,
        "name": "Departure"
      }
    ],
    "elevation": 1742,
    "tower": true,
    "name": "Sofia",
    "runways": [
      {
        "type": 100,
        "width": 45,
        "surfaceType": null,
        "numberStart": "09",
        "numberEnd": "27",
        "latStart": 42.69771828,
        "lonStart": 23.39599695,
        "latEnd": 42.69510431,
        "lonEnd": 23.43982201,
        "length": 0,
        "surfacetype": 1
      }
    ],
    "id": 3460
  },
  {
    "type": 1,
    "icao": "LB20",
    "lat": 42.8124305,
    "lon": 23.2996335,
    "communications": [],
    "elevation": 1738,
    "tower": false,
    "name": "KUMARITSA",
    "runways": [
      {
        "type": 100,
        "width": 53.34,
        "surfaceType": null,
        "numberStart": "09",
        "numberEnd": "27",
        "latStart": 42.813289,
        "lonStart": 23.286225,
        "latEnd": 42.811572,
        "lonEnd": 23.313042,
        "length": 0,
        "surfacetype": 2
      }
    ],
    "id": 20116
  },
  {
    "type": 1,
    "icao": "LB22",
    "lat": 42.311704000000006,
    "lon": 23.246893,
    "communications": [],
    "elevation": 2149,
    "tower": false,
    "name": "STANKE DIMITROV",
    "runways": [
      {
        "type": 100,
        "width": 21.34,
        "surfaceType": null,
        "numberStart": "07",
        "numberEnd": "25",
        "latStart": 42.308089,
        "lonStart": 23.232186,
        "latEnd": 42.315319,
        "lonEnd": 23.2616,
        "length": 0,
        "surfacetype": 1
      }
    ],
    "id": 20118
  },
  {
    "type": 1,
    "icao": "LB37",
    "lat": 42.175706500000004,
    "lon": 23.0508795,
    "communications": [],
    "elevation": 3447,
    "tower": false,
    "name": "STANKE DIMITROV HIGHWAY STRIP",
    "runways": [
      {
        "type": 100,
        "width": 15.24,
        "surfaceType": null,
        "numberStart": "02",
        "numberEnd": "20",
        "latStart": 42.169719,
        "lonStart": 23.047428,
        "latEnd": 42.181694,
        "lonEnd": 23.054331,
        "length": 0,
        "surfacetype": 1
      }
    ],
    "id": 20128
  }
]