[
  {
    "type": 1,
    "icao": "EDWR",
    "lat": 53.5956179,
    "lon": 6.7106573066666675,
    "communications": [
      {
        "type": 54,
        "frequency": 12300,
        "name": "Borkum Info"
      },
      {
        "type": 56,
        "frequency": 12510,
        "name": "Bremen Information"
      }
    ],
    "elevation": 2,
    "tower": true,
    "name": "Borkum",
    "runways": [
      {
        "type": 100,
        "width": 20.12,
        "surfaceType": null,
        "numberStart": "13",
        "numberEnd": "31",
        "latStart": 53.597071,
        "lonStart": 6.710205,
        "latEnd": 53.591305,
        "lonEnd": 6.721804,
        "length": 0,
        "surfacetype": 1
      },
      {
        "type": 100,
        "width": 40.06,
        "surfaceType": null,
        "numberStart": "12",
        "numberEnd": "30",
        "latStart": 53.5973152,
        "lonStart": 6.70177278,
        "latEnd": 53.59368962,
        "lonEnd": 6.71352057,
        "length": 0,
        "surfacetype": 3
      },
      {
        "type": 100,
        "width": 40.07,
        "surfaceType": null,
        "numberStart": "05",
        "numberEnd": "23",
        "latStart": 53.59467073,
        "lonStart": 6.70381076,
        "latEnd": 53.59965585,
        "lonEnd": 6.71283073,
        "length": 0,
        "surfacetype": 3
      }
    ],
    "id": 3018
  },
  {
    "type": 1,
    "icao": "EHDR",
    "lat": 53.118260725,
    "lon": 6.129192645,
    "communications": [
      {
        "type": 54,
        "frequency": 13235,
        "name": "DUTCH MIL INFO"
      }
    ],
    "elevation": 14,
    "tower": true,
    "name": "Drachten",
    "runways": [
      {
        "type": 100,
        "width": 31.09,
        "surfaceType": null,
        "numberStart": "08",
        "numberEnd": "26",
        "latStart": 53.11726285,
        "lonStart": 6.12226696,
        "latEnd": 53.1192586,
        "lonEnd": 6.13611833,
        "length": 0,
        "surfacetype": 1
      }
    ],
    "id": 6470
  },
  {
    "type": 1,
    "icao": "EHGG",
    "lat": 53.121032750000005,
    "lon": 6.57707275,
    "communications": [
      {
        "type": 50,
        "frequency": 13355,
        "name": "ATIS"
      },
      {
        "type": 52,
        "frequency": 12170,
        "name": "DEL"
      },
      {
        "type": 53,
        "frequency": 12170,
        "name": "GND/CLNC DEL"
      },
      {
        "type": 54,
        "frequency": 11870,
        "name": "TWR"
      },
      {
        "type": 55,
        "frequency": 12030,
        "name": "APP"
      }
    ],
    "elevation": 17,
    "tower": true,
    "name": "Eelde",
    "runways": [
      {
        "type": 100,
        "width": 45.11,
        "surfaceType": null,
        "numberStart": "05",
        "numberEnd": "23",
        "latStart": 53.111083,
        "lonStart": 6.560897,
        "latEnd": 53.124956,
        "lonEnd": 6.590267,
        "length": 0,
        "surfacetype": 1
      },
      {
        "type": 100,
        "width": 45.11,
        "surfaceType": null,
        "numberStart": "01",
        "numberEnd": "19",
        "latStart": 53.117386,
        "lonStart": 6.576858,
        "latEnd": 53.130706,
        "lonEnd": 6.580269,
        "length": 0,
        "surfacetype": 1
      }
    ],
    "id": 6988
  }
]