[
  {
    "type": 1,
    "icao": "LJBL",
    "lat": 46.356958685,
    "lon": 14.1738429,
    "communications": [],
    "elevation": 1650,
    "tower": true,
    "name": "Lesce-Bled",
    "runways": [
      {
        "type": 100,
        "width": 30,
        "surfaceType": null,
        "numberStart": "14L",
        "numberEnd": "32R",
        "latStart": 46.35991289,
        "lonStart": 14.17099616,
        "latEnd": 46.35549004,
        "lonEnd": 14.17572109,
        "length": 0,
        "surfacetype": 3
      },
      {
        "type": 100,
        "width": 23,
        "surfaceType": null,
        "numberStart": "14",
        "numberEnd": "32",
        "latStart": 46.360278,
        "lonStart": 14.17,
        "latEnd": 46.35215381,
        "lonEnd": 14.17865435,
        "length": 0,
        "surfacetype": 1
      }
    ],
    "id": 3829
  },
  {
    "type": 1,
    "icao": "LJLJ",
    "lat": 46.22387759,
    "lon": 14.45908643,
    "communications": [
      {
        "type": 50,
        "frequency": 12817,
        "name": "LJUBLJANA ATIS"
      },
      {
        "type": 53,
        "frequency": 12162,
        "name": "LJUBLJANA GROUND"
      },
      {
        "type": 54,
        "frequency": 11800,
        "name": "LJUBLJANA TOWER"
      },
      {
        "type": 54,
        "frequency": 11875,
        "name": "LJUBLJANA TOWER"
      },
      {
        "type": 55,
        "frequency": 13527,
        "name": "LJUBLJANA APP"
      },
      {
        "type": 55,
        "frequency": 13600,
        "name": "LJUBLJANA APP"
      }
    ],
    "elevation": 1272,
    "tower": true,
    "name": "LJUBLJANA Joze Pucnik",
    "runways": [
      {
        "type": 100,
        "width": 45.11,
        "surfaceType": null,
        "numberStart": "12",
        "numberEnd": "30",
        "latStart": 46.232492,
        "lonStart": 14.440392,
        "latEnd": 46.214878,
        "lonEnd": 14.474825,
        "length": 0,
        "surfacetype": 1
      },
      {
        "type": 102,
        "width": 40,
        "surfaceType": 2,
        "numberStart": "H",
        "numberEnd": null,
        "latStart": 46.22426277,
        "lonStart": 14.46204229,
        "latEnd": null,
        "lonEnd": null,
        "length": 40
      }
    ],
    "id": 3831
  },
  {
    "type": 1,
    "icao": "LOKM",
    "lat": 46.974989535000006,
    "lon": 14.371209225000001,
    "communications": [
      {
        "type": 54,
        "frequency": 12285,
        "name": "Mayerhofen Flugplatz"
      }
    ],
    "elevation": 2119,
    "tower": true,
    "name": "Mayerhofen",
    "runways": [
      {
        "type": 100,
        "width": 25,
        "surfaceType": null,
        "numberStart": "08",
        "numberEnd": "26",
        "latStart": 46.97469842,
        "lonStart": 14.36860581,
        "latEnd": 46.97528065,
        "lonEnd": 14.37381264,
        "length": 0,
        "surfacetype": 3
      }
    ],
    "id": 3853
  },
  {
    "type": 1,
    "icao": "LOKF",
    "lat": 46.708,
    "lon": 14.077,
    "communications": [],
    "elevation": 1706,
    "tower": true,
    "name": "Feldkirchen Oss See",
    "runways": [
      {
        "type": 100,
        "width": 29.87,
        "surfaceType": null,
        "numberStart": "02",
        "numberEnd": "20",
        "latStart": 46.70552215,
        "lonStart": 14.0756885,
        "latEnd": 46.71047785,
        "lonEnd": 14.0783115,
        "length": 0,
        "surfacetype": 3
      }
    ],
    "id": 20755
  },
  {
    "type": 1,
    "icao": "LOKG",
    "lat": 46.533,
    "lon": 14.333,
    "communications": [],
    "elevation": 1498,
    "tower": true,
    "name": "Ferlach Glainach",
    "runways": [
      {
        "type": 100,
        "width": 29.87,
        "surfaceType": null,
        "numberStart": "04",
        "numberEnd": "22",
        "latStart": 46.53086358,
        "lonStart": 14.33041117,
        "latEnd": 46.53513642,
        "lonEnd": 14.33558883,
        "length": 0,
        "surfacetype": 3
      }
    ],
    "id": 20756
  },
  {
    "type": 1,
    "icao": "LOKH",
    "lat": 46.928,
    "lon": 14.433,
    "communications": [],
    "elevation": 2019,
    "tower": true,
    "name": "Hirt Friesach",
    "runways": [
      {
        "type": 100,
        "width": 29.87,
        "surfaceType": null,
        "numberStart": "17",
        "numberEnd": "35",
        "latStart": 46.93113049,
        "lonStart": 14.4321662,
        "latEnd": 46.92486951,
        "lonEnd": 14.4338338,
        "length": 0,
        "surfacetype": 3
      }
    ],
    "id": 20757
  },
  {
    "type": 1,
    "icao": "LOKW",
    "lat": 46.818,
    "lon": 14.827,
    "communications": [],
    "elevation": 1459,
    "tower": true,
    "name": "Wolfsberg",
    "runways": [
      {
        "type": 100,
        "width": 29.87,
        "surfaceType": null,
        "numberStart": "01",
        "numberEnd": "19",
        "latStart": 46.81496107,
        "lonStart": 14.82626411,
        "latEnd": 46.82103893,
        "lonEnd": 14.82773589,
        "length": 0,
        "surfacetype": 3
      }
    ],
    "id": 20759
  },
  {
    "type": 1,
    "icao": "LOWK",
    "lat": 46.64483755857143,
    "lon": 14.329473509999998,
    "communications": [
      {
        "type": 50,
        "frequency": 12407,
        "name": "ATIS"
      },
      {
        "type": 54,
        "frequency": 11810,
        "name": "TWR"
      },
      {
        "type": 55,
        "frequency": 12682,
        "name": "APP"
      }
    ],
    "elevation": 1470,
    "tower": true,
    "name": "Klagenfurt Woerthersee",
    "runways": [
      {
        "type": 100,
        "width": 45.11,
        "surfaceType": null,
        "numberStart": "10L",
        "numberEnd": "28R",
        "latStart": 46.645944,
        "lonStart": 14.320686,
        "latEnd": 46.639083,
        "lonEnd": 14.354789,
        "length": 0,
        "surfacetype": 2
      },
      {
        "type": 100,
        "width": 27.13,
        "surfaceType": null,
        "numberStart": "10R",
        "numberEnd": "28L",
        "latStart": 46.64409029,
        "lonStart": 14.32014113,
        "latEnd": 46.64228529,
        "lonEnd": 14.32905813,
        "length": 0,
        "surfacetype": 3
      },
      {
        "type": 102,
        "width": 21.95,
        "surfaceType": 2,
        "numberStart": "H1",
        "numberEnd": null,
        "latStart": 46.64772791,
        "lonStart": 14.32707616,
        "latEnd": null,
        "lonEnd": null,
        "length": 22.86
      },
      {
        "type": 102,
        "width": 21.95,
        "surfaceType": 2,
        "numberStart": "H2",
        "numberEnd": null,
        "latStart": 46.64747292,
        "lonStart": 14.32719729,
        "latEnd": null,
        "lonEnd": null,
        "length": 22.86
      },
      {
        "type": 102,
        "width": 21.95,
        "surfaceType": 2,
        "numberStart": "H3",
        "numberEnd": null,
        "latStart": 46.6472595,
        "lonStart": 14.32736686,
        "latEnd": null,
        "lonEnd": null,
        "length": 22.86
      }
    ],
    "id": 20771
  }
]