[
  {
    "type": 1,
    "icao": "LIEE",
    "lat": 39.251475,
    "lon": 24.142745605,
    "communications": [
      {
        "type": 53,
        "frequency": 12160,
        "name": "GND"
      },
      {
        "type": 54,
        "frequency": 12060,
        "name": "TWR"
      },
      {
        "type": 54,
        "frequency": 12210,
        "name": "TWR"
      },
      {
        "type": 55,
        "frequency": 11840,
        "name": "CAGLIARI APP"
      },
      {
        "type": 55,
        "frequency": 11875,
        "name": "CAGLIARI APP"
      }
    ],
    "elevation": 13,
    "tower": true,
    "name": "Cagliari Elmas",
    "runways": [
      {
        "type": 100,
        "width": 45.11,
        "surfaceType": null,
        "numberStart": "14",
        "numberEnd": "32",
        "latStart": 39.26086416,
        "lonStart": 9.04340537,
        "latEnd": 39.24208584,
        "lonEnd": 9.06517272,
        "length": 0,
        "surfacetype": 1
      }
    ],
    "id": 4319
  },
  {
    "type": 1,
    "icao": "LIED",
    "lat": 39.353938750000005,
    "lon": 24.155263750000003,
    "communications": [
      {
        "type": 54,
        "frequency": 12210,
        "name": "TWR"
      },
      {
        "type": 55,
        "frequency": 11875,
        "name": "CAGLIARI APP"
      },
      {
        "type": 55,
        "frequency": 11840,
        "name": "CAGLIARI APP"
      }
    ],
    "elevation": 100,
    "tower": true,
    "name": "DECIMOMANNU",
    "runways": [
      {
        "type": 100,
        "width": 45.11,
        "surfaceType": null,
        "numberStart": "17L",
        "numberEnd": "35R",
        "latStart": 39.366997,
        "lonStart": 8.969942,
        "latEnd": 39.340811,
        "lonEnd": 8.977631,
        "length": 0,
        "surfacetype": 1
      },
      {
        "type": 100,
        "width": 22.56,
        "surfaceType": null,
        "numberStart": "17R",
        "numberEnd": "35L",
        "latStart": 39.365428,
        "lonStart": 8.967783,
        "latEnd": 39.342519,
        "lonEnd": 8.974622,
        "length": 0,
        "surfacetype": 1
      }
    ],
    "id": 5725
  },
  {
    "type": 1,
    "icao": "LIET",
    "lat": 39.918763999999996,
    "lon": 24.7966555,
    "communications": [
      {
        "type": 54,
        "frequency": 11965,
        "name": "INFO"
      }
    ],
    "elevation": 22,
    "tower": true,
    "name": "TORTOLI",
    "runways": [
      {
        "type": 100,
        "width": 29.87,
        "surfaceType": null,
        "numberStart": "12",
        "numberEnd": "30",
        "latStart": 39.92145,
        "lonStart": 9.677233,
        "latEnd": 39.916078,
        "lonEnd": 9.689264,
        "length": 0,
        "surfacetype": 1
      }
    ],
    "id": 24808
  }
]