[
  {
    "type": 17,
    "icao": "PA04",
    "lat": 41.1564525,
    "lon": -79.0930925,
    "communications": [],
    "elevation": 1520,
    "tower": false,
    "name": "[H] Brookville Hospital",
    "runways": [
      {
        "type": 102,
        "width": 19.8,
        "surfaceType": 1,
        "numberStart": "H1",
        "numberEnd": null,
        "latStart": 41.1564525,
        "lonStart": -79.0930925,
        "latEnd": null,
        "lonEnd": null,
        "length": 19.8
      }
    ],
    "id": 28598
  },
  {
    "type": 17,
    "icao": "PN22",
    "lat": 41.38339138,
    "lon": -79.83311001,
    "communications": [],
    "elevation": 1140,
    "tower": false,
    "name": "[H] Northwest Medical Center Franklin Camp",
    "runways": [
      {
        "type": 102,
        "width": 13.7,
        "surfaceType": 1,
        "numberStart": "H1",
        "numberEnd": null,
        "latStart": 41.38339138,
        "lonStart": -79.83311001,
        "latEnd": null,
        "lonEnd": null,
        "length": 13.7
      }
    ],
    "id": 31677
  },
  {
    "type": 17,
    "icao": "PS42",
    "lat": 41.42839277,
    "lon": -79.69671862,
    "communications": [],
    "elevation": 1263,
    "tower": false,
    "name": "[H] Northwest Medical Center Oil City Camp",
    "runways": [
      {
        "type": 102,
        "width": 18.3,
        "surfaceType": 2,
        "numberStart": "H1",
        "numberEnd": null,
        "latStart": 41.42839277,
        "lonStart": -79.69671862,
        "latEnd": null,
        "lonEnd": null,
        "length": 18.3
      }
    ],
    "id": 31678
  },
  {
    "type": 17,
    "icao": "7PS1",
    "lat": 41.90616666,
    "lon": -79.84671834,
    "communications": [],
    "elevation": 1399,
    "tower": false,
    "name": "[H] Ucmh",
    "runways": [
      {
        "type": 102,
        "width": 12.2,
        "surfaceType": 2,
        "numberStart": "H1",
        "numberEnd": null,
        "latStart": 41.90616666,
        "lonStart": -79.84671834,
        "latEnd": null,
        "lonEnd": null,
        "length": 12.2
      }
    ],
    "id": 33461
  },
  {
    "type": 17,
    "icao": "PA97",
    "lat": 41.84394833,
    "lon": -79.15476695,
    "communications": [],
    "elevation": 1172,
    "tower": false,
    "name": "[H] Warren General Hospital",
    "runways": [
      {
        "type": 102,
        "width": 12.2,
        "surfaceType": 1,
        "numberStart": "H1",
        "numberEnd": null,
        "latStart": 41.84394833,
        "lonStart": -79.15476695,
        "latEnd": null,
        "lonEnd": null,
        "length": 12.2
      }
    ],
    "id": 33727
  }
]