[
  {
    "type": 1,
    "icao": "SSBG",
    "lat": -29.14833333,
    "lon": -51.536388895,
    "communications": [],
    "elevation": 2208,
    "tower": false,
    "name": "Aeroclube de Bento Goncalves",
    "runways": [
      {
        "type": 100,
        "width": 29.87,
        "surfaceType": null,
        "numberStart": "13",
        "numberEnd": "31",
        "latStart": -29.14625501,
        "lonStart": -51.54104157,
        "latEnd": -29.15041165,
        "lonEnd": -51.53173622,
        "length": 0,
        "surfacetype": 4
      }
    ],
    "id": 634
  },
  {
    "type": 1,
    "icao": "SBCX",
    "lat": -29.197064,
    "lon": -51.187531885,
    "communications": [
      {
        "type": 54,
        "frequency": 13160,
        "name": "CAXIAS RDO"
      }
    ],
    "elevation": 2472,
    "tower": true,
    "name": "Campo Dos Bugres",
    "runways": [
      {
        "type": 100,
        "width": 29.87,
        "surfaceType": null,
        "numberStart": "15",
        "numberEnd": "33",
        "latStart": -29.19069714,
        "lonStart": -51.1945971,
        "latEnd": -29.20343086,
        "lonEnd": -51.18046667,
        "length": 0,
        "surfacetype": 1
      }
    ],
    "id": 4415
  },
  {
    "type": 1,
    "icao": "SBCO",
    "lat": -29.9459445,
    "lon": -51.144367,
    "communications": [
      {
        "type": 50,
        "frequency": 12785,
        "name": "ATIS"
      },
      {
        "type": 53,
        "frequency": 12170,
        "name": "GND"
      },
      {
        "type": 54,
        "frequency": 12280,
        "name": "TWR"
      },
      {
        "type": 54,
        "frequency": 11850,
        "name": "TWR"
      },
      {
        "type": 55,
        "frequency": 11900,
        "name": "PALEGRE APP"
      },
      {
        "type": 55,
        "frequency": 12010,
        "name": "PALEGRE APP"
      },
      {
        "type": 55,
        "frequency": 12055,
        "name": "PALEGRE APP"
      },
      {
        "type": 55,
        "frequency": 12890,
        "name": "PALEGRE APP"
      }
    ],
    "elevation": 25,
    "tower": true,
    "name": "Canoas",
    "runways": [
      {
        "type": 100,
        "width": 44.2,
        "surfaceType": null,
        "numberStart": "12",
        "numberEnd": "30",
        "latStart": -29.941803,
        "lonStart": -51.157817,
        "latEnd": -29.950086,
        "lonEnd": -51.130917,
        "length": 0,
        "surfacetype": 1
      }
    ],
    "id": 4462
  },
  {
    "type": 1,
    "icao": "SIFQ",
    "lat": -29.044444445,
    "lon": -51.138888895,
    "communications": [],
    "elevation": 2565,
    "tower": false,
    "name": "Condominio Menega",
    "runways": [
      {
        "type": 100,
        "width": 17.98,
        "surfaceType": null,
        "numberStart": "09",
        "numberEnd": "27",
        "latStart": -29.04551802,
        "lonStart": -51.14257695,
        "latEnd": -29.04337087,
        "lonEnd": -51.13520084,
        "length": 0,
        "surfacetype": 4
      }
    ],
    "id": 5258
  },
  {
    "type": 1,
    "icao": "SSJC",
    "lat": -29.98305556,
    "lon": -51.300555555,
    "communications": [],
    "elevation": 26,
    "tower": false,
    "name": "Fazenda do Jacui",
    "runways": [
      {
        "type": 100,
        "width": 20.12,
        "surfaceType": null,
        "numberStart": "06",
        "numberEnd": "24",
        "latStart": -29.98555517,
        "lonStart": -51.30299057,
        "latEnd": -29.98055595,
        "lonEnd": -51.29812054,
        "length": 0,
        "surfacetype": 3
      }
    ],
    "id": 9209
  },
  {
    "type": 1,
    "icao": "SSGA",
    "lat": -29.2691095,
    "lon": -51.531672,
    "communications": [],
    "elevation": 2231,
    "tower": true,
    "name": "Garibaldi",
    "runways": [
      {
        "type": 100,
        "width": 29.87,
        "surfaceType": null,
        "numberStart": "14",
        "numberEnd": "32",
        "latStart": -29.265358,
        "lonStart": -51.536136,
        "latEnd": -29.272861,
        "lonEnd": -51.527208,
        "length": 0,
        "surfacetype": 1
      }
    ],
    "id": 10317
  },
  {
    "type": 1,
    "icao": "SSNG",
    "lat": -29.7191677,
    "lon": -51.4891663,
    "communications": [],
    "elevation": 125,
    "tower": true,
    "name": "Montenegro",
    "runways": [
      {
        "type": 100,
        "width": 13.11,
        "surfaceType": null,
        "numberStart": "13",
        "numberEnd": "31",
        "latStart": -29.71735682,
        "lonStart": -51.49344149,
        "latEnd": -29.72097858,
        "lonEnd": -51.48489111,
        "length": 0,
        "surfacetype": 2
      }
    ],
    "id": 17423
  },
  {
    "type": 1,
    "icao": "SSNH",
    "lat": -29.695833200000003,
    "lon": -51.0816689,
    "communications": [],
    "elevation": 66,
    "tower": true,
    "name": "Novo Hamburgo",
    "runways": [
      {
        "type": 100,
        "width": 17.07,
        "surfaceType": null,
        "numberStart": "02",
        "numberEnd": "20",
        "latStart": -29.70120181,
        "lonStart": -51.08231847,
        "latEnd": -29.69046459,
        "lonEnd": -51.08101933,
        "length": 0,
        "surfacetype": 2
      }
    ],
    "id": 18521
  },
  {
    "type": 1,
    "icao": "SSEE",
    "lat": -29.45333333,
    "lon": -51.934166669999996,
    "communications": [],
    "elevation": 105,
    "tower": false,
    "name": "Regional do Vale do Taquari",
    "runways": [
      {
        "type": 100,
        "width": 17.98,
        "surfaceType": null,
        "numberStart": "06",
        "numberEnd": "24",
        "latStart": -29.45535377,
        "lonStart": -51.93615076,
        "latEnd": -29.45131289,
        "lonEnd": -51.93218258,
        "length": 0,
        "surfacetype": 3
      }
    ],
    "id": 21328
  },
  {
    "type": 1,
    "icao": "SBPA",
    "lat": -29.994612465,
    "lon": -51.17122283,
    "communications": [
      {
        "type": 50,
        "frequency": 12785,
        "name": "ATIS"
      },
      {
        "type": 53,
        "frequency": 12190,
        "name": "GND"
      },
      {
        "type": 54,
        "frequency": 11810,
        "name": "PALEGRE TWR"
      },
      {
        "type": 55,
        "frequency": 11900,
        "name": "PALEGRE APP"
      },
      {
        "type": 55,
        "frequency": 12010,
        "name": "PALEGRE APP"
      },
      {
        "type": 55,
        "frequency": 12055,
        "name": "PALEGRE APP"
      },
      {
        "type": 55,
        "frequency": 12890,
        "name": "PALEGRE APP"
      }
    ],
    "elevation": 11,
    "tower": true,
    "name": "Salgado Filho",
    "runways": [
      {
        "type": 100,
        "width": 42.06,
        "surfaceType": null,
        "numberStart": "11",
        "numberEnd": "29",
        "latStart": -29.99437657,
        "lonStart": -51.18304574,
        "latEnd": -29.99484836,
        "lonEnd": -51.15939992,
        "length": 0,
        "surfacetype": 1
      }
    ],
    "id": 22739
  },
  {
    "type": 17,
    "icao": "SSTC",
    "lat": -29.88277778,
    "lon": -51.38111111,
    "communications": [],
    "elevation": 26,
    "tower": false,
    "name": "[H] COPESUL",
    "runways": [
      {
        "type": 102,
        "width": 20.1,
        "surfaceType": 3,
        "numberStart": "H1",
        "numberEnd": null,
        "latStart": -29.88277778,
        "lonStart": -51.38111111,
        "latEnd": null,
        "lonEnd": null,
        "length": 20.1
      }
    ],
    "id": 28694
  },
  {
    "type": 17,
    "icao": "SSMU",
    "lat": -29.94694444,
    "lon": -51.10527778,
    "communications": [],
    "elevation": 20,
    "tower": false,
    "name": "[H] Magnum",
    "runways": [
      {
        "type": 102,
        "width": 18,
        "surfaceType": 3,
        "numberStart": "H1",
        "numberEnd": null,
        "latStart": -29.94694444,
        "lonStart": -51.10527778,
        "latEnd": null,
        "lonEnd": null,
        "length": 18
      }
    ],
    "id": 31039
  },
  {
    "type": 17,
    "icao": "SSDD",
    "lat": -29.93277778,
    "lon": -51.18333333,
    "communications": [],
    "elevation": 2,
    "tower": false,
    "name": "[H] N. S. de Fatima",
    "runways": [
      {
        "type": 102,
        "width": 27.4,
        "surfaceType": 2,
        "numberStart": "H1",
        "numberEnd": null,
        "latStart": -29.93277778,
        "lonStart": -51.18333333,
        "latEnd": null,
        "lonEnd": null,
        "length": 27.4
      }
    ],
    "id": 31515
  },
  {
    "type": 17,
    "icao": "SJUN",
    "lat": -29.16416667,
    "lon": -51.20027778,
    "communications": [],
    "elevation": 770,
    "tower": false,
    "name": "[H] UNIMED - Nordeste",
    "runways": [
      {
        "type": 102,
        "width": 18,
        "surfaceType": 2,
        "numberStart": "H1",
        "numberEnd": null,
        "latStart": -29.16416667,
        "lonStart": -51.20027778,
        "latEnd": null,
        "lonEnd": null,
        "length": 18
      }
    ],
    "id": 33447
  }
]