[
  {
    "type": 1,
    "icao": "YBEG",
    "lat": -19.65317986,
    "lon": 146.29392749,
    "communications": [],
    "elevation": 1015,
    "tower": false,
    "name": "BENING FIELD",
    "runways": [
      {
        "type": 100,
        "width": 28.96,
        "surfaceType": null,
        "numberStart": "7",
        "numberEnd": "25",
        "latStart": -19.65531912,
        "lonStart": 146.28609559,
        "latEnd": -19.6510406,
        "lonEnd": 146.30175939,
        "length": 0,
        "surfacetype": 4
      }
    ],
    "id": 1649
  },
  {
    "type": 1,
    "icao": "YBLP",
    "lat": -19.187583875,
    "lon": 146.494696485,
    "communications": [],
    "elevation": 116,
    "tower": false,
    "name": "BLUE WATER PARK",
    "runways": [
      {
        "type": 100,
        "width": 24.08,
        "surfaceType": null,
        "numberStart": "1",
        "numberEnd": "19",
        "latStart": -19.19238343,
        "lonStart": 146.49302139,
        "latEnd": -19.18278432,
        "lonEnd": 146.49637158,
        "length": 0,
        "surfacetype": 1
      }
    ],
    "id": 1786
  },
  {
    "type": 1,
    "icao": "YCSW",
    "lat": -19.418529665,
    "lon": 146.54164433,
    "communications": [],
    "elevation": 1835,
    "tower": false,
    "name": "CAMP ENGSTROM WOOLSHED",
    "runways": [
      {
        "type": 100,
        "width": 17.98,
        "surfaceType": null,
        "numberStart": "1",
        "numberEnd": "19",
        "latStart": -19.42127341,
        "lonStart": 146.5408642,
        "latEnd": -19.41578592,
        "lonEnd": 146.54242446,
        "length": 0,
        "surfacetype": 4
      }
    ],
    "id": 3588
  },
  {
    "type": 1,
    "icao": "YCOT",
    "lat": -19.52937605,
    "lon": 146.33872286500002,
    "communications": [],
    "elevation": 1053,
    "tower": false,
    "name": "CORMORANT",
    "runways": [
      {
        "type": 100,
        "width": 49.99,
        "surfaceType": null,
        "numberStart": "2",
        "numberEnd": "20",
        "latStart": -19.52414117,
        "lonStart": 146.34117266,
        "latEnd": -19.53461093,
        "lonEnd": 146.33627307,
        "length": 0,
        "surfacetype": 4
      }
    ],
    "id": 4149
  },
  {
    "type": 1,
    "icao": "YDOT",
    "lat": -19.620456,
    "lon": 146.29529042000001,
    "communications": [],
    "elevation": 966,
    "tower": false,
    "name": "DOTSWOOD",
    "runways": [
      {
        "type": 100,
        "width": 49.99,
        "surfaceType": null,
        "numberStart": "3",
        "numberEnd": "21",
        "latStart": -19.624828,
        "lonStart": 146.292331,
        "latEnd": -19.616084,
        "lonEnd": 146.29824984,
        "length": 0,
        "surfacetype": 4
      }
    ],
    "id": 5856
  },
  {
    "type": 1,
    "icao": "YDOP",
    "lat": -19.601950889999998,
    "lon": 146.843006055,
    "communications": [
      {
        "type": 51,
        "frequency": 12670,
        "name": "CTAF"
      }
    ],
    "elevation": 250,
    "tower": false,
    "name": "Donnington Airpark",
    "runways": [
      {
        "type": 100,
        "width": 28.96,
        "surfaceType": null,
        "numberStart": "11",
        "numberEnd": "29",
        "latStart": -19.59980352,
        "lonStart": 146.83840223,
        "latEnd": -19.60409826,
        "lonEnd": 146.84760988,
        "length": 0,
        "surfacetype": 4
      }
    ],
    "id": 6387
  },
  {
    "type": 1,
    "icao": "YPUK",
    "lat": -19.445925375,
    "lon": 146.418547745,
    "communications": [],
    "elevation": 1138,
    "tower": false,
    "name": "PUK PUK",
    "runways": [
      {
        "type": 100,
        "width": 14.94,
        "surfaceType": null,
        "numberStart": "10",
        "numberEnd": "28",
        "latStart": -19.44499197,
        "lonStart": 146.41389079,
        "latEnd": -19.44685878,
        "lonEnd": 146.4232047,
        "length": 0,
        "surfacetype": 4
      }
    ],
    "id": 19593
  },
  {
    "type": 1,
    "icao": "YSTD",
    "lat": -19.34068495,
    "lon": 146.16584188000002,
    "communications": [],
    "elevation": 1077,
    "tower": false,
    "name": "STAR LANDING AREA",
    "runways": [
      {
        "type": 100,
        "width": 32.92,
        "surfaceType": null,
        "numberStart": "3",
        "numberEnd": "21",
        "latStart": -19.34360088,
        "lonStart": 146.163835,
        "latEnd": -19.33776902,
        "lonEnd": 146.16784876,
        "length": 0,
        "surfacetype": 4
      }
    ],
    "id": 22507
  },
  {
    "type": 1,
    "icao": "YSKF",
    "lat": -19.585143255,
    "lon": 146.78020317,
    "communications": [],
    "elevation": 295,
    "tower": false,
    "name": "STARKE FIELD",
    "runways": [
      {
        "type": 100,
        "width": 29.87,
        "surfaceType": null,
        "numberStart": "16",
        "numberEnd": "34",
        "latStart": -19.58157494,
        "lonStart": 146.77895792,
        "latEnd": -19.58871157,
        "lonEnd": 146.78144842,
        "length": 0,
        "surfacetype": 15
      }
    ],
    "id": 22510
  },
  {
    "type": 1,
    "icao": "YBTL",
    "lat": -19.254814275,
    "lon": 146.76363303000002,
    "communications": [
      {
        "type": 50,
        "frequency": 13350,
        "name": "YBTL ATIS"
      },
      {
        "type": 51,
        "frequency": 12340,
        "name": "ACTIVATE LIGHTS ONLY MULT"
      },
      {
        "type": 51,
        "frequency": 12055,
        "name": "BRISBANE CENTRE MULT"
      },
      {
        "type": 51,
        "frequency": 11830,
        "name": "TOWNSVILLE MULT"
      },
      {
        "type": 52,
        "frequency": 12810,
        "name": "TOWNSVILLE CLD"
      },
      {
        "type": 53,
        "frequency": 12180,
        "name": "TOWNSVILLE GND"
      },
      {
        "type": 54,
        "frequency": 11830,
        "name": "TOWNSVILLE TWR"
      },
      {
        "type": 54,
        "frequency": 12055,
        "name": "BRISBANE CNTR"
      },
      {
        "type": 55,
        "frequency": 12680,
        "name": "TOWNSVILLE APP"
      },
      {
        "type": 55,
        "frequency": 13410,
        "name": "TOWNSVILLE APP"
      },
      {
        "type": 56,
        "frequency": 12680,
        "name": "TOWNSVILLE DEP"
      },
      {
        "type": 56,
        "frequency": 13410,
        "name": "TOWNSVILLE DEP"
      }
    ],
    "elevation": 18,
    "tower": true,
    "name": "Townsville Intl",
    "runways": [
      {
        "type": 100,
        "width": 45.11,
        "surfaceType": null,
        "numberStart": "01",
        "numberEnd": "19",
        "latStart": -19.258316,
        "lonStart": 146.7647263,
        "latEnd": -19.2382,
        "lonEnd": 146.77421283,
        "length": 0,
        "surfacetype": 1
      },
      {
        "type": 100,
        "width": 29.87,
        "surfaceType": null,
        "numberStart": "07",
        "numberEnd": "25",
        "latStart": -19.25581846,
        "lonStart": 146.75552253,
        "latEnd": -19.25306004,
        "lonEnd": 146.76560593,
        "length": 0,
        "surfacetype": 2
      },
      {
        "type": 102,
        "width": 35.66,
        "surfaceType": 1,
        "numberStart": "H1",
        "numberEnd": null,
        "latStart": -19.25628565,
        "lonStart": 146.75923356,
        "latEnd": null,
        "lonEnd": null,
        "length": 35.05
      },
      {
        "type": 102,
        "width": 11.89,
        "surfaceType": 2,
        "numberStart": "H10",
        "numberEnd": null,
        "latStart": -19.259051,
        "lonStart": 146.759438,
        "latEnd": null,
        "lonEnd": null,
        "length": 11.89
      },
      {
        "type": 102,
        "width": 14.94,
        "surfaceType": 2,
        "numberStart": "H2",
        "numberEnd": null,
        "latStart": -19.25206,
        "lonStart": 146.772492,
        "latEnd": null,
        "lonEnd": null,
        "length": 14.94
      },
      {
        "type": 102,
        "width": 10.06,
        "surfaceType": 2,
        "numberStart": "H3",
        "numberEnd": null,
        "latStart": -19.252084,
        "lonStart": 146.772128,
        "latEnd": null,
        "lonEnd": null,
        "length": 10.06
      },
      {
        "type": 102,
        "width": 20.12,
        "surfaceType": 1,
        "numberStart": "H4",
        "numberEnd": null,
        "latStart": -19.2521847,
        "lonStart": 146.76969627,
        "latEnd": null,
        "lonEnd": null,
        "length": 20.12
      },
      {
        "type": 102,
        "width": 11.89,
        "surfaceType": 2,
        "numberStart": "H5",
        "numberEnd": null,
        "latStart": -19.257409,
        "lonStart": 146.759651,
        "latEnd": null,
        "lonEnd": null,
        "length": 11.89
      },
      {
        "type": 102,
        "width": 11.89,
        "surfaceType": 2,
        "numberStart": "H6",
        "numberEnd": null,
        "latStart": -19.257712,
        "lonStart": 146.759607,
        "latEnd": null,
        "lonEnd": null,
        "length": 11.89
      },
      {
        "type": 102,
        "width": 11.89,
        "surfaceType": 2,
        "numberStart": "H7",
        "numberEnd": null,
        "latStart": -19.258047,
        "lonStart": 146.759567,
        "latEnd": null,
        "lonEnd": null,
        "length": 11.89
      },
      {
        "type": 102,
        "width": 11.89,
        "surfaceType": 2,
        "numberStart": "H8",
        "numberEnd": null,
        "latStart": -19.258423,
        "lonStart": 146.759508,
        "latEnd": null,
        "lonEnd": null,
        "length": 11.89
      },
      {
        "type": 102,
        "width": 11.89,
        "surfaceType": 2,
        "numberStart": "H9",
        "numberEnd": null,
        "latStart": -19.258749,
        "lonStart": 146.759474,
        "latEnd": null,
        "lonEnd": null,
        "length": 11.89
      }
    ],
    "id": 25517
  },
  {
    "type": 17,
    "icao": "AU24",
    "lat": -19.46570067,
    "lon": 146.34037147,
    "communications": [
      {
        "type": 51,
        "frequency": 12670,
        "name": "CTAF"
      }
    ],
    "elevation": 1112,
    "tower": false,
    "name": "[H] Facility1",
    "runways": [
      {
        "type": 102,
        "width": 21,
        "surfaceType": 1,
        "numberStart": "H2",
        "numberEnd": null,
        "latStart": -19.46570067,
        "lonStart": 146.34037147,
        "latEnd": null,
        "lonEnd": null,
        "length": 21
      }
    ],
    "id": 29637
  },
  {
    "type": 17,
    "icao": "YNEY",
    "lat": -19.16183874,
    "lon": 146.85376163,
    "communications": [],
    "elevation": 8,
    "tower": false,
    "name": "[H] Nelly Bay",
    "runways": [
      {
        "type": 102,
        "width": 36.9,
        "surfaceType": 2,
        "numberStart": "H11",
        "numberEnd": null,
        "latStart": -19.16183874,
        "lonStart": 146.85376163,
        "latEnd": null,
        "lonEnd": null,
        "length": 36.9
      }
    ],
    "id": 31582
  }
]