[
  {
    "type": 1,
    "icao": "FQBR",
    "lat": -19.7973105,
    "lon": 7.5517425000000005,
    "communications": [
      {
        "type": 53,
        "frequency": 12190,
        "name": "GND"
      },
      {
        "type": 54,
        "frequency": 12790,
        "name": "TETE INFO"
      },
      {
        "type": 54,
        "frequency": 12590,
        "name": "TETE INFO"
      },
      {
        "type": 54,
        "frequency": 11810,
        "name": "TWR"
      },
      {
        "type": 55,
        "frequency": 11990,
        "name": "APP"
      }
    ],
    "elevation": 33,
    "tower": true,
    "name": "Beira",
    "runways": [
      {
        "type": 100,
        "width": 45.11,
        "surfaceType": null,
        "numberStart": "12",
        "numberEnd": "30",
        "latStart": -19.793644,
        "lonStart": 34.896508,
        "latEnd": -19.799192,
        "lonEnd": 34.918603,
        "length": 0,
        "surfacetype": 1
      },
      {
        "type": 100,
        "width": 45.11,
        "surfaceType": null,
        "numberStart": "17",
        "numberEnd": "35",
        "latStart": -19.791583,
        "lonStart": 34.906583,
        "latEnd": -19.806333,
        "lonEnd": 34.912333,
        "length": 0,
        "surfacetype": 1
      },
      {
        "type": 100,
        "width": 45.11,
        "surfaceType": null,
        "numberStart": "06",
        "numberEnd": "24",
        "latStart": -19.799528,
        "lonStart": 34.906472,
        "latEnd": -19.793583,
        "lonEnd": 34.912583,
        "length": 0,
        "surfacetype": 1
      }
    ],
    "id": 2467
  },
  {
    "type": 1,
    "icao": "FQCH",
    "lat": -19.1512665,
    "lon": 7.143792999999999,
    "communications": [
      {
        "type": 54,
        "frequency": 11840,
        "name": "AFIS"
      }
    ],
    "elevation": 2287,
    "tower": false,
    "name": "CHIMOIO",
    "runways": [
      {
        "type": 100,
        "width": 45.11,
        "surfaceType": null,
        "numberStart": "01",
        "numberEnd": "19",
        "latStart": -19.162097,
        "lonStart": 33.428022,
        "latEnd": -19.140436,
        "lonEnd": 33.429892,
        "length": 0,
        "surfacetype": 1
      }
    ],
    "id": 3896
  }
]