[
  {
    "type": 1,
    "icao": "WY06",
    "lat": 44.839494540000004,
    "lon": -32.391257545,
    "communications": [],
    "elevation": 6600,
    "tower": false,
    "name": "Luckinbill Airstrip",
    "runways": [
      {
        "type": 100,
        "width": 8.73,
        "surfaceType": null,
        "numberStart": "06",
        "numberEnd": "24",
        "latStart": 44.83851883,
        "lonStart": -109.62298534,
        "latEnd": 44.84047025,
        "lonEnd": -109.61656747,
        "length": 0,
        "surfacetype": 3
      }
    ],
    "id": 15578
  },
  {
    "type": 1,
    "icao": "KCOD",
    "lat": 44.5201865,
    "lon": -32.25461334,
    "communications": [
      {
        "type": 50,
        "frequency": 13507,
        "name": "AWOS 3"
      },
      {
        "type": 51,
        "frequency": 12280,
        "name": "CTAF/UNICOM"
      }
    ],
    "elevation": 5102,
    "tower": false,
    "name": "Yellowstone Rgnl",
    "runways": [
      {
        "type": 100,
        "width": 30,
        "surfaceType": null,
        "numberStart": "04",
        "numberEnd": "22",
        "latStart": 44.51324606,
        "lonStart": -109.03635362,
        "latEnd": 44.52712694,
        "lonEnd": -109.01125539,
        "length": 0,
        "surfacetype": 1
      }
    ],
    "id": 27769
  },
  {
    "type": 1,
    "icao": "WY42",
    "lat": 44.309532000000004,
    "lon": -32.212270435,
    "communications": [],
    "elevation": 5153,
    "tower": false,
    "name": "Yu Ranch",
    "runways": [
      {
        "type": 100,
        "width": 28.81,
        "surfaceType": null,
        "numberStart": "02",
        "numberEnd": "20",
        "latStart": 44.30660008,
        "lonStart": -108.73700479,
        "latEnd": 44.31246392,
        "lonEnd": -108.72807676,
        "length": 0,
        "surfacetype": 3
      }
    ],
    "id": 27807
  }
]