[
  {
    "type": 1,
    "icao": "SADS",
    "lat": -34.7333517325,
    "lon": -58.596106475,
    "communications": [
      {
        "type": 54,
        "frequency": 11810,
        "name": "San Justo"
      }
    ],
    "elevation": 59,
    "tower": true,
    "name": "Aeroclub Argentino",
    "runways": [
      {
        "type": 100,
        "width": 46.02,
        "surfaceType": null,
        "numberStart": "12",
        "numberEnd": "30",
        "latStart": -34.73066145,
        "lonStart": -58.59906986,
        "latEnd": -34.73468492,
        "lonEnd": -58.59065547,
        "length": 0,
        "surfacetype": 3
      },
      {
        "type": 100,
        "width": 75.9,
        "surfaceType": null,
        "numberStart": "16",
        "numberEnd": "34",
        "latStart": -34.73082289,
        "lonStart": -58.59935608,
        "latEnd": -34.73723767,
        "lonEnd": -58.59534449,
        "length": 0,
        "surfacetype": 3
      }
    ],
    "id": 624
  },
  {
    "type": 1,
    "icao": "SA2U",
    "lat": -34.298611109999996,
    "lon": -58.79888889,
    "communications": [],
    "elevation": 13,
    "tower": false,
    "name": "BELEN DE ESCOBAR",
    "runways": [
      {
        "type": 100,
        "width": 17.98,
        "surfaceType": null,
        "numberStart": "15",
        "numberEnd": "33",
        "latStart": -34.29628238,
        "lonStart": -58.80023338,
        "latEnd": -34.30093984,
        "lonEnd": -58.7975444,
        "length": 0,
        "surfacetype": 4
      }
    ],
    "id": 1613
  },
  {
    "type": 1,
    "icao": "SADO",
    "lat": -34.53457922,
    "lon": -58.67277059,
    "communications": [
      {
        "type": 53,
        "frequency": 12450,
        "name": "Campo de Mayo GND"
      },
      {
        "type": 54,
        "frequency": 12380,
        "name": "Campo de Mayo TWR"
      },
      {
        "type": 54,
        "frequency": 11850,
        "name": "Campo de Mayo TWR AUX"
      }
    ],
    "elevation": 78,
    "tower": true,
    "name": "Campo de Mayo",
    "runways": [
      {
        "type": 100,
        "width": 29.87,
        "surfaceType": null,
        "numberStart": "18",
        "numberEnd": "36",
        "latStart": -34.52642432,
        "lonStart": -58.67248176,
        "latEnd": -34.54224325,
        "lonEnd": -58.67144177,
        "length": 0,
        "surfacetype": 1
      },
      {
        "type": 102,
        "width": 18,
        "surfaceType": 2,
        "numberStart": "H5",
        "numberEnd": null,
        "latStart": -34.53507009,
        "lonStart": -58.67438824,
        "latEnd": null,
        "lonEnd": null,
        "length": 15.9
      }
    ],
    "id": 4425
  },
  {
    "type": 1,
    "icao": "SADP",
    "lat": -34.60861941333334,
    "lon": -58.60864887333333,
    "communications": [
      {
        "type": 54,
        "frequency": 11890,
        "name": "Palomar TWR AUX"
      },
      {
        "type": 54,
        "frequency": 12030,
        "name": "Palomar TWR"
      }
    ],
    "elevation": 59,
    "tower": true,
    "name": "El Palomar",
    "runways": [
      {
        "type": 100,
        "width": 49.07,
        "surfaceType": null,
        "numberStart": "16",
        "numberEnd": "34",
        "latStart": -34.60119451,
        "lonStart": -58.61715117,
        "latEnd": -34.61863283,
        "lonEnd": -58.60807214,
        "length": 0,
        "surfacetype": 2
      },
      {
        "type": 102,
        "width": 21,
        "surfaceType": 2,
        "numberStart": "H2",
        "numberEnd": null,
        "latStart": -34.6060309,
        "lonStart": -58.60072331,
        "latEnd": null,
        "lonEnd": null,
        "length": 21
      }
    ],
    "id": 7048
  },
  {
    "type": 1,
    "icao": "SA5Q",
    "lat": -34.826666665000005,
    "lon": -58.316666670000004,
    "communications": [],
    "elevation": 52,
    "tower": false,
    "name": "FLORENCIO VARELA EL PAJARO",
    "runways": [
      {
        "type": 100,
        "width": 21.95,
        "surfaceType": null,
        "numberStart": "06",
        "numberEnd": "24",
        "latStart": -34.82930187,
        "lonStart": -58.32123098,
        "latEnd": -34.82403146,
        "lonEnd": -58.31210236,
        "length": 0,
        "surfacetype": 4
      }
    ],
    "id": 7585
  },
  {
    "type": 1,
    "icao": "SA6C",
    "lat": -34.920555555,
    "lon": -58.91638889,
    "communications": [],
    "elevation": 114,
    "tower": false,
    "name": "GENERAL LAS HERAS BUENOS AIRES",
    "runways": [
      {
        "type": 100,
        "width": 20.12,
        "surfaceType": null,
        "numberStart": "12",
        "numberEnd": "30",
        "latStart": -34.91927829,
        "lonStart": -58.91860118,
        "latEnd": -34.92183282,
        "lonEnd": -58.9141766,
        "length": 0,
        "surfacetype": 4
      }
    ],
    "id": 9937
  },
  {
    "type": 1,
    "icao": "SA04",
    "lat": -34.18212200000001,
    "lon": -58.246911499999996,
    "communications": [],
    "elevation": 7,
    "tower": false,
    "name": "ISLA MARTIN GARCIA",
    "runways": [
      {
        "type": 100,
        "width": 29.87,
        "surfaceType": null,
        "numberStart": "17",
        "numberEnd": "35",
        "latStart": -34.176658,
        "lonStart": -58.248817,
        "latEnd": -34.187586,
        "lonEnd": -58.245006,
        "length": 0,
        "surfacetype": 1
      }
    ],
    "id": 12354
  },
  {
    "type": 1,
    "icao": "SABE",
    "lat": -34.563070356000004,
    "lon": -58.410992004,
    "communications": [
      {
        "type": 50,
        "frequency": 12760,
        "name": "SABE ATIS"
      },
      {
        "type": 53,
        "frequency": 12190,
        "name": "AEROPARQUE GND"
      },
      {
        "type": 52,
        "frequency": 11825,
        "name": "AEROPARQUE CLR"
      },
      {
        "type": 54,
        "frequency": 11885,
        "name": "AEROPARQUE TWR"
      },
      {
        "type": 54,
        "frequency": 12885,
        "name": "AEROPARQUE TWR"
      },
      {
        "type": 55,
        "frequency": 11950,
        "name": "AEROPARQUE APP"
      },
      {
        "type": 55,
        "frequency": 12060,
        "name": "AEROPARQUE APP"
      }
    ],
    "elevation": 18,
    "tower": true,
    "name": "Jorge_Newbery_Aeroparque",
    "runways": [
      {
        "type": 100,
        "width": 40,
        "surfaceType": null,
        "numberStart": "13",
        "numberEnd": "31",
        "latStart": -34.55406073,
        "lonStart": -58.42549743,
        "latEnd": -34.56453644,
        "lonEnd": -58.40649602,
        "length": 0,
        "surfacetype": 2
      },
      {
        "type": 102,
        "width": 30,
        "surfaceType": 2,
        "numberStart": "H1",
        "numberEnd": null,
        "latStart": -34.56488487,
        "lonStart": -58.40875119,
        "latEnd": null,
        "lonEnd": null,
        "length": 30
      },
      {
        "type": 102,
        "width": 25,
        "surfaceType": 2,
        "numberStart": "H2",
        "numberEnd": null,
        "latStart": -34.56585987,
        "lonStart": -58.40723319,
        "latEnd": null,
        "lonEnd": null,
        "length": 25
      },
      {
        "type": 102,
        "width": 27,
        "surfaceType": 2,
        "numberStart": "H3",
        "numberEnd": null,
        "latStart": -34.56600987,
        "lonStart": -58.40698219,
        "latEnd": null,
        "lonEnd": null,
        "length": 27
      }
    ],
    "id": 13106
  },
  {
    "type": 1,
    "icao": "SA8T",
    "lat": -34.8625,
    "lon": -58.34472222,
    "communications": [],
    "elevation": 91,
    "tower": false,
    "name": "LONGCHAMPS LA CAIDA",
    "runways": [
      {
        "type": 100,
        "width": 20.12,
        "surfaceType": null,
        "numberStart": "08",
        "numberEnd": "26",
        "latStart": -34.86306655,
        "lonStart": -58.34793529,
        "latEnd": -34.86193345,
        "lonEnd": -58.34150915,
        "length": 0,
        "surfacetype": 4
      }
    ],
    "id": 14597
  },
  {
    "type": 1,
    "icao": "SA9K",
    "lat": -34.7975,
    "lon": -58.896944445,
    "communications": [],
    "elevation": 91,
    "tower": false,
    "name": "MARCOS PAZ",
    "runways": [
      {
        "type": 100,
        "width": 29.87,
        "surfaceType": null,
        "numberStart": "14",
        "numberEnd": "32",
        "latStart": -34.79526846,
        "lonStart": -58.89881693,
        "latEnd": -34.79973154,
        "lonEnd": -58.89507196,
        "length": 0,
        "surfacetype": 4
      }
    ],
    "id": 15814
  },
  {
    "type": 1,
    "icao": "SADR",
    "lat": -34.66611111,
    "lon": -58.750555556666676,
    "communications": [],
    "elevation": 49,
    "tower": false,
    "name": "MERLO BUENOS AIRES",
    "runways": [
      {
        "type": 100,
        "width": 49.99,
        "surfaceType": null,
        "numberStart": "07",
        "numberEnd": "25",
        "latStart": -34.667414,
        "lonStart": -58.75413522,
        "latEnd": -34.66480822,
        "lonEnd": -58.74697589,
        "length": 0,
        "surfacetype": 4
      },
      {
        "type": 100,
        "width": 39.93,
        "surfaceType": null,
        "numberStart": "16",
        "numberEnd": "34",
        "latStart": -34.66168918,
        "lonStart": -58.75216501,
        "latEnd": -34.67053304,
        "lonEnd": -58.7489461,
        "length": 0,
        "surfacetype": 4
      },
      {
        "type": 100,
        "width": 49.99,
        "surfaceType": null,
        "numberStart": "18",
        "numberEnd": "36",
        "latStart": -34.66297396,
        "lonStart": -58.75055556,
        "latEnd": -34.66924826,
        "lonEnd": -58.75055556,
        "length": 0,
        "surfacetype": 4
      }
    ],
    "id": 16043
  },
  {
    "type": 1,
    "icao": "SADJ",
    "lat": -34.558808795000004,
    "lon": -58.787728295,
    "communications": [
      {
        "type": 54,
        "frequency": 11970,
        "name": "Moreno TWR"
      },
      {
        "type": 54,
        "frequency": 11855,
        "name": "Moreno TWR AUX"
      }
    ],
    "elevation": 105,
    "tower": true,
    "name": "Mariano Moreno",
    "runways": [
      {
        "type": 100,
        "width": 39.93,
        "surfaceType": null,
        "numberStart": "16",
        "numberEnd": "34",
        "latStart": -34.54727587,
        "lonStart": -58.79503885,
        "latEnd": -34.57277081,
        "lonEnd": -58.78407604,
        "length": 0,
        "surfacetype": 1
      },
      {
        "type": 102,
        "width": 11.89,
        "surfaceType": 2,
        "numberStart": "H1",
        "numberEnd": null,
        "latStart": -34.55768044,
        "lonStart": -58.78587764,
        "latEnd": null,
        "lonEnd": null,
        "length": 11.89
      },
      {
        "type": 102,
        "width": 11.89,
        "surfaceType": 2,
        "numberStart": "H2",
        "numberEnd": null,
        "latStart": -34.55750806,
        "lonStart": -58.78592065,
        "latEnd": null,
        "lonEnd": null,
        "length": 11.89
      }
    ],
    "id": 16685
  },
  {
    "type": 1,
    "icao": "SADZ",
    "lat": -34.7272175625,
    "lon": -58.50126444749999,
    "communications": [],
    "elevation": 10,
    "tower": false,
    "name": "Matanza",
    "runways": [
      {
        "type": 100,
        "width": 27.13,
        "surfaceType": null,
        "numberStart": "09",
        "numberEnd": "27",
        "latStart": -34.72755308,
        "lonStart": -58.50551985,
        "latEnd": -34.72900258,
        "lonEnd": -58.49673208,
        "length": 0,
        "surfacetype": 3
      },
      {
        "type": 100,
        "width": 49.07,
        "surfaceType": null,
        "numberStart": "17",
        "numberEnd": "35",
        "latStart": -34.72212033,
        "lonStart": -58.50234814,
        "latEnd": -34.73019426,
        "lonEnd": -58.50045772,
        "length": 0,
        "surfacetype": 3
      }
    ],
    "id": 16791
  },
  {
    "type": 1,
    "icao": "SAEZ",
    "lat": -34.821380035,
    "lon": -58.532731265,
    "communications": [
      {
        "type": 50,
        "frequency": 12780,
        "name": "ATIS"
      },
      {
        "type": 53,
        "frequency": 12175,
        "name": "GND/CLNC DEL"
      },
      {
        "type": 54,
        "frequency": 11860,
        "name": "EZEIZA TWR"
      },
      {
        "type": 55,
        "frequency": 11990,
        "name": "EZEIZA APP"
      }
    ],
    "elevation": 64,
    "tower": true,
    "name": "Ministro Pistarini (Ezeiza)",
    "runways": [
      {
        "type": 100,
        "width": 57.91,
        "surfaceType": null,
        "numberStart": "11",
        "numberEnd": "29",
        "latStart": -34.81918422,
        "lonStart": -58.55340482,
        "latEnd": -34.82541916,
        "lonEnd": -58.51823524,
        "length": 0,
        "surfacetype": 1
      },
      {
        "type": 100,
        "width": 46.02,
        "surfaceType": null,
        "numberStart": "17",
        "numberEnd": "35",
        "latStart": -34.80840466,
        "lonStart": -58.53385825,
        "latEnd": -34.8325121,
        "lonEnd": -58.52542675,
        "length": 0,
        "surfacetype": 1
      }
    ],
    "id": 17271
  },
  {
    "type": 1,
    "icao": "SADM",
    "lat": -34.67623109,
    "lon": -58.642769665,
    "communications": [
      {
        "type": 54,
        "frequency": 11850,
        "name": "Moron TWR"
      },
      {
        "type": 54,
        "frequency": 11925,
        "name": "Moron TWR AUX"
      }
    ],
    "elevation": 95,
    "tower": true,
    "name": "Moron",
    "runways": [
      {
        "type": 100,
        "width": 42.98,
        "surfaceType": null,
        "numberStart": "01",
        "numberEnd": "19",
        "latStart": -34.68886896,
        "lonStart": -58.64645906,
        "latEnd": -34.66359322,
        "lonEnd": -58.63908027,
        "length": 0,
        "surfacetype": 2
      }
    ],
    "id": 17526
  },
  {
    "type": 1,
    "icao": "SADQ",
    "lat": -34.707800436666666,
    "lon": -58.24540014000001,
    "communications": [
      {
        "type": 54,
        "frequency": 12220,
        "name": "Quilmes TWR"
      }
    ],
    "elevation": 7,
    "tower": true,
    "name": "Quilmes",
    "runways": [
      {
        "type": 100,
        "width": 36.88,
        "surfaceType": null,
        "numberStart": "18",
        "numberEnd": "36",
        "latStart": -34.70113285,
        "lonStart": -58.24534241,
        "latEnd": -34.71228654,
        "lonEnd": -58.24367548,
        "length": 0,
        "surfacetype": 4
      },
      {
        "type": 102,
        "width": 9.14,
        "surfaceType": 2,
        "numberStart": "H1",
        "numberEnd": null,
        "latStart": -34.70998192,
        "lonStart": -58.24718253,
        "latEnd": null,
        "lonEnd": null,
        "length": 9.14
      }
    ],
    "id": 20713
  },
  {
    "type": 1,
    "icao": "SADF",
    "lat": -34.454044275,
    "lon": -58.590226095,
    "communications": [
      {
        "type": 53,
        "frequency": 12165,
        "name": "San Fernando GND"
      },
      {
        "type": 54,
        "frequency": 11900,
        "name": "San Fernando TWR AUX"
      },
      {
        "type": 54,
        "frequency": 12070,
        "name": "San Fernando TWR"
      }
    ],
    "elevation": 9,
    "tower": true,
    "name": "San Fernando",
    "runways": [
      {
        "type": 100,
        "width": 39.93,
        "surfaceType": null,
        "numberStart": "05",
        "numberEnd": "23",
        "latStart": -34.45986123,
        "lonStart": -58.59704434,
        "latEnd": -34.44822732,
        "lonEnd": -58.58340785,
        "length": 0,
        "surfacetype": 1
      }
    ],
    "id": 22795
  }
]