[
  {
    "type": 1,
    "icao": "YGPI",
    "lat": -23.29046059,
    "lon": 119.14890224,
    "communications": [],
    "elevation": 2397,
    "tower": false,
    "name": "GILES PT",
    "runways": [
      {
        "type": 100,
        "width": 49.99,
        "surfaceType": null,
        "numberStart": "8",
        "numberEnd": "26",
        "latStart": -23.29119818,
        "lonStart": 119.14040448,
        "latEnd": -23.289723,
        "lonEnd": 119.1574,
        "length": 0,
        "surfacetype": 4
      }
    ],
    "id": 33379
  },
  {
    "type": 1,
    "icao": "YNWN",
    "lat": -23.418503,
    "lon": 119.80303599999999,
    "communications": [
      {
        "type": 51,
        "frequency": 11960,
        "name": "ACTIVATE LIGHTS ONLY MULT"
      },
      {
        "type": 51,
        "frequency": 12340,
        "name": "MELBOURNE CENTRE MULT"
      },
      {
        "type": 51,
        "frequency": 12670,
        "name": "NEWMAN MULT"
      }
    ],
    "elevation": 1724,
    "tower": true,
    "name": "Newman",
    "runways": [
      {
        "type": 100,
        "width": 29.87,
        "surfaceType": null,
        "numberStart": "05",
        "numberEnd": "23",
        "latStart": -23.423761,
        "lonStart": 119.794648,
        "latEnd": -23.413245,
        "lonEnd": 119.811424,
        "length": 0,
        "surfacetype": 1
      }
    ],
    "id": 34094
  },
  {
    "type": 1,
    "icao": "YRRG",
    "lat": -23.10169948,
    "lon": 119.35900595000001,
    "communications": [],
    "elevation": 2185,
    "tower": false,
    "name": "Rhodes Ridge",
    "runways": [
      {
        "type": 100,
        "width": 49.99,
        "surfaceType": null,
        "numberStart": "10",
        "numberEnd": "28",
        "latStart": -23.0997949,
        "lonStart": 119.34996515,
        "latEnd": -23.10360406,
        "lonEnd": 119.36804675,
        "length": 0,
        "surfacetype": 4
      }
    ],
    "id": 34340
  }
]