[
  {
    "type": 1,
    "icao": "KBOK",
    "lat": 42.073864275000005,
    "lon": -124.28977563000001,
    "communications": [
      {
        "type": 50,
        "frequency": 11992,
        "name": "WX ASOS @ CEC"
      },
      {
        "type": 50,
        "frequency": 13202,
        "name": "WX ASOS"
      },
      {
        "type": 51,
        "frequency": 12280,
        "name": "CTAF/UNICOM"
      }
    ],
    "elevation": 458,
    "tower": false,
    "name": "Brookings State",
    "runways": [
      {
        "type": 100,
        "width": 17.98,
        "surfaceType": null,
        "numberStart": "12",
        "numberEnd": "30",
        "latStart": 42.07705947,
        "lonStart": -124.29296651,
        "latEnd": 42.07066908,
        "lonEnd": -124.28658475,
        "length": 0,
        "surfacetype": 1
      }
    ],
    "id": 3242
  },
  {
    "type": 1,
    "icao": "5S6",
    "lat": 42.8579165,
    "lon": -124.5176385,
    "communications": [
      {
        "type": 51,
        "frequency": 12290,
        "name": "CTAF"
      }
    ],
    "elevation": 213,
    "tower": false,
    "name": "CAPE BLANCO STATE",
    "runways": [
      {
        "type": 100,
        "width": 45.72,
        "surfaceType": null,
        "numberStart": "14",
        "numberEnd": "32",
        "latStart": 42.864444,
        "lonStart": -124.520833,
        "latEnd": 42.851389,
        "lonEnd": -124.514444,
        "length": 0,
        "surfacetype": 1
      }
    ],
    "id": 3634
  },
  {
    "type": 1,
    "icao": "4S1",
    "lat": 42.415402055,
    "lon": -124.424934685,
    "communications": [
      {
        "type": 51,
        "frequency": 12280,
        "name": "CTAF/UNICOM"
      }
    ],
    "elevation": 18,
    "tower": false,
    "name": "GOLD BEACH MUNI",
    "runways": [
      {
        "type": 100,
        "width": 22.86,
        "surfaceType": null,
        "numberStart": "16",
        "numberEnd": "34",
        "latStart": 42.41970521,
        "lonStart": -124.42539341,
        "latEnd": 42.4110989,
        "lonEnd": -124.42447596,
        "length": 0,
        "surfacetype": 1
      }
    ],
    "id": 10052
  },
  {
    "type": 1,
    "icao": "6S6",
    "lat": 42.86955444,
    "lon": -124.05926251,
    "communications": [],
    "elevation": 326,
    "tower": false,
    "name": "Powers State",
    "runways": [
      {
        "type": 100,
        "width": 15.24,
        "surfaceType": null,
        "numberStart": "13",
        "numberEnd": "31",
        "latStart": 42.87246216,
        "lonStart": -124.06174162,
        "latEnd": 42.86664672,
        "lonEnd": -124.0567834,
        "length": 0,
        "surfacetype": 3
      }
    ],
    "id": 20480
  },
  {
    "type": 17,
    "icao": "OR36",
    "lat": 42.06705583,
    "lon": -124.29564917,
    "communications": [],
    "elevation": 250,
    "tower": false,
    "name": "[H] Garvins",
    "runways": [
      {
        "type": 102,
        "width": 30.5,
        "surfaceType": 3,
        "numberStart": "H1",
        "numberEnd": null,
        "latStart": 42.06705583,
        "lonStart": -124.29564917,
        "latEnd": null,
        "lonEnd": null,
        "length": 30.5
      }
    ],
    "id": 29888
  }
]