[
  {
    "type": 1,
    "icao": "KAAF",
    "lat": 29.727606666666663,
    "lon": -85.02745316666666,
    "communications": [
      {
        "type": 50,
        "frequency": 11992,
        "name": "ASOS"
      },
      {
        "type": 51,
        "frequency": 12280,
        "name": "CTAF/UNICOM"
      },
      {
        "type": 55,
        "frequency": 11975,
        "name": "TYNDALL APP/DEP"
      },
      {
        "type": 55,
        "frequency": 12415,
        "name": "TYNDALL APP/DEP"
      }
    ],
    "elevation": 20,
    "tower": false,
    "name": "Apalachicola Muni",
    "runways": [
      {
        "type": 100,
        "width": 45.72,
        "surfaceType": null,
        "numberStart": "13",
        "numberEnd": "31",
        "latStart": 29.732911,
        "lonStart": -85.034886,
        "latEnd": 29.72245,
        "lonEnd": -85.023028,
        "length": 0,
        "surfacetype": 2
      },
      {
        "type": 100,
        "width": 45.72,
        "surfaceType": null,
        "numberStart": "18",
        "numberEnd": "36",
        "latStart": 29.736444,
        "lonStart": -85.023083,
        "latEnd": 29.722008,
        "lonEnd": -85.023172,
        "length": 0,
        "surfacetype": 2
      },
      {
        "type": 100,
        "width": 45.72,
        "surfaceType": null,
        "numberStart": "06",
        "numberEnd": "24",
        "latStart": 29.722458,
        "lonStart": -85.037214,
        "latEnd": 29.729369,
        "lonEnd": -85.023336,
        "length": 0,
        "surfacetype": 2
      }
    ],
    "id": 1107
  },
  {
    "type": 1,
    "icao": "A51",
    "lat": 29.75854361,
    "lon": -85.28908473,
    "communications": [
      {
        "type": 51,
        "frequency": 12290,
        "name": "CTAF/UNICOM"
      }
    ],
    "elevation": 13,
    "tower": false,
    "name": "Costin St Joe",
    "runways": [
      {
        "type": 100,
        "width": 19.81,
        "surfaceType": null,
        "numberStart": "18",
        "numberEnd": "36",
        "latStart": 29.76434501,
        "lonStart": -85.28908473,
        "latEnd": 29.75274221,
        "lonEnd": -85.28908473,
        "length": 0,
        "surfacetype": 3
      }
    ],
    "id": 5376
  }
]