[
  {
    "type": 1,
    "icao": "AB5",
    "lat": 56.675289,
    "lon": -37.207925575000004,
    "communications": [],
    "elevation": 442,
    "tower": false,
    "name": "Bronson Creek",
    "runways": [
      {
        "type": 100,
        "width": 45.72,
        "surfaceType": null,
        "numberStart": "03",
        "numberEnd": "21",
        "latStart": 56.67106713,
        "lonStart": -131.09536202,
        "latEnd": 56.67951087,
        "lonEnd": -131.07568998,
        "length": 0,
        "surfacetype": 5
      }
    ],
    "id": 3235
  },
  {
    "type": 1,
    "icao": "PAWG",
    "lat": 56.4843235,
    "lon": -37.9512265,
    "communications": [
      {
        "type": 50,
        "frequency": 12850,
        "name": "AWOS 3"
      },
      {
        "type": 51,
        "frequency": 12260,
        "name": "CTAF"
      }
    ],
    "elevation": 43,
    "tower": false,
    "name": "WRANGELL",
    "runways": [
      {
        "type": 100,
        "width": 45.72,
        "surfaceType": null,
        "numberStart": "10",
        "numberEnd": "28",
        "latStart": 56.4886,
        "lonStart": -132.3825,
        "latEnd": 56.480047,
        "lonEnd": -132.357164,
        "length": 0,
        "surfacetype": 1
      }
    ],
    "id": 26755
  },
  {
    "type": 16,
    "icao": "68A",
    "lat": 56.466325,
    "lon": -37.966168505000006,
    "communications": [],
    "elevation": 0,
    "tower": false,
    "name": "[S] Wrangell",
    "runways": [
      {
        "type": 101,
        "width": 109.73,
        "surfaceType": null,
        "numberStart": "14",
        "numberEnd": "32",
        "latStart": 56.47806428,
        "lonStart": -132.38692273,
        "latEnd": 56.45458572,
        "lonEnd": -132.37311339,
        "length": 0
      }
    ],
    "id": 34539
  }
]