[
  {
    "type": 1,
    "icao": "LFEF",
    "lat": 47.339899115,
    "lon": 0.9456416225000001,
    "communications": [],
    "elevation": 176,
    "tower": true,
    "name": "Amboise Dierre",
    "runways": [
      {
        "type": 100,
        "width": 28.04,
        "surfaceType": null,
        "numberStart": "11",
        "numberEnd": "29",
        "latStart": 47.34055482,
        "lonStart": 0.94078085,
        "latEnd": 47.33887234,
        "lonEnd": 0.94978359,
        "length": 0,
        "surfacetype": 1
      },
      {
        "type": 100,
        "width": 74.07,
        "surfaceType": null,
        "numberStart": "11L",
        "numberEnd": "29R",
        "latStart": 47.34090762,
        "lonStart": 0.94158604,
        "latEnd": 47.33926168,
        "lonEnd": 0.95041601,
        "length": 0,
        "surfacetype": 3
      }
    ],
    "id": 970
  },
  {
    "type": 1,
    "icao": "LFRM",
    "lat": 47.947839,
    "lon": 0.20129049999999998,
    "communications": [
      {
        "type": 54,
        "frequency": 12590,
        "name": "LE MANS TWR"
      }
    ],
    "elevation": 194,
    "tower": true,
    "name": "Le Mans Arnage",
    "runways": [
      {
        "type": 100,
        "width": 29.87,
        "surfaceType": null,
        "numberStart": "02",
        "numberEnd": "20",
        "latStart": 47.941853,
        "lonStart": 0.197989,
        "latEnd": 47.953825,
        "lonEnd": 0.204592,
        "length": 0,
        "surfacetype": 1
      }
    ],
    "id": 15067
  },
  {
    "type": 1,
    "icao": "LFDL",
    "lat": 47.037222,
    "lon": 0.101389,
    "communications": [],
    "elevation": 315,
    "tower": false,
    "name": "Loudun",
    "runways": [
      {
        "type": 100,
        "width": 60.05,
        "surfaceType": null,
        "numberStart": "09",
        "numberEnd": "27",
        "latStart": 47.03666589,
        "lonStart": 0.0962371,
        "latEnd": 47.03777811,
        "lonEnd": 0.1065409,
        "length": 0,
        "surfacetype": 3
      }
    ],
    "id": 15532
  },
  {
    "type": 1,
    "icao": "LFEN",
    "lat": 47.26780233333333,
    "lon": 0.7008169999999999,
    "communications": [],
    "elevation": 299,
    "tower": false,
    "name": "Tours Sorigny",
    "runways": [
      {
        "type": 100,
        "width": 24.99,
        "surfaceType": null,
        "numberStart": "04",
        "numberEnd": "22",
        "latStart": 47.26558744,
        "lonStart": 0.69840076,
        "latEnd": 47.27050056,
        "lonEnd": 0.70366124,
        "length": 0,
        "surfacetype": 1
      },
      {
        "type": 100,
        "width": 49.99,
        "surfaceType": null,
        "numberStart": "04R",
        "numberEnd": "22L",
        "latStart": 47.26504344,
        "lonStart": 0.69848079,
        "latEnd": 47.26995656,
        "lonEnd": 0.70374121,
        "length": 0,
        "surfacetype": 3
      },
      {
        "type": 100,
        "width": 17.98,
        "surfaceType": null,
        "numberStart": "04L",
        "numberEnd": "22R",
        "latStart": 47.26575262,
        "lonStart": 0.69804943,
        "latEnd": 47.26997338,
        "lonEnd": 0.70256857,
        "length": 0,
        "surfacetype": 3
      }
    ],
    "id": 25505
  },
  {
    "type": 1,
    "icao": "LFOT",
    "lat": 47.43297375,
    "lon": 0.728402,
    "communications": [
      {
        "type": 50,
        "frequency": 11830,
        "name": "TOURS FSS"
      },
      {
        "type": 53,
        "frequency": 12210,
        "name": "TOURS GND"
      },
      {
        "type": 54,
        "frequency": 11830,
        "name": "TOURS INFO"
      },
      {
        "type": 54,
        "frequency": 11830,
        "name": "TOURS TWR"
      },
      {
        "type": 54,
        "frequency": 12210,
        "name": "TOURS TWR"
      },
      {
        "type": 55,
        "frequency": 11995,
        "name": "TOURS GCA APP"
      },
      {
        "type": 55,
        "frequency": 12330,
        "name": "TOURS GCA APP"
      },
      {
        "type": 55,
        "frequency": 12100,
        "name": "TOURS APP"
      }
    ],
    "elevation": 356,
    "tower": true,
    "name": "Tours Val De Loire AB",
    "runways": [
      {
        "type": 100,
        "width": 45.11,
        "surfaceType": null,
        "numberStart": "02",
        "numberEnd": "20",
        "latStart": 47.421786,
        "lonStart": 0.723408,
        "latEnd": 47.442653,
        "lonEnd": 0.7318,
        "length": 0,
        "surfacetype": 2
      },
      {
        "type": 100,
        "width": 60.05,
        "surfaceType": null,
        "numberStart": "02R",
        "numberEnd": "20L",
        "latStart": 47.42721756,
        "lonStart": 0.72657786,
        "latEnd": 47.44023844,
        "lonEnd": 0.73182214,
        "length": 0,
        "surfacetype": 3
      }
    ],
    "id": 25506
  }
]