[
  {
    "type": 1,
    "icao": "YBRL",
    "lat": -16.075678535,
    "lon": 136.30277863,
    "communications": [
      {
        "type": 51,
        "frequency": 12670,
        "name": "BORROLOOLA MULT"
      },
      {
        "type": 54,
        "frequency": 13440,
        "name": "BRISBANE CNTR"
      }
    ],
    "elevation": 54,
    "tower": true,
    "name": "Borroloola",
    "runways": [
      {
        "type": 100,
        "width": 17.98,
        "surfaceType": null,
        "numberStart": "02",
        "numberEnd": "20",
        "latStart": -16.08105952,
        "lonStart": 136.30037848,
        "latEnd": -16.07029755,
        "lonEnd": 136.30517878,
        "length": 0,
        "surfacetype": 1
      }
    ],
    "id": 3025
  },
  {
    "type": 1,
    "icao": "YMEE",
    "lat": -16.8199166,
    "lon": 136.331021655,
    "communications": [],
    "elevation": 632,
    "tower": false,
    "name": "MERLIN",
    "runways": [
      {
        "type": 100,
        "width": 35.97,
        "surfaceType": null,
        "numberStart": "13",
        "numberEnd": "31",
        "latStart": -16.81559171,
        "lonStart": 136.32670399,
        "latEnd": -16.82424149,
        "lonEnd": 136.33533932,
        "length": 0,
        "surfacetype": 15
      }
    ],
    "id": 16042
  },
  {
    "type": 1,
    "icao": "YMHU",
    "lat": -16.4417972,
    "lon": 136.083256595,
    "communications": [
      {
        "type": 51,
        "frequency": 12670,
        "name": "CTAF"
      }
    ],
    "elevation": 131,
    "tower": false,
    "name": "Mcarthur River Mine",
    "runways": [
      {
        "type": 100,
        "width": 22.86,
        "surfaceType": null,
        "numberStart": "06",
        "numberEnd": "24",
        "latStart": -16.44413485,
        "lonStart": 136.07684031,
        "latEnd": -16.43945955,
        "lonEnd": 136.08967288,
        "length": 0,
        "surfacetype": 1
      }
    ],
    "id": 16975
  },
  {
    "type": 1,
    "icao": "YRBR",
    "lat": -16.71718575,
    "lon": 136.944515085,
    "communications": [
      {
        "type": 51,
        "frequency": 12670,
        "name": "CTAF"
      }
    ],
    "elevation": 249,
    "tower": false,
    "name": "Robinson River",
    "runways": [
      {
        "type": 100,
        "width": 86.87,
        "surfaceType": null,
        "numberStart": "13",
        "numberEnd": "31",
        "latStart": -16.71300308,
        "lonStart": 136.94049885,
        "latEnd": -16.72136842,
        "lonEnd": 136.94853132,
        "length": 0,
        "surfacetype": 4
      }
    ],
    "id": 21608
  }
]