[
  {
    "type": 1,
    "icao": "WITT",
    "lat": 5.5235225,
    "lon": 50.4652835,
    "communications": [
      {
        "type": 54,
        "frequency": 12220,
        "name": "TWR"
      }
    ],
    "elevation": 64,
    "tower": false,
    "name": "Banda Aceh Sultan Iskandarmuda",
    "runways": [
      {
        "type": 100,
        "width": 45.11,
        "surfaceType": null,
        "numberStart": "17",
        "numberEnd": "35",
        "latStart": 5.534567,
        "lonStart": 95.418089,
        "latEnd": 5.512478,
        "lonEnd": 95.422656,
        "length": 0,
        "surfacetype": 1
      }
    ],
    "id": 2175
  },
  {
    "type": 1,
    "icao": "WX45",
    "lat": 5.200021,
    "lon": 50.948887309999996,
    "communications": [],
    "elevation": 61,
    "tower": false,
    "name": "Bireun/Teupin Mane (Local Gov)",
    "runways": [
      {
        "type": 100,
        "width": 45.11,
        "surfaceType": null,
        "numberStart": "08",
        "numberEnd": "26",
        "latStart": 5.19955231,
        "lonStart": 96.69728493,
        "latEnd": 5.20048969,
        "lonEnd": 96.70262307,
        "length": 0,
        "surfacetype": 3
      }
    ],
    "id": 2758
  },
  {
    "type": 1,
    "icao": "WITN",
    "lat": 5.8748561200000005,
    "lon": 50.602394225,
    "communications": [
      {
        "type": 50,
        "frequency": 12260,
        "name": "Saleh Info"
      }
    ],
    "elevation": 393,
    "tower": false,
    "name": "Maimun Saleh",
    "runways": [
      {
        "type": 100,
        "width": 31.88,
        "surfaceType": null,
        "numberStart": "10",
        "numberEnd": "28",
        "latStart": 5.87599326,
        "lonStart": 95.33106947,
        "latEnd": 5.87371898,
        "lonEnd": 95.34758821,
        "length": 0,
        "surfacetype": 1
      }
    ],
    "id": 16496
  }
]