[
  {
    "type": 17,
    "icao": "PA42",
    "lat": 41.07036222,
    "lon": -76.23132278,
    "communications": [],
    "elevation": 581,
    "tower": false,
    "name": "[H] Berwick Hospital Corporation Personal",
    "runways": [
      {
        "type": 102,
        "width": 61,
        "surfaceType": 1,
        "numberStart": "H1",
        "numberEnd": null,
        "latStart": 41.07036222,
        "lonStart": -76.23132278,
        "latEnd": null,
        "lonEnd": null,
        "length": 61
      }
    ],
    "id": 28448
  },
  {
    "type": 17,
    "icao": "PA50",
    "lat": 41.00953111,
    "lon": -76.45244528,
    "communications": [],
    "elevation": 660,
    "tower": false,
    "name": "[H] Bloomsburg Hospital",
    "runways": [
      {
        "type": 102,
        "width": 19.8,
        "surfaceType": 1,
        "numberStart": "H1",
        "numberEnd": null,
        "latStart": 41.00953111,
        "lonStart": -76.45244528,
        "latEnd": null,
        "lonEnd": null,
        "length": 19.8
      }
    ],
    "id": 28499
  },
  {
    "type": 17,
    "icao": "3PS6",
    "lat": 41.26007833,
    "lon": -76.9833,
    "communications": [],
    "elevation": 581,
    "tower": false,
    "name": "[H] Divine Providence Hospital",
    "runways": [
      {
        "type": 102,
        "width": 19.8,
        "surfaceType": 2,
        "numberStart": "H1",
        "numberEnd": null,
        "latStart": 41.26007833,
        "lonStart": -76.9833,
        "latEnd": null,
        "lonEnd": null,
        "length": 19.8
      }
    ],
    "id": 29371
  },
  {
    "type": 17,
    "icao": "7PS5",
    "lat": 41.21063722,
    "lon": -76.77329223,
    "communications": [],
    "elevation": 500,
    "tower": false,
    "name": "[H] Muncy Valley Hospital",
    "runways": [
      {
        "type": 102,
        "width": 11.3,
        "surfaceType": 2,
        "numberStart": "H1",
        "numberEnd": null,
        "latStart": 41.21063722,
        "lonStart": -76.77329223,
        "latEnd": null,
        "lonEnd": null,
        "length": 11.3
      }
    ],
    "id": 31495
  },
  {
    "type": 17,
    "icao": "PS89",
    "lat": 41.01203083,
    "lon": -76.40522084,
    "communications": [],
    "elevation": 490,
    "tower": false,
    "name": "[H] Press Enterprise",
    "runways": [
      {
        "type": 102,
        "width": 18.3,
        "surfaceType": 1,
        "numberStart": "H1",
        "numberEnd": null,
        "latStart": 41.01203083,
        "lonStart": -76.40522084,
        "latEnd": null,
        "lonEnd": null,
        "length": 18.3
      }
    ],
    "id": 32153
  },
  {
    "type": 17,
    "icao": "PS81",
    "lat": 41.97924083,
    "lon": -76.52022139,
    "communications": [],
    "elevation": 778,
    "tower": false,
    "name": "[H] Robert Packer Hospital",
    "runways": [
      {
        "type": 102,
        "width": 9.1,
        "surfaceType": 1,
        "numberStart": "H1",
        "numberEnd": null,
        "latStart": 41.97924083,
        "lonStart": -76.52022139,
        "latEnd": null,
        "lonEnd": null,
        "length": 15.2
      }
    ],
    "id": 32382
  },
  {
    "type": 17,
    "icao": "67PA",
    "lat": 41.1667475,
    "lon": -76.91635334,
    "communications": [],
    "elevation": 595,
    "tower": false,
    "name": "[H] West Company",
    "runways": [
      {
        "type": 102,
        "width": 18.3,
        "surfaceType": 3,
        "numberStart": "H1",
        "numberEnd": null,
        "latStart": 41.1667475,
        "lonStart": -76.91635334,
        "latEnd": null,
        "lonEnd": null,
        "length": 18.3
      }
    ],
    "id": 33788
  }
]