[
  {
    "type": 1,
    "icao": "PABM",
    "lat": 59.361665,
    "lon": -47.95343349999999,
    "communications": [],
    "elevation": 663,
    "tower": false,
    "name": "BIG MOUNTAIN AFS",
    "runways": [
      {
        "type": 100,
        "width": 44.2,
        "surfaceType": null,
        "numberStart": "07",
        "numberEnd": "25",
        "latStart": 59.361719,
        "lonStart": -155.268478,
        "latEnd": 59.361611,
        "lonEnd": -155.245967,
        "length": 0,
        "surfacetype": 5
      }
    ],
    "id": 1706
  },
  {
    "type": 1,
    "icao": "PAIL",
    "lat": 59.753866,
    "lon": -47.583183,
    "communications": [
      {
        "type": 50,
        "frequency": 13495,
        "name": "ASOS"
      },
      {
        "type": 50,
        "frequency": 13495,
        "name": "ATIS"
      },
      {
        "type": 51,
        "frequency": 12360,
        "name": "CTAF"
      }
    ],
    "elevation": 186,
    "tower": false,
    "name": "ILIAMNA",
    "runways": [
      {
        "type": 100,
        "width": 30.48,
        "surfaceType": null,
        "numberStart": "07",
        "numberEnd": "25",
        "latStart": 59.751886,
        "lonStart": -154.924069,
        "latEnd": 59.751303,
        "lonEnd": -154.896511,
        "length": 0,
        "surfacetype": 1
      },
      {
        "type": 100,
        "width": 30.48,
        "surfaceType": null,
        "numberStart": "17",
        "numberEnd": "35",
        "latStart": 59.762622,
        "lonStart": -154.909619,
        "latEnd": 59.749653,
        "lonEnd": -154.913719,
        "length": 0,
        "surfacetype": 1
      }
    ],
    "id": 12273
  },
  {
    "type": 1,
    "icao": "PFKK",
    "lat": 59.43264555,
    "lon": -47.68940022,
    "communications": [],
    "elevation": 150,
    "tower": false,
    "name": "Kokhanok",
    "runways": [
      {
        "type": 100,
        "width": 18.29,
        "surfaceType": null,
        "numberStart": "10",
        "numberEnd": "28",
        "latStart": 59.43475321,
        "lonStart": -154.80933833,
        "latEnd": 59.43053789,
        "lonEnd": -154.79607335,
        "length": 0,
        "surfacetype": 5
      }
    ],
    "id": 14046
  },
  {
    "type": 1,
    "icao": "PANO",
    "lat": 59.9802305,
    "lon": -47.43029,
    "communications": [
      {
        "type": 51,
        "frequency": 12290,
        "name": "CTAF"
      },
      {
        "type": 55,
        "frequency": 11880,
        "name": "ANCHORAGE CNTR"
      }
    ],
    "elevation": 314,
    "tower": false,
    "name": "NONDALTON",
    "runways": [
      {
        "type": 100,
        "width": 22.86,
        "surfaceType": null,
        "numberStart": "02",
        "numberEnd": "20",
        "latStart": 59.977197,
        "lonStart": -154.843844,
        "latEnd": 59.983264,
        "lonEnd": -154.834506,
        "length": 0,
        "surfacetype": 5
      }
    ],
    "id": 17971
  },
  {
    "type": 1,
    "icao": "AK04",
    "lat": 59.78960972,
    "lon": -47.17167311,
    "communications": [],
    "elevation": 45,
    "tower": false,
    "name": "Pedro Bay",
    "runways": [
      {
        "type": 100,
        "width": 18.29,
        "surfaceType": null,
        "numberStart": "09",
        "numberEnd": "27",
        "latStart": 59.79115103,
        "lonStart": -154.13141463,
        "latEnd": 59.78806841,
        "lonEnd": -154.11625149,
        "length": 0,
        "surfacetype": 5
      }
    ],
    "id": 19922
  }
]