[
  {
    "type": 1,
    "icao": "BIBL",
    "lat": 65.64537847,
    "lon": 22.679727800000002,
    "communications": [
      {
        "type": 54,
        "frequency": 11860,
        "name": "ATC"
      }
    ],
    "elevation": 152,
    "tower": false,
    "name": "Blonduos",
    "runways": [
      {
        "type": 100,
        "width": 27,
        "surfaceType": null,
        "numberStart": "03",
        "numberEnd": "21",
        "latStart": 65.6412118,
        "lonStart": -20.29008954,
        "latEnd": 65.64954514,
        "lonEnd": -20.28437527,
        "length": 0,
        "surfacetype": 5
      }
    ],
    "id": 2847
  },
  {
    "type": 1,
    "icao": "BIGJ",
    "lat": 65.99541124999999,
    "lon": 22.333657124999995,
    "communications": [
      {
        "type": 50,
        "frequency": 11860,
        "name": "AFIS"
      }
    ],
    "elevation": 68,
    "tower": false,
    "name": "Gjogur",
    "runways": [
      {
        "type": 100,
        "width": 27.74,
        "surfaceType": null,
        "numberStart": "05",
        "numberEnd": "23",
        "latStart": 65.9916025,
        "lonStart": -21.33190575,
        "latEnd": 65.99922,
        "lonEnd": -21.321847,
        "length": 0,
        "surfacetype": 5
      }
    ],
    "id": 10503
  },
  {
    "type": 1,
    "icao": "BIHK",
    "lat": 65.70472258000001,
    "lon": 22.00598746,
    "communications": [
      {
        "type": 50,
        "frequency": 11860,
        "name": "AFIS"
      }
    ],
    "elevation": 89,
    "tower": false,
    "name": "Holmavik",
    "runways": [
      {
        "type": 100,
        "width": 30,
        "surfaceType": null,
        "numberStart": "02",
        "numberEnd": "20",
        "latStart": 65.70024103,
        "lonStart": -21.69722921,
        "latEnd": 65.70920413,
        "lonEnd": -21.69526964,
        "length": 0,
        "surfacetype": 5
      }
    ],
    "id": 11973
  },
  {
    "type": 1,
    "icao": "BIHV",
    "lat": 65.27009377499999,
    "lon": 22.20762869,
    "communications": [
      {
        "type": 50,
        "frequency": 11810,
        "name": "AFIS"
      }
    ],
    "elevation": 164,
    "tower": false,
    "name": "Hvammstangi",
    "runways": [
      {
        "type": 100,
        "width": 30,
        "surfaceType": null,
        "numberStart": "01",
        "numberEnd": "19",
        "latStart": 65.2745291,
        "lonStart": -20.85040107,
        "latEnd": 65.26565845,
        "lonEnd": -20.84677668,
        "length": 0,
        "surfacetype": 3
      }
    ],
    "id": 12234
  }
]