[
  {
    "type": 1,
    "icao": "VTPH",
    "lat": 12.636225,
    "lon": 99.95153049,
    "communications": [
      {
        "type": 53,
        "frequency": 12190,
        "name": "GND"
      },
      {
        "type": 54,
        "frequency": 12270,
        "name": "TWR"
      },
      {
        "type": 55,
        "frequency": 12620,
        "name": "APP"
      }
    ],
    "elevation": 62,
    "tower": true,
    "name": "Hua Hin",
    "runways": [
      {
        "type": 100,
        "width": 35.05,
        "surfaceType": null,
        "numberStart": "16",
        "numberEnd": "34",
        "latStart": 12.645142,
        "lonStart": 99.94816499,
        "latEnd": 12.627308,
        "lonEnd": 99.95489599,
        "length": 0,
        "surfacetype": 1
      }
    ],
    "id": 12130
  },
  {
    "type": 1,
    "icao": "VTZ4",
    "lat": 12.871947875,
    "lon": 99.792983135,
    "communications": [],
    "elevation": 130,
    "tower": false,
    "name": "Kaeng Krajan",
    "runways": [
      {
        "type": 100,
        "width": 49.07,
        "surfaceType": null,
        "numberStart": "3",
        "numberEnd": "21",
        "latStart": 12.86782975,
        "lonStart": 99.79092227,
        "latEnd": 12.876066,
        "lonEnd": 99.795044,
        "length": 0,
        "surfacetype": 4
      }
    ],
    "id": 13530
  },
  {
    "type": 1,
    "icao": "VTBN",
    "lat": 12.417642786666669,
    "lon": 99.86869236333332,
    "communications": [],
    "elevation": 74,
    "tower": false,
    "name": "Pran Buri West",
    "runways": [
      {
        "type": 100,
        "width": 29.87,
        "surfaceType": null,
        "numberStart": "9",
        "numberEnd": "27",
        "latStart": 12.41745936,
        "lonStart": 99.86632602,
        "latEnd": 12.41754713,
        "lonEnd": 99.87276203,
        "length": 0,
        "surfacetype": 1
      },
      {
        "type": 102,
        "width": 9.14,
        "surfaceType": 1,
        "numberStart": "H1",
        "numberEnd": null,
        "latStart": 12.41792187,
        "lonStart": 99.86698904,
        "latEnd": null,
        "lonEnd": null,
        "length": 9.14
      }
    ],
    "id": 20504
  },
  {
    "type": 1,
    "icao": "VTW6",
    "lat": 12.388937,
    "lon": 99.953339,
    "communications": [],
    "elevation": 26,
    "tower": true,
    "name": "Pranburi",
    "runways": [
      {
        "type": 100,
        "width": 22.86,
        "surfaceType": null,
        "numberStart": "07",
        "numberEnd": "25",
        "latStart": 12.38661976,
        "lonStart": 99.94682064,
        "latEnd": 12.39125424,
        "lonEnd": 99.95985736,
        "length": 0,
        "surfacetype": 1
      }
    ],
    "id": 20505
  }
]