[
  {
    "type": 1,
    "icao": "LZKZ",
    "lat": 48.663058165,
    "lon": 34.956543505,
    "communications": [
      {
        "type": 54,
        "frequency": 12040,
        "name": "TWR"
      },
      {
        "type": 50,
        "frequency": 13372,
        "name": "ATIS"
      },
      {
        "type": 55,
        "frequency": 11985,
        "name": "APP"
      }
    ],
    "elevation": 754,
    "tower": true,
    "name": "Kosice - LZKZ",
    "runways": [
      {
        "type": 100,
        "width": 45,
        "surfaceType": null,
        "numberStart": "01",
        "numberEnd": "19",
        "latStart": 48.64946599,
        "lonStart": 21.23643667,
        "latEnd": 48.67665034,
        "lonEnd": 21.24592773,
        "length": 0,
        "surfacetype": 1
      }
    ],
    "id": 14086
  },
  {
    "type": 1,
    "icao": "LZLU",
    "lat": 48.341754734999995,
    "lon": 34.032978076666666,
    "communications": [
      {
        "type": 51,
        "frequency": 12260,
        "name": "INFO"
      }
    ],
    "elevation": 705,
    "tower": true,
    "name": "Lucenec",
    "runways": [
      {
        "type": 100,
        "width": 30,
        "surfaceType": null,
        "numberStart": "13C",
        "numberEnd": "31C",
        "latStart": 48.34256222,
        "lonStart": 19.73143714,
        "latEnd": 48.33771887,
        "lonEnd": 19.73944699,
        "length": 0,
        "surfacetype": 1
      },
      {
        "type": 100,
        "width": 30,
        "surfaceType": null,
        "numberStart": "13R",
        "numberEnd": "31L",
        "latStart": 48.34599271,
        "lonStart": 19.72515151,
        "latEnd": 48.339939,
        "lonEnd": 19.73516447,
        "length": 0,
        "surfacetype": 3
      },
      {
        "type": 100,
        "width": 30,
        "surfaceType": null,
        "numberStart": "13L",
        "numberEnd": "31R",
        "latStart": 48.34639627,
        "lonStart": 19.7257026,
        "latEnd": 48.33791934,
        "lonEnd": 19.73972324,
        "length": 0,
        "surfacetype": 3
      }
    ],
    "id": 15572
  },
  {
    "type": 1,
    "icao": "LZSV",
    "lat": 48.940372690000004,
    "lon": 34.7331162725,
    "communications": [
      {
        "type": 51,
        "frequency": 12350,
        "name": "Traffic"
      }
    ],
    "elevation": 1624,
    "tower": true,
    "name": "Spisska Nova Ves",
    "runways": [
      {
        "type": 100,
        "width": 29.99,
        "surfaceType": null,
        "numberStart": "12R",
        "numberEnd": "30L",
        "latStart": 48.94248143,
        "lonStart": 20.52800279,
        "latEnd": 48.93798075,
        "lonEnd": 20.54202579,
        "length": 0,
        "surfacetype": 3
      },
      {
        "type": 100,
        "width": 39.99,
        "surfaceType": null,
        "numberStart": "12L",
        "numberEnd": "30R",
        "latStart": 48.9427643,
        "lonStart": 20.52821727,
        "latEnd": 48.93826428,
        "lonEnd": 20.54223784,
        "length": 0,
        "surfacetype": 3
      }
    ],
    "id": 23960
  }
]