[
  {
    "type": 1,
    "icao": "ORBM",
    "lat": 36.305761000000004,
    "lon": 43.147400000000005,
    "communications": [
      {
        "type": 50,
        "frequency": 12725,
        "name": "INFO"
      },
      {
        "type": 53,
        "frequency": 13282,
        "name": "GND"
      },
      {
        "type": 54,
        "frequency": 12020,
        "name": "TWR"
      },
      {
        "type": 55,
        "frequency": 11945,
        "name": "APP"
      }
    ],
    "elevation": 709,
    "tower": true,
    "name": "Mosul",
    "runways": [
      {
        "type": 100,
        "width": 44.81,
        "surfaceType": null,
        "numberStart": "15",
        "numberEnd": "33",
        "latStart": 36.3168,
        "lonStart": 43.141775,
        "latEnd": 36.294722,
        "lonEnd": 43.153025,
        "length": 0,
        "surfacetype": 2
      }
    ],
    "id": 23730
  },
  {
    "type": 1,
    "icao": "ORER",
    "lat": 36.23745016666667,
    "lon": 43.95919083333334,
    "communications": [
      {
        "type": 54,
        "frequency": 12880,
        "name": "TWR"
      },
      {
        "type": 55,
        "frequency": 12975,
        "name": "KIRKUK"
      }
    ],
    "elevation": 1341,
    "tower": true,
    "name": "ERBIL INTL",
    "runways": [
      {
        "type": 100,
        "width": 68.58,
        "surfaceType": null,
        "numberStart": "18",
        "numberEnd": "36",
        "latStart": 36.257869,
        "lonStart": 43.947017,
        "latEnd": 36.219878,
        "lonEnd": 43.946653,
        "length": 0,
        "surfacetype": 1
      },
      {
        "type": 100,
        "width": 28.96,
        "surfaceType": null,
        "numberStart": "15",
        "numberEnd": "33",
        "latStart": 36.248728,
        "lonStart": 43.955758,
        "latEnd": 36.226492,
        "lonEnd": 43.970556,
        "length": 0,
        "surfacetype": 1
      },
      {
        "type": 100,
        "width": 32,
        "surfaceType": null,
        "numberStart": "15L",
        "numberEnd": "33R",
        "latStart": 36.240803,
        "lonStart": 43.964294,
        "latEnd": 36.230931,
        "lonEnd": 43.970867,
        "length": 0,
        "surfacetype": 1
      }
    ],
    "id": 23732
  }
]