[
  {
    "type": 1,
    "icao": "LTAI",
    "lat": 36.89959816666667,
    "lon": 33.84226466666667,
    "communications": [
      {
        "type": 50,
        "frequency": 11827,
        "name": "ATIS"
      },
      {
        "type": 52,
        "frequency": 12317,
        "name": "CLNC DEL"
      },
      {
        "type": 53,
        "frequency": 12190,
        "name": "GND"
      },
      {
        "type": 54,
        "frequency": 12610,
        "name": "TWR"
      },
      {
        "type": 55,
        "frequency": 12830,
        "name": "APP"
      }
    ],
    "elevation": 176,
    "tower": true,
    "name": "Antalya",
    "runways": [
      {
        "type": 100,
        "width": 45.11,
        "surfaceType": null,
        "numberStart": "18C",
        "numberEnd": "36C",
        "latStart": 36.915481,
        "lonStart": 30.794747,
        "latEnd": 36.885144,
        "lonEnd": 30.790589,
        "length": 0,
        "surfacetype": 2
      },
      {
        "type": 100,
        "width": 45.11,
        "surfaceType": null,
        "numberStart": "18L",
        "numberEnd": "36R",
        "latStart": 36.91135,
        "lonStart": 30.811406,
        "latEnd": 36.880897,
        "lonEnd": 30.807214,
        "length": 0,
        "surfacetype": 2
      },
      {
        "type": 100,
        "width": 45.11,
        "surfaceType": null,
        "numberStart": "18R",
        "numberEnd": "36L",
        "latStart": 36.915692,
        "lonStart": 30.792369,
        "latEnd": 36.889025,
        "lonEnd": 30.788719,
        "length": 0,
        "surfacetype": 1
      }
    ],
    "id": 1087
  }
]