[
  {
    "type": 1,
    "icao": "SBPR",
    "lat": -19.909166499999998,
    "lon": -31.951221939999996,
    "communications": [
      {
        "type": 50,
        "frequency": 12745,
        "name": "BELO HORIZONTE ATIS"
      },
      {
        "type": 54,
        "frequency": 12585,
        "name": "RDO"
      }
    ],
    "elevation": 3043,
    "tower": false,
    "name": "CARLOS PRATES",
    "runways": [
      {
        "type": 100,
        "width": 18,
        "surfaceType": null,
        "numberStart": "09",
        "numberEnd": "27",
        "latStart": -19.91080677,
        "lonStart": -43.99491765,
        "latEnd": -19.90752623,
        "lonEnd": -43.98674952,
        "length": 0,
        "surfacetype": 1
      }
    ],
    "id": 3682
  },
  {
    "type": 1,
    "icao": "SIVJ",
    "lat": -19.452777779999998,
    "lon": -31.677746615,
    "communications": [],
    "elevation": 2401,
    "tower": false,
    "name": "Cirrus Sociedade Aerodesportiva",
    "runways": [
      {
        "type": 100,
        "width": 39.93,
        "surfaceType": null,
        "numberStart": "13",
        "numberEnd": "31",
        "latStart": -19.45205032,
        "lonStart": -43.90198799,
        "latEnd": -19.45350524,
        "lonEnd": -43.89745644,
        "length": 0,
        "surfacetype": 5
      }
    ],
    "id": 5028
  },
  {
    "type": 1,
    "icao": "SNKD",
    "lat": -19.020277999999998,
    "lon": -31.2302195,
    "communications": [],
    "elevation": 2195,
    "tower": true,
    "name": "Conceicao Do Mato Dentro",
    "runways": [
      {
        "type": 100,
        "width": 22.86,
        "surfaceType": null,
        "numberStart": "16",
        "numberEnd": "34",
        "latStart": -19.017056,
        "lonStart": -43.436939,
        "latEnd": -19.0235,
        "lonEnd": -43.430839,
        "length": 0,
        "surfacetype": 1
      }
    ],
    "id": 5245
  },
  {
    "type": 1,
    "icao": "SWJX",
    "lat": -19.50222222,
    "lon": -31.828837135,
    "communications": [],
    "elevation": 2762,
    "tower": false,
    "name": "Fazenda das Perobas",
    "runways": [
      {
        "type": 100,
        "width": 17.98,
        "surfaceType": null,
        "numberStart": "02",
        "numberEnd": "20",
        "latStart": -19.50446569,
        "lonStart": -44.15769552,
        "latEnd": -19.49997875,
        "lonEnd": -44.15786004,
        "length": 0,
        "surfacetype": 3
      }
    ],
    "id": 9203
  },
  {
    "type": 1,
    "icao": "SWZT",
    "lat": -19.255000000000003,
    "lon": -31.861928920000004,
    "communications": [],
    "elevation": 2451,
    "tower": false,
    "name": "Fazenda do Brejo",
    "runways": [
      {
        "type": 100,
        "width": 22.86,
        "surfaceType": null,
        "numberStart": "03",
        "numberEnd": "21",
        "latStart": -19.26020733,
        "lonStart": -44.47406517,
        "latEnd": -19.24979267,
        "lonEnd": -44.47260149,
        "length": 0,
        "surfacetype": 1
      }
    ],
    "id": 9206
  },
  {
    "type": 1,
    "icao": "SBLS",
    "lat": -19.6616115,
    "lon": -31.7843335,
    "communications": [
      {
        "type": 54,
        "frequency": 12280,
        "name": "RDO"
      }
    ],
    "elevation": 2795,
    "tower": true,
    "name": "LAGOA SANTA",
    "runways": [
      {
        "type": 100,
        "width": 29.87,
        "surfaceType": null,
        "numberStart": "13",
        "numberEnd": "31",
        "latStart": -19.659417,
        "lonStart": -43.904861,
        "latEnd": -19.663806,
        "lonEnd": -43.887942,
        "length": 0,
        "surfacetype": 1
      }
    ],
    "id": 14315
  },
  {
    "type": 1,
    "icao": "SBBH",
    "lat": -19.851179000000002,
    "lon": -31.9084845,
    "communications": [
      {
        "type": 50,
        "frequency": 12745,
        "name": "BELO HORIZONTE ATIS"
      },
      {
        "type": 52,
        "frequency": 12110,
        "name": "BELO HORIZONTE TRAFF"
      },
      {
        "type": 53,
        "frequency": 12160,
        "name": "GND"
      },
      {
        "type": 54,
        "frequency": 11800,
        "name": "BELO HORIZONTE TWR"
      },
      {
        "type": 55,
        "frequency": 12020,
        "name": "BELO HORIZONTE APP"
      },
      {
        "type": 55,
        "frequency": 12910,
        "name": "BELO HORIZONTE APP"
      },
      {
        "type": 55,
        "frequency": 12940,
        "name": "BELO HORIZONTE APP"
      },
      {
        "type": 55,
        "frequency": 11965,
        "name": "BELO HORIZONTE APP"
      }
    ],
    "elevation": 2589,
    "tower": true,
    "name": "Pampulha",
    "runways": [
      {
        "type": 100,
        "width": 45.11,
        "surfaceType": null,
        "numberStart": "13",
        "numberEnd": "31",
        "latStart": -19.847214,
        "lonStart": -43.961825,
        "latEnd": -19.855144,
        "lonEnd": -43.939428,
        "length": 0,
        "surfacetype": 1
      }
    ],
    "id": 19710
  },
  {
    "type": 1,
    "icao": "SNLG",
    "lat": -19.398611109999997,
    "lon": -31.571973959999998,
    "communications": [],
    "elevation": 2621,
    "tower": false,
    "name": "Serra do Cipo",
    "runways": [
      {
        "type": 100,
        "width": 20.12,
        "surfaceType": null,
        "numberStart": "06",
        "numberEnd": "24",
        "latStart": -19.40326069,
        "lonStart": -43.74998639,
        "latEnd": -19.39396153,
        "lonEnd": -43.74279139,
        "length": 0,
        "surfacetype": 5
      }
    ],
    "id": 23291
  },
  {
    "type": 1,
    "icao": "SBCF",
    "lat": -19.6337585,
    "lon": -31.811121999999997,
    "communications": [
      {
        "type": 50,
        "frequency": 12745,
        "name": "BELO HORIZONTE ATIS"
      },
      {
        "type": 52,
        "frequency": 12100,
        "name": "CONFINS CLNC DEL"
      },
      {
        "type": 53,
        "frequency": 12190,
        "name": "GND"
      },
      {
        "type": 54,
        "frequency": 11820,
        "name": "CONFINS TWR"
      },
      {
        "type": 55,
        "frequency": 12020,
        "name": "BELO HORIZONTE APP"
      },
      {
        "type": 55,
        "frequency": 12910,
        "name": "BELO HORIZONTE APP"
      },
      {
        "type": 55,
        "frequency": 12940,
        "name": "BELO HORIZONTE APP"
      },
      {
        "type": 55,
        "frequency": 11965,
        "name": "BELO HORIZONTE APP"
      }
    ],
    "elevation": 2715,
    "tower": true,
    "name": "Tancredo Neves",
    "runways": [
      {
        "type": 100,
        "width": 45.11,
        "surfaceType": null,
        "numberStart": "16",
        "numberEnd": "34",
        "latStart": -19.623556,
        "lonStart": -43.978283,
        "latEnd": -19.643961,
        "lonEnd": -43.959425,
        "length": 0,
        "surfacetype": 1
      }
    ],
    "id": 25026
  }
]