[
  {
    "type": 1,
    "icao": "PAMK",
    "lat": 63.490049,
    "lon": -49.31119150000001,
    "communications": [
      {
        "type": 50,
        "frequency": 11927,
        "name": "ASOS"
      },
      {
        "type": 51,
        "frequency": 12280,
        "name": "CTAF/UNICOM"
      }
    ],
    "elevation": 93,
    "tower": false,
    "name": "ST MICHAEL",
    "runways": [
      {
        "type": 100,
        "width": 22.86,
        "surfaceType": null,
        "numberStart": "02",
        "numberEnd": "20",
        "latStart": 63.485456,
        "lonStart": -162.117025,
        "latEnd": 63.494642,
        "lonEnd": -162.103731,
        "length": 0,
        "surfacetype": 5
      }
    ],
    "id": 22482
  },
  {
    "type": 1,
    "icao": "WBB",
    "lat": 63.51591972,
    "lon": -49.387231619999994,
    "communications": [],
    "elevation": 26,
    "tower": false,
    "name": "Stebbins",
    "runways": [
      {
        "type": 100,
        "width": 14.94,
        "surfaceType": null,
        "numberStart": "05",
        "numberEnd": "23",
        "latStart": 63.51434103,
        "lonStart": -162.29196165,
        "latEnd": 63.51749841,
        "lonEnd": -162.27351725,
        "length": 0,
        "surfacetype": 5
      }
    ],
    "id": 24146
  },
  {
    "type": 16,
    "icao": "XXEI",
    "lat": 63.603125000000006,
    "lon": -49.077254499999995,
    "communications": [],
    "elevation": 0,
    "tower": false,
    "name": "[S] Egg Island",
    "runways": [
      {
        "type": 101,
        "width": 29.87,
        "surfaceType": null,
        "numberStart": "10",
        "numberEnd": "28",
        "latStart": 63.603948,
        "lonStart": -161.756811,
        "latEnd": 63.602302,
        "lonEnd": -161.748312,
        "length": 0
      }
    ],
    "id": 34085
  }
]