[
  {
    "type": 1,
    "icao": "UG11",
    "lat": 40.8876225,
    "lon": 43.413436000000004,
    "communications": [],
    "elevation": 1099,
    "tower": false,
    "name": "DOLLYAR",
    "runways": [
      {
        "type": 100,
        "width": 41.15,
        "surfaceType": null,
        "numberStart": "10",
        "numberEnd": "28",
        "latStart": 40.891506,
        "lonStart": 45.943133,
        "latEnd": 40.883739,
        "lonEnd": 45.970897,
        "length": 0,
        "surfacetype": 2
      }
    ],
    "id": 5836
  },
  {
    "type": 1,
    "icao": "UBBG",
    "lat": 40.7376765,
    "lon": 43.5183165,
    "communications": [
      {
        "type": 50,
        "frequency": 11925,
        "name": "ATIS"
      },
      {
        "type": 54,
        "frequency": 12400,
        "name": "TWR"
      },
      {
        "type": 55,
        "frequency": 12400,
        "name": "APP"
      }
    ],
    "elevation": 1083,
    "tower": true,
    "name": "GANJA",
    "runways": [
      {
        "type": 100,
        "width": 43.89,
        "surfaceType": null,
        "numberStart": "12",
        "numberEnd": "30",
        "latStart": 40.744642,
        "lonStart": 46.305922,
        "latEnd": 40.730711,
        "lonEnd": 46.329242,
        "length": 0,
        "surfacetype": 2
      }
    ],
    "id": 9881
  }
]