[
  {
    "type": 1,
    "icao": "LUBL",
    "lat": 47.838469045,
    "lon": 37.801724715,
    "communications": [
      {
        "type": 54,
        "frequency": 12230,
        "name": "Balti Tower"
      }
    ],
    "elevation": 759,
    "tower": true,
    "name": "BALTI INTL",
    "runways": [
      {
        "type": 100,
        "width": 42.06,
        "surfaceType": null,
        "numberStart": "15",
        "numberEnd": "33",
        "latStart": 47.84746327,
        "lonStart": 27.77397461,
        "latEnd": 47.82947482,
        "lonEnd": 27.78750266,
        "length": 0,
        "surfacetype": 2
      }
    ],
    "id": 1477
  },
  {
    "type": 1,
    "icao": "LRIA",
    "lat": 47.17849,
    "lon": 37.393412500000004,
    "communications": [
      {
        "type": 54,
        "frequency": 11920,
        "name": "TWR"
      },
      {
        "type": 55,
        "frequency": 11920,
        "name": "APP"
      },
      {
        "type": 55,
        "frequency": 11880,
        "name": "PRECISION"
      }
    ],
    "elevation": 397,
    "tower": true,
    "name": "IASI",
    "runways": [
      {
        "type": 100,
        "width": 29.87,
        "surfaceType": null,
        "numberStart": "15",
        "numberEnd": "33",
        "latStart": 47.185711,
        "lonStart": 27.615556,
        "latEnd": 47.171269,
        "lonEnd": 27.625708,
        "length": 0,
        "surfacetype": 2
      }
    ],
    "id": 12250
  },
  {
    "type": 1,
    "icao": "LRSV",
    "lat": 47.6875,
    "lon": 37.015172,
    "communications": [
      {
        "type": 54,
        "frequency": 11830,
        "name": "TWR"
      },
      {
        "type": 55,
        "frequency": 12090,
        "name": "PRECISION"
      }
    ],
    "elevation": 1375,
    "tower": true,
    "name": "STEFAN CEL MARE",
    "runways": [
      {
        "type": 100,
        "width": 29.87,
        "surfaceType": null,
        "numberStart": "16",
        "numberEnd": "34",
        "latStart": 47.695217,
        "lonStart": 26.350561,
        "latEnd": 47.679783,
        "lonEnd": 26.357547,
        "length": 0,
        "surfacetype": 2
      }
    ],
    "id": 22515
  }
]