[
  {
    "type": 1,
    "icao": "MMCE",
    "lat": 18.6518695,
    "lon": -36.580987500000006,
    "communications": [
      {
        "type": 54,
        "frequency": 11840,
        "name": "CARMEN TWR"
      }
    ],
    "elevation": 9,
    "tower": true,
    "name": "CIUDAD DEL CARMEN INTL",
    "runways": [
      {
        "type": 100,
        "width": 45.11,
        "surfaceType": null,
        "numberStart": "13",
        "numberEnd": "31",
        "latStart": 18.659475,
        "lonStart": -91.806239,
        "latEnd": 18.644264,
        "lonEnd": -91.792722,
        "length": 0,
        "surfacetype": 1
      }
    ],
    "id": 3945
  },
  {
    "type": 1,
    "icao": "TNCM",
    "lat": 18.041264666666667,
    "lon": -36.061363,
    "communications": [
      {
        "type": 54,
        "frequency": 11870,
        "name": "JULIANA TWR"
      },
      {
        "type": 55,
        "frequency": 12894,
        "name": "JULIANA APP"
      }
    ],
    "elevation": 12,
    "tower": true,
    "name": "St Maarten - Princess Juliana Intl",
    "runways": [
      {
        "type": 100,
        "width": 45.11,
        "surfaceType": null,
        "numberStart": "10",
        "numberEnd": "28",
        "latStart": 18.039366,
        "lonStart": -63.11961,
        "latEnd": 18.042412,
        "lonEnd": -63.098338,
        "length": 0,
        "surfacetype": 1
      },
      {
        "type": 102,
        "width": 20.1,
        "surfaceType": 1,
        "numberStart": "H2",
        "numberEnd": null,
        "latStart": 18.042016,
        "lonStart": -63.106891,
        "latEnd": null,
        "lonEnd": null,
        "length": 20.1
      }
    ],
    "id": 24052
  }
]