[
  {
    "type": 1,
    "icao": "MBAC",
    "lat": 21.300379999999997,
    "lon": -71.63802286,
    "communications": [
      {
        "type": 51,
        "frequency": 12225,
        "name": "CTAF"
      },
      {
        "type": 55,
        "frequency": 12600,
        "name": "PROVO APCH"
      }
    ],
    "elevation": 8,
    "tower": true,
    "name": "Amergris Cay Intl",
    "runways": [
      {
        "type": 100,
        "width": 29.87,
        "surfaceType": null,
        "numberStart": "07",
        "numberEnd": "25",
        "latStart": 21.29796471,
        "lonStart": -71.64600147,
        "latEnd": 21.30279529,
        "lonEnd": -71.63004425,
        "length": 0,
        "surfacetype": 1
      }
    ],
    "id": 982
  },
  {
    "type": 1,
    "icao": "MBGT",
    "lat": 21.4445305,
    "lon": -71.142325,
    "communications": [
      {
        "type": 53,
        "frequency": 12190,
        "name": "GND"
      },
      {
        "type": 54,
        "frequency": 11860,
        "name": "MCCARTNEY TWR"
      },
      {
        "type": 55,
        "frequency": 12600,
        "name": "PROVO APP"
      }
    ],
    "elevation": 13,
    "tower": true,
    "name": "Jags Mccartney Intl",
    "runways": [
      {
        "type": 100,
        "width": 46.02,
        "surfaceType": null,
        "numberStart": "11",
        "numberEnd": "29",
        "latStart": 21.446711,
        "lonStart": -71.151394,
        "latEnd": 21.44235,
        "lonEnd": -71.133256,
        "length": 0,
        "surfacetype": 1
      }
    ],
    "id": 12882
  },
  {
    "type": 1,
    "icao": "MBMC",
    "lat": 21.83332777,
    "lon": -71.81666666000001,
    "communications": [],
    "elevation": 9,
    "tower": false,
    "name": "Middle Caicos",
    "runways": [
      {
        "type": 100,
        "width": 22.86,
        "surfaceType": null,
        "numberStart": "12",
        "numberEnd": "30",
        "latStart": 21.83547131,
        "lonStart": -71.82210673,
        "latEnd": 21.83118423,
        "lonEnd": -71.81122659,
        "length": 0,
        "surfacetype": 1
      }
    ],
    "id": 17151
  },
  {
    "type": 1,
    "icao": "MXX1",
    "lat": 21.83332777,
    "lon": -71.81666666000001,
    "communications": [],
    "elevation": 9,
    "tower": true,
    "name": "Middle Caicos",
    "runways": [
      {
        "type": 100,
        "width": 45.72,
        "surfaceType": null,
        "numberStart": "12",
        "numberEnd": "30",
        "latStart": 21.83547131,
        "lonStart": -71.82210673,
        "latEnd": 21.83118423,
        "lonEnd": -71.81122659,
        "length": 0,
        "surfacetype": 2
      }
    ],
    "id": 17152
  },
  {
    "type": 1,
    "icao": "MBNC",
    "lat": 21.917475,
    "lon": -71.9395615,
    "communications": [
      {
        "type": 51,
        "frequency": 11885,
        "name": "INFO"
      }
    ],
    "elevation": 10,
    "tower": true,
    "name": "North Caicos Intl",
    "runways": [
      {
        "type": 100,
        "width": 22.86,
        "surfaceType": null,
        "numberStart": "08",
        "numberEnd": "26",
        "latStart": 21.915456,
        "lonStart": -71.945381,
        "latEnd": 21.919494,
        "lonEnd": -71.933742,
        "length": 0,
        "surfacetype": 1
      }
    ],
    "id": 18443
  },
  {
    "type": 1,
    "icao": "MBSY",
    "lat": 21.334023860000002,
    "lon": -71.20145571500001,
    "communications": [],
    "elevation": 5,
    "tower": false,
    "name": "Salt Cay",
    "runways": [
      {
        "type": 100,
        "width": 24.08,
        "surfaceType": null,
        "numberStart": "8",
        "numberEnd": "26",
        "latStart": 21.33292243,
        "lonStart": -71.20544762,
        "latEnd": 21.33512529,
        "lonEnd": -71.19746381,
        "length": 0,
        "surfacetype": 1
      }
    ],
    "id": 22757
  },
  {
    "type": 1,
    "icao": "MBSC",
    "lat": 21.5157405,
    "lon": -71.5285305,
    "communications": [
      {
        "type": 54,
        "frequency": 11890,
        "name": "INFO"
      },
      {
        "type": 55,
        "frequency": 12600,
        "name": "PROVO APP"
      }
    ],
    "elevation": 6,
    "tower": true,
    "name": "South Caicos Intl",
    "runways": [
      {
        "type": 100,
        "width": 29.87,
        "surfaceType": null,
        "numberStart": "11",
        "numberEnd": "29",
        "latStart": 21.516875,
        "lonStart": -71.537253,
        "latEnd": 21.514606,
        "lonEnd": -71.519808,
        "length": 0,
        "surfacetype": 1
      }
    ],
    "id": 23876
  },
  {
    "type": 16,
    "icao": "SP21",
    "lat": 21.546812,
    "lon": -71.529716,
    "communications": [],
    "elevation": 0,
    "tower": false,
    "name": "[S] South Caicos harbor",
    "runways": [
      {
        "type": 101,
        "width": 3047.7,
        "surfaceType": null,
        "numberStart": "18",
        "numberEnd": "36",
        "latStart": 21.5605269,
        "lonStart": -71.529716,
        "latEnd": 21.5330971,
        "lonEnd": -71.529716,
        "length": 0
      }
    ],
    "id": 34458
  }
]