[
  {
    "type": 1,
    "icao": "CYQQ",
    "lat": 49.71258871250001,
    "lon": -124.8917507375,
    "communications": [
      {
        "type": 50,
        "frequency": 11860,
        "name": "CYQQ ATIS"
      },
      {
        "type": 52,
        "frequency": 12370,
        "name": "COMOX CLD"
      },
      {
        "type": 53,
        "frequency": 11975,
        "name": "COMOX GND"
      },
      {
        "type": 54,
        "frequency": 12620,
        "name": "COMOX TWR"
      },
      {
        "type": 55,
        "frequency": 12810,
        "name": "COMOX APP"
      },
      {
        "type": 55,
        "frequency": 13410,
        "name": "COMOX APP"
      },
      {
        "type": 56,
        "frequency": 12370,
        "name": "COMOX DEP"
      }
    ],
    "elevation": 83,
    "tower": true,
    "name": "Comox",
    "runways": [
      {
        "type": 100,
        "width": 60.96,
        "surfaceType": null,
        "numberStart": "12",
        "numberEnd": "30",
        "latStart": 49.72088714,
        "lonStart": -124.9016152,
        "latEnd": 49.70139599,
        "lonEnd": -124.87189579,
        "length": 0,
        "surfacetype": 2
      },
      {
        "type": 100,
        "width": 60.96,
        "surfaceType": null,
        "numberStart": "18",
        "numberEnd": "36",
        "latStart": 49.72036459,
        "lonStart": -124.8927118,
        "latEnd": 49.70770713,
        "lonEnd": -124.90078016,
        "length": 0,
        "surfacetype": 1
      }
    ],
    "id": 5236
  },
  {
    "type": 1,
    "icao": "AH3",
    "lat": 49.679466000000005,
    "lon": -124.980217,
    "communications": [],
    "elevation": 8,
    "tower": false,
    "name": "Courtenay Airpark",
    "runways": [
      {
        "type": 100,
        "width": 17.07,
        "surfaceType": null,
        "numberStart": "13",
        "numberEnd": "31",
        "latStart": 49.681924,
        "lonStart": -124.982435,
        "latEnd": 49.677008,
        "lonEnd": -124.977999,
        "length": 0,
        "surfacetype": 1
      }
    ],
    "id": 5416
  },
  {
    "type": 1,
    "icao": "BS8",
    "lat": 49.322031,
    "lon": -124.931118,
    "communications": [
      {
        "type": 51,
        "frequency": 12300,
        "name": "CTAF"
      }
    ],
    "elevation": 250,
    "tower": false,
    "name": "Port Alberni",
    "runways": [
      {
        "type": 100,
        "width": 22.86,
        "surfaceType": null,
        "numberStart": "12",
        "numberEnd": "30",
        "latStart": 49.32588082,
        "lonStart": -124.93694452,
        "latEnd": 49.31818118,
        "lonEnd": -124.92529148,
        "length": 0,
        "surfacetype": 1
      }
    ],
    "id": 20372
  },
  {
    "type": 1,
    "icao": "CYPW",
    "lat": 49.832363,
    "lon": -124.498891,
    "communications": [
      {
        "type": 54,
        "frequency": 12300,
        "name": "MF"
      },
      {
        "type": 55,
        "frequency": 12370,
        "name": "COMOX TERMINAL"
      }
    ],
    "elevation": 425,
    "tower": true,
    "name": "Powell River",
    "runways": [
      {
        "type": 100,
        "width": 46.02,
        "surfaceType": null,
        "numberStart": "09",
        "numberEnd": "27",
        "latStart": 49.834722,
        "lonStart": -124.50555,
        "latEnd": 49.830004,
        "lonEnd": -124.492232,
        "length": 0,
        "surfacetype": 1
      }
    ],
    "id": 20478
  },
  {
    "type": 1,
    "icao": "AT4",
    "lat": 49.33803441,
    "lon": -124.39441573333333,
    "communications": [
      {
        "type": 51,
        "frequency": 12280,
        "name": "CTAF"
      }
    ],
    "elevation": 191,
    "tower": false,
    "name": "Qualicum Beach",
    "runways": [
      {
        "type": 100,
        "width": 22.86,
        "surfaceType": null,
        "numberStart": "11",
        "numberEnd": "29",
        "latStart": 49.34030626,
        "lonStart": -124.39972335,
        "latEnd": 49.33444974,
        "lonEnd": -124.38775265,
        "length": 0,
        "surfacetype": 1
      },
      {
        "type": 102,
        "width": 28.04,
        "surfaceType": 1,
        "numberStart": "H1",
        "numberEnd": null,
        "latStart": 49.33934723,
        "lonStart": -124.3957712,
        "latEnd": null,
        "lonEnd": null,
        "length": 28.04
      }
    ],
    "id": 20693
  },
  {
    "type": 1,
    "icao": "CYGB",
    "lat": 49.695357,
    "lon": -124.519317,
    "communications": [
      {
        "type": 51,
        "frequency": 12270,
        "name": "CTAF"
      }
    ],
    "elevation": 305,
    "tower": false,
    "name": "Texada/Gillies Bay",
    "runways": [
      {
        "type": 100,
        "width": 22.86,
        "surfaceType": null,
        "numberStart": "14",
        "numberEnd": "32",
        "latStart": 49.698718,
        "lonStart": -124.521479,
        "latEnd": 49.691996,
        "lonEnd": -124.517155,
        "length": 0,
        "surfacetype": 1
      }
    ],
    "id": 25202
  },
  {
    "type": 16,
    "icao": "CXBB",
    "lat": 49.800270999999995,
    "lon": -124.620863,
    "communications": [],
    "elevation": 0,
    "tower": false,
    "name": "[S] Blubber Bay",
    "runways": [
      {
        "type": 101,
        "width": 49.99,
        "surfaceType": null,
        "numberStart": "15",
        "numberEnd": "33",
        "latStart": 49.803782,
        "lonStart": -124.62525,
        "latEnd": 49.79676,
        "lonEnd": -124.616476,
        "length": 0
      }
    ],
    "id": 34005
  },
  {
    "type": 16,
    "icao": "CAA9",
    "lat": 49.279679015,
    "lon": -124.93930863,
    "communications": [],
    "elevation": 109,
    "tower": true,
    "name": "[S] Sproat Lake Mars Base",
    "runways": [
      {
        "type": 101,
        "width": 149.96,
        "surfaceType": null,
        "numberStart": "04",
        "numberEnd": "22",
        "latStart": 49.27181723,
        "lonStart": -124.9527393,
        "latEnd": 49.2875408,
        "lonEnd": -124.92587796,
        "length": 0
      }
    ],
    "id": 34464
  }
]