[
  {
    "type": 1,
    "icao": "SNBM",
    "lat": -21.1260555,
    "lon": -42.394388500000005,
    "communications": [],
    "elevation": 886,
    "tower": false,
    "name": "CRISTIANO FERREIRA VARELLA",
    "runways": [
      {
        "type": 100,
        "width": 22.86,
        "surfaceType": null,
        "numberStart": "12",
        "numberEnd": "30",
        "latStart": -21.125517,
        "lonStart": -42.399844,
        "latEnd": -21.126594,
        "lonEnd": -42.388933,
        "length": 0,
        "surfacetype": 1
      }
    ],
    "id": 4232
  },
  {
    "type": 1,
    "icao": "SNDN",
    "lat": -21.46595,
    "lon": -42.7270375,
    "communications": [],
    "elevation": 919,
    "tower": true,
    "name": "Leopoldina",
    "runways": [
      {
        "type": 100,
        "width": 29.87,
        "surfaceType": null,
        "numberStart": "12",
        "numberEnd": "30",
        "latStart": -21.464647,
        "lonStart": -42.732697,
        "latEnd": -21.467253,
        "lonEnd": -42.721378,
        "length": 0,
        "surfacetype": 1
      }
    ],
    "id": 15175
  },
  {
    "type": 1,
    "icao": "SNUB",
    "lat": -21.120979,
    "lon": -42.8819195,
    "communications": [],
    "elevation": 1115,
    "tower": true,
    "name": "Uba",
    "runways": [
      {
        "type": 100,
        "width": 22.86,
        "surfaceType": null,
        "numberStart": "16",
        "numberEnd": "34",
        "latStart": -21.117469,
        "lonStart": -42.885525,
        "latEnd": -21.124489,
        "lonEnd": -42.878314,
        "length": 0,
        "surfacetype": 1
      }
    ],
    "id": 25861
  },
  {
    "type": 17,
    "icao": "SJVT",
    "lat": -21.91833333,
    "lon": -42.25972222,
    "communications": [],
    "elevation": 325,
    "tower": false,
    "name": "[H] Cimento Rio Branco-Cantagalo",
    "runways": [
      {
        "type": 102,
        "width": 22.9,
        "surfaceType": 2,
        "numberStart": "H1",
        "numberEnd": null,
        "latStart": -21.91833333,
        "lonStart": -42.25972222,
        "latEnd": null,
        "lonEnd": null,
        "length": 22.9
      }
    ],
    "id": 28962
  },
  {
    "type": 17,
    "icao": "SSUG",
    "lat": -21.46055556,
    "lon": -42.69805556,
    "communications": [],
    "elevation": 150,
    "tower": false,
    "name": "[H] Da Aurora",
    "runways": [
      {
        "type": 102,
        "width": 20.1,
        "surfaceType": 2,
        "numberStart": "H1",
        "numberEnd": null,
        "latStart": -21.46055556,
        "lonStart": -42.69805556,
        "latEnd": null,
        "lonEnd": null,
        "length": 20.1
      }
    ],
    "id": 29239
  },
  {
    "type": 17,
    "icao": "SSUE",
    "lat": -21.95111111,
    "lon": -42.89888889,
    "communications": [],
    "elevation": 392,
    "tower": false,
    "name": "[H] Fazenda Cachoeirao",
    "runways": [
      {
        "type": 102,
        "width": 24.1,
        "surfaceType": 2,
        "numberStart": "H1",
        "numberEnd": null,
        "latStart": -21.95111111,
        "lonStart": -42.89888889,
        "latEnd": null,
        "lonEnd": null,
        "length": 24.1
      }
    ],
    "id": 29666
  }
]