[
  {
    "type": 1,
    "icao": "LIMG",
    "lat": 44.050576500000005,
    "lon": 26.08434406,
    "communications": [
      {
        "type": 54,
        "frequency": 12385,
        "name": "INFO"
      }
    ],
    "elevation": 147,
    "tower": false,
    "name": "ALBENGA",
    "runways": [
      {
        "type": 100,
        "width": 45.11,
        "surfaceType": null,
        "numberStart": "09",
        "numberEnd": "27",
        "latStart": 44.05090753,
        "lonStart": 8.11844265,
        "latEnd": 44.05024547,
        "lonEnd": 8.13634926,
        "length": 0,
        "surfacetype": 1
      }
    ],
    "id": 178
  },
  {
    "type": 1,
    "icao": "LILA",
    "lat": 44.924442299999995,
    "lon": 26.774693544999998,
    "communications": [],
    "elevation": 298,
    "tower": false,
    "name": "Alessandria",
    "runways": [
      {
        "type": 100,
        "width": 39.93,
        "surfaceType": null,
        "numberStart": "03",
        "numberEnd": "21",
        "latStart": 44.92775373,
        "lonStart": 8.62825622,
        "latEnd": 44.92113087,
        "lonEnd": 8.62285578,
        "length": 0,
        "surfacetype": 3
      }
    ],
    "id": 851
  },
  {
    "type": 1,
    "icao": "LIMJ",
    "lat": 44.411957415,
    "lon": 26.61631797,
    "communications": [
      {
        "type": 54,
        "frequency": 11860,
        "name": "TWR"
      },
      {
        "type": 55,
        "frequency": 11960,
        "name": "APP"
      }
    ],
    "elevation": 13,
    "tower": true,
    "name": "Genova Sestri",
    "runways": [
      {
        "type": 100,
        "width": 45.11,
        "surfaceType": null,
        "numberStart": "10",
        "numberEnd": "28",
        "latStart": 44.41544087,
        "lonStart": 8.82416198,
        "latEnd": 44.40847396,
        "lonEnd": 8.85957047,
        "length": 0,
        "surfacetype": 1
      }
    ],
    "id": 10397
  },
  {
    "type": 1,
    "icao": "LIMZ",
    "lat": 44.547602999999995,
    "lon": 26.085886499999997,
    "communications": [
      {
        "type": 54,
        "frequency": 11955,
        "name": "CUNEO INFO"
      }
    ],
    "elevation": 1267,
    "tower": false,
    "name": "LEVALDIGI",
    "runways": [
      {
        "type": 100,
        "width": 45.11,
        "surfaceType": null,
        "numberStart": "03",
        "numberEnd": "21",
        "latStart": 44.539625,
        "lonStart": 7.616192,
        "latEnd": 44.555581,
        "lonEnd": 7.630453,
        "length": 0,
        "surfacetype": 1
      }
    ],
    "id": 14498
  },
  {
    "type": 1,
    "icao": "LIMR",
    "lat": 44.7794456,
    "lon": 26.780579865,
    "communications": [],
    "elevation": 607,
    "tower": false,
    "name": "Novi Ligure",
    "runways": [
      {
        "type": 100,
        "width": 29.87,
        "surfaceType": null,
        "numberStart": "18",
        "numberEnd": "36",
        "latStart": 44.78416614,
        "lonStart": 8.78643467,
        "latEnd": 44.77472506,
        "lonEnd": 8.78689913,
        "length": 0,
        "surfacetype": 3
      }
    ],
    "id": 18517
  }
]