[
  {
    "type": 17,
    "icao": "WI94",
    "lat": 43.12666138,
    "lon": -89.34095056,
    "communications": [],
    "elevation": 860,
    "tower": false,
    "name": "[H] Army Guard",
    "runways": [
      {
        "type": 102,
        "width": 30.5,
        "surfaceType": 1,
        "numberStart": "H1",
        "numberEnd": null,
        "latStart": 43.12666138,
        "lonStart": -89.34095056,
        "latEnd": null,
        "lonEnd": null,
        "length": 30.5
      }
    ],
    "id": 28183
  },
  {
    "type": 17,
    "icao": "WI41",
    "lat": 43.32276861,
    "lon": -89.03427667,
    "communications": [],
    "elevation": 858,
    "tower": false,
    "name": "[H] Columbus Community Hospital",
    "runways": [
      {
        "type": 102,
        "width": 12.5,
        "surfaceType": 1,
        "numberStart": "H1",
        "numberEnd": null,
        "latStart": 43.32276861,
        "lonStart": -89.03427667,
        "latEnd": null,
        "lonEnd": null,
        "length": 14.9
      }
    ],
    "id": 29062
  },
  {
    "type": 17,
    "icao": "WS07",
    "lat": 43.62720138,
    "lon": -89.78512445,
    "communications": [],
    "elevation": 898,
    "tower": false,
    "name": "[H] JB",
    "runways": [
      {
        "type": 102,
        "width": 45.7,
        "surfaceType": 2,
        "numberStart": "H1",
        "numberEnd": null,
        "latStart": 43.62720138,
        "lonStart": -89.78512445,
        "latEnd": null,
        "lonEnd": null,
        "length": 48.8
      }
    ],
    "id": 30562
  },
  {
    "type": 17,
    "icao": "WI93",
    "lat": 43.06555166,
    "lon": -89.40178584,
    "communications": [],
    "elevation": 891,
    "tower": false,
    "name": "[H] Meriter Park",
    "runways": [
      {
        "type": 102,
        "width": 24.1,
        "surfaceType": 2,
        "numberStart": "H1",
        "numberEnd": null,
        "latStart": 43.06555166,
        "lonStart": -89.40178584,
        "latEnd": null,
        "lonEnd": null,
        "length": 32.9
      }
    ],
    "id": 31291
  },
  {
    "type": 17,
    "icao": "WS54",
    "lat": 43.55025805,
    "lon": -89.99234778,
    "communications": [],
    "elevation": 938,
    "tower": false,
    "name": "[H] Reedsburg Memorial Hospital",
    "runways": [
      {
        "type": 102,
        "width": 7.6,
        "surfaceType": 1,
        "numberStart": "H1",
        "numberEnd": null,
        "latStart": 43.55025805,
        "lonStart": -89.99234778,
        "latEnd": null,
        "lonEnd": null,
        "length": 7.6
      }
    ],
    "id": 32294
  },
  {
    "type": 17,
    "icao": "WI30",
    "lat": 43.48137166,
    "lon": -89.72956806,
    "communications": [],
    "elevation": 963,
    "tower": false,
    "name": "[H] St Clare Hospital",
    "runways": [
      {
        "type": 102,
        "width": 18.3,
        "surfaceType": 1,
        "numberStart": "H1",
        "numberEnd": null,
        "latStart": 43.48137166,
        "lonStart": -89.72956806,
        "latEnd": null,
        "lonEnd": null,
        "length": 18.3
      }
    ],
    "id": 32869
  },
  {
    "type": 17,
    "icao": "WS52",
    "lat": 43.05777416,
    "lon": -89.40484139,
    "communications": [],
    "elevation": 850,
    "tower": false,
    "name": "[H] St Marys Medical Center",
    "runways": [
      {
        "type": 102,
        "width": 30.5,
        "surfaceType": 1,
        "numberStart": "H1",
        "numberEnd": null,
        "latStart": 43.05777416,
        "lonStart": -89.40484139,
        "latEnd": null,
        "lonEnd": null,
        "length": 30.5
      }
    ],
    "id": 32997
  },
  {
    "type": 17,
    "icao": "WS27",
    "lat": 43.07582916,
    "lon": -89.4328975,
    "communications": [],
    "elevation": 899,
    "tower": false,
    "name": "[H] Uw Hospital & Clinics",
    "runways": [
      {
        "type": 102,
        "width": 30.5,
        "surfaceType": 2,
        "numberStart": "H1",
        "numberEnd": null,
        "latStart": 43.07582916,
        "lonStart": -89.4328975,
        "latEnd": null,
        "lonEnd": null,
        "length": 30.5
      }
    ],
    "id": 33545
  }
]