[
  {
    "type": 1,
    "icao": "LTBU",
    "lat": 41.13825,
    "lon": 34.5261805,
    "communications": [
      {
        "type": 53,
        "frequency": 12190,
        "name": "GND"
      },
      {
        "type": 54,
        "frequency": 12210,
        "name": "TWR"
      },
      {
        "type": 54,
        "frequency": 12037,
        "name": "TWR"
      },
      {
        "type": 55,
        "frequency": 12050,
        "name": "YESILKOY APP"
      },
      {
        "type": 55,
        "frequency": 12110,
        "name": "YESILKOY APP"
      },
      {
        "type": 55,
        "frequency": 12210,
        "name": "YESILKOY APP"
      }
    ],
    "elevation": 574,
    "tower": true,
    "name": "CORLU",
    "runways": [
      {
        "type": 100,
        "width": 45.11,
        "surfaceType": null,
        "numberStart": "05",
        "numberEnd": "23",
        "latStart": 41.129417,
        "lonStart": 27.905278,
        "latEnd": 41.147083,
        "lonEnd": 27.932611,
        "length": 0,
        "surfacetype": 2
      }
    ],
    "id": 4148
  },
  {
    "type": 1,
    "icao": "LB38",
    "lat": 41.840050000000005,
    "lon": 34.074842000000004,
    "communications": [],
    "elevation": 675,
    "tower": false,
    "name": "MUSTRAK",
    "runways": [
      {
        "type": 100,
        "width": 16.76,
        "surfaceType": null,
        "numberStart": "03",
        "numberEnd": "21",
        "latStart": 41.832683,
        "lonStart": 26.302267,
        "latEnd": 41.847417,
        "lonEnd": 26.317044,
        "length": 0,
        "surfacetype": 1
      }
    ],
    "id": 16403
  }
]