[
  {
    "type": 1,
    "icao": "CO47",
    "lat": 39.59796583000001,
    "lon": -106.97449404,
    "communications": [],
    "elevation": 6720,
    "tower": false,
    "name": "Gypsum Creek Ranch",
    "runways": [
      {
        "type": 100,
        "width": 9.14,
        "surfaceType": null,
        "numberStart": "03",
        "numberEnd": "21",
        "latStart": 39.59469588,
        "lonStart": -106.97537428,
        "latEnd": 39.60123578,
        "lonEnd": -106.9736138,
        "length": 0,
        "surfacetype": 4
      }
    ],
    "id": 696
  },
  {
    "type": 1,
    "icao": "KASE",
    "lat": 39.22363672,
    "lon": -106.869065355,
    "communications": [
      {
        "type": 50,
        "frequency": 12040,
        "name": "ATIS"
      },
      {
        "type": 51,
        "frequency": 12295,
        "name": "UNICOM"
      },
      {
        "type": 52,
        "frequency": 12375,
        "name": "CLNC DEL"
      },
      {
        "type": 53,
        "frequency": 12190,
        "name": "GND"
      },
      {
        "type": 54,
        "frequency": 11885,
        "name": "TWR"
      },
      {
        "type": 55,
        "frequency": 12380,
        "name": "APP/DEP"
      }
    ],
    "elevation": 7837,
    "tower": true,
    "name": "Aspen Pitkin County Sardy Field",
    "runways": [
      {
        "type": 100,
        "width": 30.48,
        "surfaceType": null,
        "numberStart": "15",
        "numberEnd": "33",
        "latStart": 39.23275521,
        "lonStart": -106.87341245,
        "latEnd": 39.21451823,
        "lonEnd": -106.86471826,
        "length": 0,
        "surfacetype": 1
      }
    ],
    "id": 2366
  },
  {
    "type": 1,
    "icao": "KEGE",
    "lat": 39.644551597777784,
    "lon": -106.91577085888889,
    "communications": [
      {
        "type": 50,
        "frequency": 13557,
        "name": "ATIS"
      },
      {
        "type": 51,
        "frequency": 11980,
        "name": "CTAF"
      },
      {
        "type": 53,
        "frequency": 12180,
        "name": "GND"
      },
      {
        "type": 52,
        "frequency": 12475,
        "name": "DLV"
      },
      {
        "type": 54,
        "frequency": 11980,
        "name": "TWR"
      }
    ],
    "elevation": 6546,
    "tower": true,
    "name": "Eagle County Regional",
    "runways": [
      {
        "type": 100,
        "width": 45.72,
        "surfaceType": null,
        "numberStart": "07",
        "numberEnd": "25",
        "latStart": 39.64096951,
        "lonStart": -106.93354331,
        "latEnd": 39.64444368,
        "lonEnd": -106.90180319,
        "length": 0,
        "surfacetype": 1
      },
      {
        "type": 102,
        "width": 13.7,
        "surfaceType": 15,
        "numberStart": "H1",
        "numberEnd": null,
        "latStart": 39.64520086,
        "lonStart": -106.91421652,
        "latEnd": null,
        "lonEnd": null,
        "length": 13.8
      },
      {
        "type": 102,
        "width": 13.7,
        "surfaceType": 15,
        "numberStart": "H2",
        "numberEnd": null,
        "latStart": 39.64516156,
        "lonStart": -106.91455254,
        "latEnd": null,
        "lonEnd": null,
        "length": 13.8
      },
      {
        "type": 102,
        "width": 13.7,
        "surfaceType": 15,
        "numberStart": "H3",
        "numberEnd": null,
        "latStart": 39.64511734,
        "lonStart": -106.91491834,
        "latEnd": null,
        "lonEnd": null,
        "length": 13.8
      },
      {
        "type": 102,
        "width": 13.7,
        "surfaceType": 15,
        "numberStart": "H4",
        "numberEnd": null,
        "latStart": 39.64507313,
        "lonStart": -106.9152735,
        "latEnd": null,
        "lonEnd": null,
        "length": 13.8
      },
      {
        "type": 102,
        "width": 13.7,
        "surfaceType": 15,
        "numberStart": "H5",
        "numberEnd": null,
        "latStart": 39.64504037,
        "lonStart": -106.915584,
        "latEnd": null,
        "lonEnd": null,
        "length": 13.8
      },
      {
        "type": 102,
        "width": 13.7,
        "surfaceType": 15,
        "numberStart": "H6",
        "numberEnd": null,
        "latStart": 39.6449978,
        "lonStart": -106.91587536,
        "latEnd": null,
        "lonEnd": null,
        "length": 13.8
      },
      {
        "type": 102,
        "width": 13.7,
        "surfaceType": 15,
        "numberStart": "H7",
        "numberEnd": null,
        "latStart": 39.64496013,
        "lonStart": -106.91617097,
        "latEnd": null,
        "lonEnd": null,
        "length": 13.8
      }
    ],
    "id": 2612
  },
  {
    "type": 1,
    "icao": "KLXV",
    "lat": 39.21969455999999,
    "lon": -106.31605504,
    "communications": [
      {
        "type": 50,
        "frequency": 11837,
        "name": "ASOS"
      },
      {
        "type": 51,
        "frequency": 12280,
        "name": "CTAF/UNICOM"
      }
    ],
    "elevation": 9926,
    "tower": false,
    "name": "LAKE CO",
    "runways": [
      {
        "type": 100,
        "width": 22.86,
        "surfaceType": null,
        "numberStart": "16",
        "numberEnd": "34",
        "latStart": 39.22811916,
        "lonStart": -106.31833595,
        "latEnd": 39.21081191,
        "lonEnd": -106.31454189,
        "length": 0,
        "surfacetype": 1
      },
      {
        "type": 102,
        "width": 30.5,
        "surfaceType": 2,
        "numberStart": "H1",
        "numberEnd": null,
        "latStart": 39.22015261,
        "lonStart": -106.31528728,
        "latEnd": null,
        "lonEnd": null,
        "length": 45.7
      }
    ],
    "id": 2927
  },
  {
    "type": 17,
    "icao": "01CO",
    "lat": 39.24526749,
    "lon": -106.24585612,
    "communications": [],
    "elevation": 10173,
    "tower": false,
    "name": "[H] St Vincent General Hospital",
    "runways": [
      {
        "type": 102,
        "width": 12.2,
        "surfaceType": 1,
        "numberStart": "H1",
        "numberEnd": null,
        "latStart": 39.24526749,
        "lonStart": -106.24585612,
        "latEnd": null,
        "lonEnd": null,
        "length": 38.1
      }
    ],
    "id": 6342
  },
  {
    "type": 17,
    "icao": "4CO9",
    "lat": 39.64359638,
    "lon": -106.84781778,
    "communications": [],
    "elevation": 7500,
    "tower": false,
    "name": "[H] Beaver Creek",
    "runways": [
      {
        "type": 102,
        "width": 11,
        "surfaceType": 2,
        "numberStart": "H1",
        "numberEnd": null,
        "latStart": 39.64359638,
        "lonStart": -106.84781778,
        "latEnd": null,
        "lonEnd": null,
        "length": 11
      }
    ],
    "id": 8020
  },
  {
    "type": 17,
    "icao": "6V7",
    "lat": 39.19387583,
    "lon": -106.84031695,
    "communications": [],
    "elevation": 8140,
    "tower": false,
    "name": "[H] Aspen Valley Hospital",
    "runways": [
      {
        "type": 102,
        "width": 15.2,
        "surfaceType": 2,
        "numberStart": "H1",
        "numberEnd": null,
        "latStart": 39.19387583,
        "lonStart": -106.84031695,
        "latEnd": null,
        "lonEnd": null,
        "length": 15.2
      }
    ],
    "id": 9443
  },
  {
    "type": 17,
    "icao": "78CO",
    "lat": 39.17720944,
    "lon": -106.85615167,
    "communications": [],
    "elevation": 8000,
    "tower": false,
    "name": "[H] Pfister Ranch",
    "runways": [
      {
        "type": 102,
        "width": 30.5,
        "surfaceType": 3,
        "numberStart": "H1",
        "numberEnd": null,
        "latStart": 39.17720944,
        "lonStart": -106.85615167,
        "latEnd": null,
        "lonEnd": null,
        "length": 30.5
      }
    ],
    "id": 13588
  },
  {
    "type": 17,
    "icao": "91CO",
    "lat": 39.58137527,
    "lon": -106.09224278,
    "communications": [],
    "elevation": 9041,
    "tower": false,
    "name": "[H] Summit Medical Center",
    "runways": [
      {
        "type": 102,
        "width": 15.2,
        "surfaceType": 1,
        "numberStart": "H1",
        "numberEnd": null,
        "latStart": 39.58137527,
        "lonStart": -106.09224278,
        "latEnd": null,
        "lonEnd": null,
        "length": 15.2
      }
    ],
    "id": 14053
  },
  {
    "type": 17,
    "icao": "CD18",
    "lat": 39.83331916,
    "lon": -106.06724195,
    "communications": [],
    "elevation": 9174,
    "tower": false,
    "name": "[H] Amax Mill",
    "runways": [
      {
        "type": 102,
        "width": 30.5,
        "surfaceType": 1,
        "numberStart": "H1",
        "numberEnd": null,
        "latStart": 39.83331916,
        "lonStart": -106.06724195,
        "latEnd": null,
        "lonEnd": null,
        "length": 30.5
      }
    ],
    "id": 15138
  },
  {
    "type": 17,
    "icao": "CD38",
    "lat": 39.21637916,
    "lon": -106.08668556,
    "communications": [],
    "elevation": 11104,
    "tower": false,
    "name": "[H] Sacramento",
    "runways": [
      {
        "type": 102,
        "width": 30.5,
        "surfaceType": 4,
        "numberStart": "H1",
        "numberEnd": null,
        "latStart": 39.21637916,
        "lonStart": -106.08668556,
        "latEnd": null,
        "lonEnd": null,
        "length": 30.5
      }
    ],
    "id": 15151
  },
  {
    "type": 17,
    "icao": "CD43",
    "lat": 39.08610361,
    "lon": -106.26835584,
    "communications": [],
    "elevation": 10091,
    "tower": false,
    "name": "[H] Granite",
    "runways": [
      {
        "type": 102,
        "width": 30.5,
        "surfaceType": 3,
        "numberStart": "H1",
        "numberEnd": null,
        "latStart": 39.08610361,
        "lonStart": -106.26835584,
        "latEnd": null,
        "lonEnd": null,
        "length": 30.5
      }
    ],
    "id": 15155
  },
  {
    "type": 17,
    "icao": "CD74",
    "lat": 39.6166525,
    "lon": -106.38391723,
    "communications": [],
    "elevation": 10116,
    "tower": false,
    "name": "[H] Vail Junction",
    "runways": [
      {
        "type": 102,
        "width": 30.5,
        "surfaceType": 3,
        "numberStart": "H1",
        "numberEnd": null,
        "latStart": 39.6166525,
        "lonStart": -106.38391723,
        "latEnd": null,
        "lonEnd": null,
        "length": 30.5
      }
    ],
    "id": 15173
  },
  {
    "type": 17,
    "icao": "CD77",
    "lat": 39.69998611,
    "lon": -106.76725945,
    "communications": [],
    "elevation": 9210,
    "tower": false,
    "name": "[H] Castle Peak",
    "runways": [
      {
        "type": 102,
        "width": 30.5,
        "surfaceType": 3,
        "numberStart": "H1",
        "numberEnd": null,
        "latStart": 39.69998611,
        "lonStart": -106.76725945,
        "latEnd": null,
        "lonEnd": null,
        "length": 30.5
      }
    ],
    "id": 15175
  },
  {
    "type": 1,
    "icao": "CO03",
    "lat": 39.25998527,
    "lon": -106.91226445000001,
    "communications": [],
    "elevation": 8439,
    "tower": false,
    "name": "Aspen",
    "runways": [
      {
        "type": 100,
        "width": 15.24,
        "surfaceType": null,
        "numberStart": "02",
        "numberEnd": "20",
        "latStart": 39.25707755,
        "lonStart": -106.91461107,
        "latEnd": 39.26289299,
        "lonEnd": -106.90991783,
        "length": 0,
        "surfacetype": 4
      }
    ],
    "id": 15474
  },
  {
    "type": 1,
    "icao": "CO11",
    "lat": 39.50720888,
    "lon": -106.04918527999999,
    "communications": [],
    "elevation": 9400,
    "tower": false,
    "name": "Breckenridge",
    "runways": [
      {
        "type": 100,
        "width": 30.48,
        "surfaceType": null,
        "numberStart": "16",
        "numberEnd": "34",
        "latStart": 39.51549355,
        "lonStart": -106.05069438,
        "latEnd": 39.49892421,
        "lonEnd": -106.04767618,
        "length": 0,
        "surfacetype": 5
      }
    ],
    "id": 15481
  },
  {
    "type": 17,
    "icao": "CO75",
    "lat": 39.47304166,
    "lon": -106.03251667,
    "communications": [],
    "elevation": 10083,
    "tower": false,
    "name": "[H] Overlook Athletic Club",
    "runways": [
      {
        "type": 102,
        "width": 15.2,
        "surfaceType": 4,
        "numberStart": "H1",
        "numberEnd": null,
        "latStart": 39.47304166,
        "lonStart": -106.03251667,
        "latEnd": null,
        "lonEnd": null,
        "length": 15.2
      }
    ],
    "id": 15535
  }
]