[
  {
    "type": 1,
    "icao": "OOMS",
    "lat": 23.5955355,
    "lon": 40.941138249999995,
    "communications": [
      {
        "type": 50,
        "frequency": 12680,
        "name": "ATIS"
      },
      {
        "type": 53,
        "frequency": 12180,
        "name": "GND"
      },
      {
        "type": 54,
        "frequency": 11840,
        "name": "TWR"
      },
      {
        "type": 55,
        "frequency": 12120,
        "name": "APP"
      },
      {
        "type": 55,
        "frequency": 12120,
        "name": "RADAR"
      },
      {
        "type": 55,
        "frequency": 11980,
        "name": "RADAR"
      }
    ],
    "elevation": 48,
    "tower": true,
    "name": "SEEB INTL",
    "runways": [
      {
        "type": 100,
        "width": 45.11,
        "surfaceType": null,
        "numberStart": "08",
        "numberEnd": "26",
        "latStart": 23.591658,
        "lonStart": 58.266894,
        "latEnd": 23.594475,
        "lonEnd": 58.301922,
        "length": 0,
        "surfacetype": 1
      },
      {
        "type": 100,
        "width": 29.87,
        "surfaceType": null,
        "numberStart": "02",
        "numberEnd": "20",
        "latStart": 23.594767,
        "lonStart": 58.301942,
        "latEnd": 23.601242,
        "lonEnd": 58.304367,
        "length": 0,
        "surfacetype": 4
      }
    ],
    "id": 22141
  }
]