[
  {
    "type": 1,
    "icao": "EGJA",
    "lat": 49.70656016666666,
    "lon": -2.21517647,
    "communications": [
      {
        "type": 53,
        "frequency": 13050,
        "name": "Alderney Ground"
      },
      {
        "type": 54,
        "frequency": 12535,
        "name": "Alderney Tower"
      },
      {
        "type": 55,
        "frequency": 12865,
        "name": "Guernsey Approach"
      }
    ],
    "elevation": 291,
    "tower": true,
    "name": "Alderney",
    "runways": [
      {
        "type": 100,
        "width": 17.98,
        "surfaceType": null,
        "numberStart": "08",
        "numberEnd": "26",
        "latStart": 49.70599208,
        "lonStart": -2.22085302,
        "latEnd": 49.70744192,
        "lonEnd": -2.2088388,
        "length": 0,
        "surfacetype": 1
      },
      {
        "type": 100,
        "width": 36.88,
        "surfaceType": null,
        "numberStart": "13",
        "numberEnd": "31",
        "latStart": 49.708944,
        "lonStart": -2.221339,
        "latEnd": 49.704425,
        "lonEnd": -2.213936,
        "length": 0,
        "surfacetype": 3
      },
      {
        "type": 100,
        "width": 36.88,
        "surfaceType": null,
        "numberStart": "03",
        "numberEnd": "21",
        "latStart": 49.704269,
        "lonStart": -2.21455,
        "latEnd": 49.708289,
        "lonEnd": -2.211542,
        "length": 0,
        "surfacetype": 3
      }
    ],
    "id": 1553
  },
  {
    "type": 1,
    "icao": "EGJB",
    "lat": 49.4349545,
    "lon": -2.6019646749999996,
    "communications": [
      {
        "type": 53,
        "frequency": 12180,
        "name": "Guernsey Ground"
      },
      {
        "type": 54,
        "frequency": 11995,
        "name": "Guernsey Tower"
      },
      {
        "type": 55,
        "frequency": 12865,
        "name": "Guernsey Approach"
      }
    ],
    "elevation": 333,
    "tower": true,
    "name": "Guernsey",
    "runways": [
      {
        "type": 100,
        "width": 45.11,
        "surfaceType": null,
        "numberStart": "09",
        "numberEnd": "27",
        "latStart": 49.43467825,
        "lonStart": -2.61197477,
        "latEnd": 49.43523075,
        "lonEnd": -2.59195458,
        "length": 0,
        "surfacetype": 1
      }
    ],
    "id": 1554
  },
  {
    "type": 1,
    "icao": "EGJJ",
    "lat": 49.20796367,
    "lon": -2.19529431,
    "communications": [
      {
        "type": 50,
        "frequency": 12972,
        "name": "Jersey Information"
      },
      {
        "type": 53,
        "frequency": 12190,
        "name": "Jersey Ground"
      },
      {
        "type": 54,
        "frequency": 11945,
        "name": "Jersey Tower"
      },
      {
        "type": 55,
        "frequency": 12030,
        "name": "Jersey Approach"
      }
    ],
    "elevation": 275,
    "tower": true,
    "name": "Jersey",
    "runways": [
      {
        "type": 100,
        "width": 46.02,
        "surfaceType": null,
        "numberStart": "08",
        "numberEnd": "26",
        "latStart": 49.20699471,
        "lonStart": -2.20692947,
        "latEnd": 49.20893263,
        "lonEnd": -2.18365915,
        "length": 0,
        "surfacetype": 1
      }
    ],
    "id": 1555
  }
]