[
  {
    "type": 1,
    "icao": "OPLA",
    "lat": 31.52156175,
    "lon": 74.40359105,
    "communications": [
      {
        "type": 50,
        "frequency": 12630,
        "name": "ATIS"
      },
      {
        "type": 53,
        "frequency": 11840,
        "name": "LAHORE GND"
      },
      {
        "type": 54,
        "frequency": 11810,
        "name": "LAHORE TWR"
      },
      {
        "type": 54,
        "frequency": 12180,
        "name": "LAHORE TWR"
      },
      {
        "type": 55,
        "frequency": 12130,
        "name": "LAHORE APP"
      },
      {
        "type": 55,
        "frequency": 12530,
        "name": "LAHORE APP"
      }
    ],
    "elevation": 710,
    "tower": true,
    "name": "ALLAMA IQBAL INTL",
    "runways": [
      {
        "type": 100,
        "width": 46.02,
        "surfaceType": null,
        "numberStart": "18L",
        "numberEnd": "36R",
        "latStart": 31.53667854,
        "lonStart": 74.40484451,
        "latEnd": 31.50644346,
        "lonEnd": 74.40430258,
        "length": 0,
        "surfacetype": 2
      },
      {
        "type": 100,
        "width": 46.02,
        "surfaceType": null,
        "numberStart": "18R",
        "numberEnd": "36L",
        "latStart": 31.53390308,
        "lonStart": 74.40283092,
        "latEnd": 31.50922192,
        "lonEnd": 74.40238619,
        "length": 0,
        "surfacetype": 1
      }
    ],
    "id": 4337
  },
  {
    "type": 1,
    "icao": "VIAR",
    "lat": 31.71119023,
    "lon": 74.796470935,
    "communications": [
      {
        "type": 54,
        "frequency": 11970,
        "name": "TWR"
      },
      {
        "type": 54,
        "frequency": 12435,
        "name": "TWR"
      },
      {
        "type": 55,
        "frequency": 11970,
        "name": "APP"
      }
    ],
    "elevation": 754,
    "tower": true,
    "name": "AMRITSAR",
    "runways": [
      {
        "type": 100,
        "width": 45.11,
        "surfaceType": null,
        "numberStart": "16",
        "numberEnd": "34",
        "latStart": 31.72649146,
        "lonStart": 74.78905887,
        "latEnd": 31.695889,
        "lonEnd": 74.803883,
        "length": 0,
        "surfacetype": 1
      }
    ],
    "id": 5155
  },
  {
    "type": 1,
    "icao": "OPLH",
    "lat": 31.494794499999998,
    "lon": 74.346239,
    "communications": [
      {
        "type": 54,
        "frequency": 11940,
        "name": "TWR"
      }
    ],
    "elevation": 679,
    "tower": true,
    "name": "WALTON",
    "runways": [
      {
        "type": 100,
        "width": 45.72,
        "surfaceType": null,
        "numberStart": "14",
        "numberEnd": "32",
        "latStart": 31.499208,
        "lonStart": 74.341417,
        "latEnd": 31.490381,
        "lonEnd": 74.351061,
        "length": 0,
        "surfacetype": 2
      }
    ],
    "id": 23612
  }
]