[
  {
    "type": 1,
    "icao": "LFMA",
    "lat": 43.5057753375,
    "lon": 14.897364095,
    "communications": [
      {
        "type": 50,
        "frequency": 13622,
        "name": "AIX ATIS"
      },
      {
        "type": 54,
        "frequency": 11875,
        "name": "AIX TWR"
      },
      {
        "type": 53,
        "frequency": 12160,
        "name": "AIX GND"
      },
      {
        "type": 55,
        "frequency": 13122,
        "name": "PROVENCE APP"
      }
    ],
    "elevation": 366,
    "tower": true,
    "name": "Les Milles",
    "runways": [
      {
        "type": 100,
        "width": 30,
        "surfaceType": null,
        "numberStart": "14",
        "numberEnd": "32",
        "latStart": 43.51134717,
        "lonStart": 5.36170732,
        "latEnd": 43.49944417,
        "lonEnd": 5.37290009,
        "length": 0,
        "surfacetype": 1
      },
      {
        "type": 102,
        "width": 14.9,
        "surfaceType": 1,
        "numberStart": "H1",
        "numberEnd": null,
        "latStart": 43.50259315,
        "lonStart": 5.36729331,
        "latEnd": null,
        "lonEnd": null,
        "length": 14.9
      },
      {
        "type": 102,
        "width": 9.1,
        "surfaceType": 3,
        "numberStart": "H2",
        "numberEnd": null,
        "latStart": 43.50971686,
        "lonStart": 5.36101158,
        "latEnd": null,
        "lonEnd": null,
        "length": 9.1
      }
    ],
    "id": 15187
  }
]