[
  {
    "type": 1,
    "icao": "EDDW",
    "lat": 53.046496608571424,
    "lon": 8.787403682857144,
    "communications": [
      {
        "type": 53,
        "frequency": 12175,
        "name": "GND"
      },
      {
        "type": 54,
        "frequency": 12032,
        "name": "TWR"
      },
      {
        "type": 54,
        "frequency": 13482,
        "name": "TWR"
      },
      {
        "type": 55,
        "frequency": 12480,
        "name": "RADAR"
      },
      {
        "type": 55,
        "frequency": 13627,
        "name": "RADAR"
      },
      {
        "type": 50,
        "frequency": 13237,
        "name": "ATIS"
      }
    ],
    "elevation": 14,
    "tower": true,
    "name": "Bremen",
    "runways": [
      {
        "type": 100,
        "width": 46.02,
        "surfaceType": null,
        "numberStart": "09",
        "numberEnd": "27",
        "latStart": 53.04643533,
        "lonStart": 8.77006328,
        "latEnd": 53.04734167,
        "lonEnd": 8.80930913,
        "length": 0,
        "surfacetype": 1
      },
      {
        "type": 100,
        "width": 22.86,
        "surfaceType": null,
        "numberStart": "05",
        "numberEnd": "23",
        "latStart": 53.042567,
        "lonStart": 8.784239,
        "latEnd": 53.046514,
        "lonEnd": 8.7924,
        "length": 0,
        "surfacetype": 1
      },
      {
        "type": 102,
        "width": 32.9,
        "surfaceType": 3,
        "numberStart": "H1",
        "numberEnd": null,
        "latStart": 53.04891933,
        "lonStart": 8.78179615,
        "latEnd": null,
        "lonEnd": null,
        "length": 32.9
      },
      {
        "type": 102,
        "width": 14.9,
        "surfaceType": 2,
        "numberStart": "H2",
        "numberEnd": null,
        "latStart": 53.049071,
        "lonStart": 8.787508,
        "latEnd": null,
        "lonEnd": null,
        "length": 14.9
      },
      {
        "type": 102,
        "width": 42.1,
        "surfaceType": 1,
        "numberStart": "H3",
        "numberEnd": null,
        "latStart": 53.04462793,
        "lonStart": 8.78651022,
        "latEnd": null,
        "lonEnd": null,
        "length": 42.1
      }
    ],
    "id": 1066
  },
  {
    "type": 1,
    "icao": "EDWB",
    "lat": 53.5060305,
    "lon": 8.57393225,
    "communications": [],
    "elevation": 8,
    "tower": false,
    "name": "Bremerhaven-Luneort (clsd)",
    "runways": [
      {
        "type": 100,
        "width": 29.87,
        "surfaceType": null,
        "numberStart": "16",
        "numberEnd": "34",
        "latStart": 53.51225,
        "lonStart": 8.570275,
        "latEnd": 53.501852,
        "lonEnd": 8.57544,
        "length": 0,
        "surfacetype": 1
      },
      {
        "type": 100,
        "width": 18.9,
        "surfaceType": null,
        "numberStart": "07",
        "numberEnd": "25",
        "latStart": 53.503904,
        "lonStart": 8.570414,
        "latEnd": 53.506116,
        "lonEnd": 8.5796,
        "length": 0,
        "surfacetype": 1
      }
    ],
    "id": 1390
  },
  {
    "type": 1,
    "icao": "EDWH",
    "lat": 53.0686195,
    "lon": 8.312461500000001,
    "communications": [
      {
        "type": 54,
        "frequency": 11817,
        "name": "Oldenburg Info"
      }
    ],
    "elevation": 25,
    "tower": true,
    "name": "Oldenburg Hatten",
    "runways": [
      {
        "type": 100,
        "width": 29.87,
        "surfaceType": null,
        "numberStart": "6",
        "numberEnd": "24",
        "latStart": 53.066736,
        "lonStart": 8.307187,
        "latEnd": 53.070503,
        "lonEnd": 8.317736,
        "length": 0,
        "surfacetype": 3
      }
    ],
    "id": 1395
  },
  {
    "type": 1,
    "icao": "EDWI",
    "lat": 53.502983582,
    "lon": 8.05161598,
    "communications": [
      {
        "type": 54,
        "frequency": 12510,
        "name": "Bremen Information"
      },
      {
        "type": 54,
        "frequency": 12925,
        "name": "Wilhelmshaven Info"
      }
    ],
    "elevation": 16,
    "tower": true,
    "name": "Wilhelmshaven Mariensiel",
    "runways": [
      {
        "type": 100,
        "width": 29.87,
        "surfaceType": null,
        "numberStart": "02",
        "numberEnd": "20",
        "latStart": 53.496204,
        "lonStart": 8.048177,
        "latEnd": 53.508351,
        "lonEnd": 8.056415,
        "length": 0,
        "surfacetype": 1
      },
      {
        "type": 100,
        "width": 14.94,
        "surfaceType": null,
        "numberStart": "16",
        "numberEnd": "34",
        "latStart": 53.50544,
        "lonStart": 8.05001359,
        "latEnd": 53.50053816,
        "lonEnd": 8.05385595,
        "length": 0,
        "surfacetype": 1
      },
      {
        "type": 102,
        "width": 16.7,
        "surfaceType": 1,
        "numberStart": "H1",
        "numberEnd": null,
        "latStart": 53.50438475,
        "lonStart": 8.04961836,
        "latEnd": null,
        "lonEnd": null,
        "length": 18.8
      }
    ],
    "id": 1396
  },
  {
    "type": 1,
    "icao": "EDWP",
    "lat": 53.321279000000004,
    "lon": 8.0733235,
    "communications": [
      {
        "type": 54,
        "frequency": 12650,
        "name": "Conneforde Info"
      }
    ],
    "elevation": 29,
    "tower": false,
    "name": "Wiefelstede- Conneforde",
    "runways": [
      {
        "type": 100,
        "width": 30,
        "surfaceType": null,
        "numberStart": "12",
        "numberEnd": "30",
        "latStart": 53.322654,
        "lonStart": 8.069454,
        "latEnd": 53.319904,
        "lonEnd": 8.077193,
        "length": 0,
        "surfacetype": 3
      }
    ],
    "id": 1403
  },
  {
    "type": 1,
    "icao": "EDWQ",
    "lat": 53.036059,
    "lon": 8.505444,
    "communications": [
      {
        "type": 54,
        "frequency": 11862,
        "name": "Ganderkesee Info"
      }
    ],
    "elevation": 96,
    "tower": true,
    "name": "Ganderkesee Atlas Airfield",
    "runways": [
      {
        "type": 100,
        "width": 21.95,
        "surfaceType": null,
        "numberStart": "08",
        "numberEnd": "26",
        "latStart": 53.035274,
        "lonStart": 8.499371,
        "latEnd": 53.036844,
        "lonEnd": 8.511517,
        "length": 0,
        "surfacetype": 1
      }
    ],
    "id": 1404
  },
  {
    "type": 1,
    "icao": "EDWT",
    "lat": 53.538328485,
    "lon": 8.538832195000001,
    "communications": [
      {
        "type": 54,
        "frequency": 12060,
        "name": "Blexen Info"
      }
    ],
    "elevation": 8,
    "tower": true,
    "name": "Blexen",
    "runways": [
      {
        "type": 100,
        "width": 40,
        "surfaceType": null,
        "numberStart": "09",
        "numberEnd": "27",
        "latStart": 53.53846104,
        "lonStart": 8.53126396,
        "latEnd": 53.53819593,
        "lonEnd": 8.54640043,
        "length": 0,
        "surfacetype": 3
      }
    ],
    "id": 1407
  },
  {
    "type": 1,
    "icao": "EDXN",
    "lat": 53.7672585,
    "lon": 8.6433425,
    "communications": [
      {
        "type": 51,
        "frequency": 12102,
        "name": "Spieka Info"
      }
    ],
    "elevation": 71,
    "tower": true,
    "name": "Nordholz - Spieka",
    "runways": [
      {
        "type": 100,
        "width": 29.87,
        "surfaceType": null,
        "numberStart": "08",
        "numberEnd": "26",
        "latStart": 53.766439,
        "lonStart": 8.636535,
        "latEnd": 53.768078,
        "lonEnd": 8.65015,
        "length": 0,
        "surfacetype": 3
      }
    ],
    "id": 1434
  },
  {
    "type": 1,
    "icao": "EDXU",
    "lat": 53.286623915,
    "lon": 8.948353325,
    "communications": [
      {
        "type": 54,
        "frequency": 12285,
        "name": "Huettenbusch Info"
      }
    ],
    "elevation": 9,
    "tower": true,
    "name": "Huettenbusch",
    "runways": [
      {
        "type": 100,
        "width": 25,
        "surfaceType": null,
        "numberStart": "09",
        "numberEnd": "27",
        "latStart": 53.28662983,
        "lonStart": 8.94470765,
        "latEnd": 53.286618,
        "lonEnd": 8.951999,
        "length": 0,
        "surfacetype": 3
      }
    ],
    "id": 1441
  },
  {
    "type": 1,
    "icao": "EDXZ",
    "lat": 53.568130999999994,
    "lon": 8.789305500000001,
    "communications": [
      {
        "type": 54,
        "frequency": 13500,
        "name": "Kuehrstedt Info"
      }
    ],
    "elevation": 25,
    "tower": true,
    "name": "Kuehrstedt-Bederkesa",
    "runways": [
      {
        "type": 100,
        "width": 25,
        "surfaceType": null,
        "numberStart": "12",
        "numberEnd": "30",
        "latStart": 53.569348,
        "lonStart": 8.785397,
        "latEnd": 53.566914,
        "lonEnd": 8.793214,
        "length": 0,
        "surfacetype": 3
      }
    ],
    "id": 1444
  },
  {
    "type": 1,
    "icao": "ETMN",
    "lat": 53.76707783999999,
    "lon": 8.662725246666666,
    "communications": [
      {
        "type": 54,
        "frequency": 12510,
        "name": "BREMEN INFO"
      },
      {
        "type": 54,
        "frequency": 12210,
        "name": "Nordholz tower"
      },
      {
        "type": 55,
        "frequency": 12330,
        "name": "RADAR"
      },
      {
        "type": 55,
        "frequency": 12985,
        "name": "RADAR"
      }
    ],
    "elevation": 74,
    "tower": true,
    "name": "Nordholz AB",
    "runways": [
      {
        "type": 100,
        "width": 45.11,
        "surfaceType": null,
        "numberStart": "08",
        "numberEnd": "26",
        "latStart": 53.765449,
        "lonStart": 8.640389,
        "latEnd": 53.769792,
        "lonEnd": 8.676666,
        "length": 0,
        "surfacetype": 2
      },
      {
        "type": 102,
        "width": 37.6,
        "surfaceType": 2,
        "numberStart": "H1",
        "numberEnd": null,
        "latStart": 53.76599252,
        "lonStart": 8.67112074,
        "latEnd": null,
        "lonEnd": null,
        "length": 40.2
      }
    ],
    "id": 2074
  }
]