[
  {
    "type": 1,
    "icao": "ENRK",
    "lat": 59.396834095,
    "lon": 35.367938475,
    "communications": [
      {
        "type": 51,
        "frequency": 12295,
        "name": "Rakkestad"
      }
    ],
    "elevation": 379,
    "tower": true,
    "name": "ASTORP",
    "runways": [
      {
        "type": 100,
        "width": 17.98,
        "surfaceType": null,
        "numberStart": "15",
        "numberEnd": "33",
        "latStart": 59.40093853,
        "lonStart": 11.34314729,
        "latEnd": 59.39272966,
        "lonEnd": 11.35211798,
        "length": 0,
        "surfacetype": 1
      }
    ],
    "id": 436
  },
  {
    "type": 1,
    "icao": "ENKJ",
    "lat": 59.9693695,
    "lon": 35.494675,
    "communications": [],
    "elevation": 354,
    "tower": true,
    "name": "KJELLER",
    "runways": [
      {
        "type": 100,
        "width": 29.87,
        "surfaceType": null,
        "numberStart": "12",
        "numberEnd": "30",
        "latStart": 59.9733,
        "lonStart": 11.023911,
        "latEnd": 59.965439,
        "lonEnd": 11.048353,
        "length": 0,
        "surfacetype": 1
      }
    ],
    "id": 13422
  },
  {
    "type": 1,
    "icao": "ENRY",
    "lat": 59.378793,
    "lon": 35.070050005,
    "communications": [
      {
        "type": 50,
        "frequency": 13617,
        "name": "RyggeInformation"
      },
      {
        "type": 54,
        "frequency": 11950,
        "name": "Rygge Tower"
      },
      {
        "type": 55,
        "frequency": 12210,
        "name": "APP"
      },
      {
        "type": 55,
        "frequency": 12435,
        "name": "Farris"
      },
      {
        "type": 55,
        "frequency": 12030,
        "name": "ARRIVAL"
      }
    ],
    "elevation": 173,
    "tower": true,
    "name": "RYGGE",
    "runways": [
      {
        "type": 100,
        "width": 45.11,
        "surfaceType": null,
        "numberStart": "12",
        "numberEnd": "30",
        "latStart": 59.383736,
        "lonStart": 10.76625001,
        "latEnd": 59.37385,
        "lonEnd": 10.80460301,
        "length": 0,
        "surfacetype": 1
      }
    ],
    "id": 21095
  },
  {
    "type": 1,
    "icao": "ENSI",
    "lat": 59.70714384,
    "lon": 35.293570235,
    "communications": [],
    "elevation": 351,
    "tower": false,
    "name": "SKI",
    "runways": [
      {
        "type": 100,
        "width": 24.08,
        "surfaceType": null,
        "numberStart": "01",
        "numberEnd": "19",
        "latStart": 59.70946967,
        "lonStart": 10.88232246,
        "latEnd": 59.70481801,
        "lonEnd": 10.88069652,
        "length": 0,
        "surfacetype": 3
      }
    ],
    "id": 22319
  },
  {
    "type": 1,
    "icao": "ESGS",
    "lat": 59.01687287,
    "lon": 35.18022923,
    "communications": [],
    "elevation": 115,
    "tower": false,
    "name": "Stromstad Nasinge",
    "runways": [
      {
        "type": 100,
        "width": 35,
        "surfaceType": null,
        "numberStart": "02",
        "numberEnd": "20",
        "latStart": 59.01265874,
        "lonStart": 11.33937146,
        "latEnd": 59.021087,
        "lonEnd": 11.344075,
        "length": 0,
        "surfacetype": 3
      }
    ],
    "id": 24291
  }
]