[
  {
    "type": 1,
    "icao": "KLGB",
    "lat": 33.81693579681817,
    "lon": -83.61497702000001,
    "communications": [
      {
        "type": 50,
        "frequency": 12775,
        "name": "ATIS"
      },
      {
        "type": 51,
        "frequency": 11940,
        "name": "CTAF"
      },
      {
        "type": 51,
        "frequency": 12295,
        "name": "UNICOM"
      },
      {
        "type": 52,
        "frequency": 11815,
        "name": "DEL"
      },
      {
        "type": 53,
        "frequency": 13300,
        "name": "GND"
      },
      {
        "type": 54,
        "frequency": 11940,
        "name": "TWR"
      },
      {
        "type": 54,
        "frequency": 12050,
        "name": "TWR"
      },
      {
        "type": 55,
        "frequency": 12465,
        "name": "SOCAL APP"
      },
      {
        "type": 56,
        "frequency": 12720,
        "name": "SOCAL DEP"
      }
    ],
    "elevation": 60,
    "tower": true,
    "name": "Long Beach/Daugherty Field",
    "runways": [
      {
        "type": 100,
        "width": 60.96,
        "surfaceType": null,
        "numberStart": "12",
        "numberEnd": "30",
        "latStart": 33.826203,
        "lonStart": -118.161536,
        "latEnd": 33.806867,
        "lonEnd": -118.138142,
        "length": 0,
        "surfacetype": 1
      },
      {
        "type": 100,
        "width": 46.02,
        "surfaceType": null,
        "numberStart": "07L",
        "numberEnd": "25R",
        "latStart": 33.82275,
        "lonStart": -118.163519,
        "latEnd": 33.822694,
        "lonEnd": -118.143136,
        "length": 0,
        "surfacetype": 1
      },
      {
        "type": 100,
        "width": 46.02,
        "surfaceType": null,
        "numberStart": "07R",
        "numberEnd": "25L",
        "latStart": 33.813825,
        "lonStart": -118.161303,
        "latEnd": 33.813836,
        "lonEnd": -118.143447,
        "length": 0,
        "surfacetype": 1
      },
      {
        "type": 100,
        "width": 22.86,
        "surfaceType": null,
        "numberStart": "16R",
        "numberEnd": "34L",
        "latStart": 33.824861,
        "lonStart": -118.155783,
        "latEnd": 33.812581,
        "lonEnd": -118.155769,
        "length": 0,
        "surfacetype": 1
      },
      {
        "type": 100,
        "width": 22.86,
        "surfaceType": null,
        "numberStart": "16L",
        "numberEnd": "34R",
        "latStart": 33.821845,
        "lonStart": -118.14795706,
        "latEnd": 33.8126861,
        "lonEnd": -118.14799351,
        "length": 0,
        "surfacetype": 1
      },
      {
        "type": 102,
        "width": 6.1,
        "surfaceType": 1,
        "numberStart": "H1",
        "numberEnd": null,
        "latStart": 33.81928611,
        "lonStart": -118.14898452,
        "latEnd": null,
        "lonEnd": null,
        "length": 6.1
      },
      {
        "type": 102,
        "width": 11.89,
        "surfaceType": 1,
        "numberStart": "H10",
        "numberEnd": null,
        "latStart": 33.81254378,
        "lonStart": -118.15402607,
        "latEnd": null,
        "lonEnd": null,
        "length": 11.89
      },
      {
        "type": 102,
        "width": 11.89,
        "surfaceType": 1,
        "numberStart": "H11",
        "numberEnd": null,
        "latStart": 33.812417,
        "lonStart": -118.15402584,
        "latEnd": null,
        "lonEnd": null,
        "length": 11.89
      },
      {
        "type": 102,
        "width": 11.89,
        "surfaceType": 1,
        "numberStart": "H12",
        "numberEnd": null,
        "latStart": 33.81229204,
        "lonStart": -118.15402475,
        "latEnd": null,
        "lonEnd": null,
        "length": 11.89
      },
      {
        "type": 102,
        "width": 6.1,
        "surfaceType": 1,
        "numberStart": "H2",
        "numberEnd": null,
        "latStart": 33.81986844,
        "lonStart": -118.14996803,
        "latEnd": null,
        "lonEnd": null,
        "length": 6.1
      },
      {
        "type": 102,
        "width": 6.1,
        "surfaceType": 1,
        "numberStart": "H3",
        "numberEnd": null,
        "latStart": 33.82046296,
        "lonStart": -118.15102896,
        "latEnd": null,
        "lonEnd": null,
        "length": 6.1
      },
      {
        "type": 102,
        "width": 6.1,
        "surfaceType": 1,
        "numberStart": "H4",
        "numberEnd": null,
        "latStart": 33.82094256,
        "lonStart": -118.15212588,
        "latEnd": null,
        "lonEnd": null,
        "length": 6.1
      },
      {
        "type": 102,
        "width": 6.1,
        "surfaceType": 1,
        "numberStart": "H5",
        "numberEnd": null,
        "latStart": 33.81573337,
        "lonStart": -118.15251988,
        "latEnd": null,
        "lonEnd": null,
        "length": 6.1
      },
      {
        "type": 102,
        "width": 6.1,
        "surfaceType": 1,
        "numberStart": "H6",
        "numberEnd": null,
        "latStart": 33.81536858,
        "lonStart": -118.15489072,
        "latEnd": null,
        "lonEnd": null,
        "length": 6.1
      },
      {
        "type": 102,
        "width": 11.89,
        "surfaceType": 1,
        "numberStart": "H7",
        "numberEnd": null,
        "latStart": 33.81666879,
        "lonStart": -118.14101199,
        "latEnd": null,
        "lonEnd": null,
        "length": 11.89
      },
      {
        "type": 102,
        "width": 11.89,
        "surfaceType": 1,
        "numberStart": "H8",
        "numberEnd": null,
        "latStart": 33.81618087,
        "lonStart": -118.14142755,
        "latEnd": null,
        "lonEnd": null,
        "length": 11.89
      },
      {
        "type": 102,
        "width": 11.89,
        "surfaceType": 1,
        "numberStart": "H9",
        "numberEnd": null,
        "latStart": 33.81267493,
        "lonStart": -118.15402629,
        "latEnd": null,
        "lonEnd": null,
        "length": 11.89
      }
    ],
    "id": 15447
  },
  {
    "type": 17,
    "icao": "6GA6",
    "lat": 33.02320055,
    "lon": -83.20098639,
    "communications": [],
    "elevation": 390,
    "tower": false,
    "name": "[H] Central State Hospital",
    "runways": [
      {
        "type": 102,
        "width": 15.2,
        "surfaceType": 2,
        "numberStart": "H1",
        "numberEnd": null,
        "latStart": 33.02320055,
        "lonStart": -83.20098639,
        "latEnd": null,
        "lonEnd": null,
        "length": 15.2
      }
    ],
    "id": 28845
  },
  {
    "type": 17,
    "icao": "5GA1",
    "lat": 33.98732555,
    "lon": -83.97379417,
    "communications": [],
    "elevation": 1068,
    "tower": false,
    "name": "[H] County Police",
    "runways": [
      {
        "type": 102,
        "width": 12.2,
        "surfaceType": 1,
        "numberStart": "H1",
        "numberEnd": null,
        "latStart": 33.98732555,
        "lonStart": -83.97379417,
        "latEnd": null,
        "lonEnd": null,
        "length": 12.2
      }
    ],
    "id": 29165
  },
  {
    "type": 17,
    "icao": "70GA",
    "lat": 33.97954805,
    "lon": -83.97046084,
    "communications": [],
    "elevation": 1040,
    "tower": false,
    "name": "[H] Gdps - Police",
    "runways": [
      {
        "type": 102,
        "width": 9.1,
        "surfaceType": 2,
        "numberStart": "H1",
        "numberEnd": null,
        "latStart": 33.97954805,
        "lonStart": -83.97046084,
        "latEnd": null,
        "lonEnd": null,
        "length": 9.1
      }
    ],
    "id": 29895
  },
  {
    "type": 17,
    "icao": "90GA",
    "lat": 33.06012944,
    "lon": -83.96379862,
    "communications": [],
    "elevation": 588,
    "tower": false,
    "name": "[H] Georgia Public Safety Training Center",
    "runways": [
      {
        "type": 102,
        "width": 9.1,
        "surfaceType": 2,
        "numberStart": "H1",
        "numberEnd": null,
        "latStart": 33.06012944,
        "lonStart": -83.96379862,
        "latEnd": null,
        "lonEnd": null,
        "length": 9.1
      }
    ],
    "id": 29918
  },
  {
    "type": 17,
    "icao": "GA05",
    "lat": 33.55346,
    "lon": -83.47155612,
    "communications": [],
    "elevation": 660,
    "tower": false,
    "name": "[H] Holiday Inn",
    "runways": [
      {
        "type": 102,
        "width": 121.9,
        "surfaceType": 3,
        "numberStart": "H1",
        "numberEnd": null,
        "latStart": 33.55346,
        "lonStart": -83.47155612,
        "latEnd": null,
        "lonEnd": null,
        "length": 121.9
      }
    ],
    "id": 30268
  },
  {
    "type": 17,
    "icao": "GA24",
    "lat": 33.03124166,
    "lon": -83.94490889,
    "communications": [],
    "elevation": 1620,
    "tower": false,
    "name": "[H] Monroe County Hospital",
    "runways": [
      {
        "type": 102,
        "width": 30.5,
        "surfaceType": 3,
        "numberStart": "H1",
        "numberEnd": null,
        "latStart": 33.03124166,
        "lonStart": -83.94490889,
        "latEnd": null,
        "lonEnd": null,
        "length": 45.7
      }
    ],
    "id": 31420
  },
  {
    "type": 17,
    "icao": "71GA",
    "lat": 33.60138888,
    "lon": -83.84861112,
    "communications": [],
    "elevation": 770,
    "tower": false,
    "name": "[H] Newton General Hospital",
    "runways": [
      {
        "type": 102,
        "width": 21.3,
        "surfaceType": 3,
        "numberStart": "H1",
        "numberEnd": null,
        "latStart": 33.60138888,
        "lonStart": -83.84861112,
        "latEnd": null,
        "lonEnd": null,
        "length": 30.5
      }
    ],
    "id": 31612
  },
  {
    "type": 17,
    "icao": "7GA0",
    "lat": 33.94789277,
    "lon": -83.40805556,
    "communications": [],
    "elevation": 735,
    "tower": false,
    "name": "[H] St Marys Health Care Systems",
    "runways": [
      {
        "type": 102,
        "width": 12.2,
        "surfaceType": 1,
        "numberStart": "H1",
        "numberEnd": null,
        "latStart": 33.94789277,
        "lonStart": -83.40805556,
        "latEnd": null,
        "lonEnd": null,
        "length": 12.2
      }
    ],
    "id": 32976
  },
  {
    "type": 17,
    "icao": "GA38",
    "lat": 33.78316972,
    "lon": -83.71795167,
    "communications": [],
    "elevation": 878,
    "tower": false,
    "name": "[H] Walton County Hospital",
    "runways": [
      {
        "type": 102,
        "width": 9.1,
        "surfaceType": 2,
        "numberStart": "H1",
        "numberEnd": null,
        "latStart": 33.78316972,
        "lonStart": -83.71795167,
        "latEnd": null,
        "lonEnd": null,
        "length": 9.1
      }
    ],
    "id": 33718
  }
]