[
  {
    "type": 1,
    "icao": "LB25",
    "lat": 43.4237615,
    "lon": 35.794578,
    "communications": [],
    "elevation": 660,
    "tower": false,
    "name": "BALCHIK",
    "runways": [
      {
        "type": 100,
        "width": 60.05,
        "surfaceType": null,
        "numberStart": "16",
        "numberEnd": "34",
        "latStart": 43.434092,
        "lonStart": 28.175725,
        "latEnd": 43.413431,
        "lonEnd": 28.186881,
        "length": 0,
        "surfacetype": 2
      }
    ],
    "id": 1466
  },
  {
    "type": 1,
    "icao": "LB43",
    "lat": 43.609639,
    "lon": 35.714937500000005,
    "communications": [],
    "elevation": 825,
    "tower": false,
    "name": "DOBRICH",
    "runways": [
      {
        "type": 100,
        "width": 79.86,
        "surfaceType": null,
        "numberStart": "15",
        "numberEnd": "33",
        "latStart": 43.620072,
        "lonStart": 27.830669,
        "latEnd": 43.599206,
        "lonEnd": 27.842272,
        "length": 0,
        "surfacetype": 2
      }
    ],
    "id": 5829
  },
  {
    "type": 1,
    "icao": "LB36",
    "lat": 43.4755555,
    "lon": 35.787514,
    "communications": [],
    "elevation": 760,
    "tower": false,
    "name": "SOKOLOVO",
    "runways": [
      {
        "type": 100,
        "width": 22.86,
        "surfaceType": null,
        "numberStart": "12",
        "numberEnd": "30",
        "latStart": 43.476722,
        "lonStart": 28.100639,
        "latEnd": 43.474389,
        "lonEnd": 28.104806,
        "length": 0,
        "surfacetype": 1
      }
    ],
    "id": 22363
  },
  {
    "type": 1,
    "icao": "LB34",
    "lat": 43.5069445,
    "lon": 35.674681,
    "communications": [],
    "elevation": 905,
    "tower": false,
    "name": "STEFANOVO",
    "runways": [
      {
        "type": 100,
        "width": 22.86,
        "surfaceType": null,
        "numberStart": "17",
        "numberEnd": "35",
        "latStart": 43.508833,
        "lonStart": 27.844306,
        "latEnd": 43.505056,
        "lonEnd": 27.845472,
        "length": 0,
        "surfacetype": 1
      }
    ],
    "id": 22517
  },
  {
    "type": 1,
    "icao": "LBWN",
    "lat": 43.232041499999994,
    "lon": 35.520236,
    "communications": [
      {
        "type": 50,
        "frequency": 11807,
        "name": "ATIS"
      },
      {
        "type": 54,
        "frequency": 11890,
        "name": "TWR"
      },
      {
        "type": 54,
        "frequency": 11950,
        "name": "TWR"
      },
      {
        "type": 55,
        "frequency": 12100,
        "name": "APP"
      },
      {
        "type": 55,
        "frequency": 12460,
        "name": "APP"
      }
    ],
    "elevation": 229,
    "tower": true,
    "name": "Varna",
    "runways": [
      {
        "type": 100,
        "width": 54.86,
        "surfaceType": null,
        "numberStart": "09",
        "numberEnd": "27",
        "latStart": 43.233444,
        "lonStart": 27.809833,
        "latEnd": 43.230639,
        "lonEnd": 27.840639,
        "length": 0,
        "surfacetype": 2
      }
    ],
    "id": 26233
  }
]