[
  {
    "type": 1,
    "icao": "VTY1",
    "lat": 14.026789,
    "lon": 99.33666199999999,
    "communications": [],
    "elevation": 350,
    "tower": true,
    "name": "Grand Garden",
    "runways": [
      {
        "type": 100,
        "width": 30.18,
        "surfaceType": null,
        "numberStart": "18",
        "numberEnd": "36",
        "latStart": 14.02836251,
        "lonStart": 99.33671864,
        "latEnd": 14.02521549,
        "lonEnd": 99.33660536,
        "length": 0,
        "surfacetype": 4
      }
    ],
    "id": 10688
  },
  {
    "type": 1,
    "icao": "VTBG",
    "lat": 14.12600744,
    "lon": 99.44778434,
    "communications": [],
    "elevation": 200,
    "tower": true,
    "name": "Kanchanaburi RTAF",
    "runways": [
      {
        "type": 100,
        "width": 38.1,
        "surfaceType": null,
        "numberStart": "05",
        "numberEnd": "23",
        "latStart": 14.12992595,
        "lonStart": 99.4530268,
        "latEnd": 14.12208893,
        "lonEnd": 99.44254188,
        "length": 0,
        "surfacetype": 1
      }
    ],
    "id": 13585
  },
  {
    "type": 1,
    "icao": "VTBK",
    "lat": 14.101975,
    "lon": 99.9172195,
    "communications": [
      {
        "type": 53,
        "frequency": 12175,
        "name": "GND"
      },
      {
        "type": 54,
        "frequency": 12330,
        "name": "TWR"
      },
      {
        "type": 54,
        "frequency": 11970,
        "name": "TWR"
      },
      {
        "type": 55,
        "frequency": 12775,
        "name": "APP"
      },
      {
        "type": 56,
        "frequency": 13410,
        "name": "DEP"
      }
    ],
    "elevation": 30,
    "tower": true,
    "name": "Nakhon Pathom Kamphaeng Saen RTAF",
    "runways": [
      {
        "type": 100,
        "width": 45.11,
        "surfaceType": null,
        "numberStart": "03",
        "numberEnd": "21",
        "latStart": 14.091178,
        "lonStart": 99.91095,
        "latEnd": 14.112772,
        "lonEnd": 99.923489,
        "length": 0,
        "surfacetype": 2
      }
    ],
    "id": 18064
  },
  {
    "type": 1,
    "icao": "VTW7",
    "lat": 14.062456000000001,
    "lon": 99.360649,
    "communications": [
      {
        "type": 53,
        "frequency": 12700,
        "name": "GND"
      },
      {
        "type": 54,
        "frequency": 12200,
        "name": "KACHANABURI TWR"
      },
      {
        "type": 55,
        "frequency": 12775,
        "name": "KAMPAENG SAENG APP"
      }
    ],
    "elevation": 302,
    "tower": true,
    "name": "River Kwai",
    "runways": [
      {
        "type": 100,
        "width": 24.99,
        "surfaceType": null,
        "numberStart": "01",
        "numberEnd": "19",
        "latStart": 14.05619729,
        "lonStart": 99.35991342,
        "latEnd": 14.06871471,
        "lonEnd": 99.36138458,
        "length": 0,
        "surfacetype": 3
      }
    ],
    "id": 21528
  },
  {
    "type": 1,
    "icao": "VTV1",
    "lat": 14.421513000000001,
    "lon": 99.750221,
    "communications": [],
    "elevation": 157,
    "tower": true,
    "name": "U-Tong",
    "runways": [
      {
        "type": 100,
        "width": 19.51,
        "surfaceType": null,
        "numberStart": "04",
        "numberEnd": "22",
        "latStart": 14.41875617,
        "lonStart": 99.74783248,
        "latEnd": 14.42426983,
        "lonEnd": 99.75260952,
        "length": 0,
        "surfacetype": 4
      }
    ],
    "id": 25781
  }
]