[
  {
    "type": 1,
    "icao": "EGCK",
    "lat": 53.103163578,
    "lon": -4.338131274,
    "communications": [
      {
        "type": 54,
        "frequency": 12225,
        "name": "Caernarfon Radio"
      }
    ],
    "elevation": 0,
    "tower": true,
    "name": "Caernarfon",
    "runways": [
      {
        "type": 100,
        "width": 23,
        "surfaceType": null,
        "numberStart": "02",
        "numberEnd": "20",
        "latStart": 53.1003486,
        "lonStart": -4.34292463,
        "latEnd": 53.10948174,
        "lonEnd": -4.33738765,
        "length": 0,
        "surfacetype": 1
      },
      {
        "type": 100,
        "width": 23,
        "surfaceType": null,
        "numberStart": "08",
        "numberEnd": "26",
        "latStart": 53.10152189,
        "lonStart": -4.34442796,
        "latEnd": 53.10298782,
        "lonEnd": -4.33058096,
        "length": 0,
        "surfacetype": 1
      },
      {
        "type": 102,
        "width": 15,
        "surfaceType": 2,
        "numberStart": "H15",
        "numberEnd": null,
        "latStart": 53.10147784,
        "lonStart": -4.33533517,
        "latEnd": null,
        "lonEnd": null,
        "length": 15
      }
    ],
    "id": 4316
  },
  {
    "type": 1,
    "icao": "EGOQ",
    "lat": 53.25932447,
    "lon": -4.37402912,
    "communications": [
      {
        "type": 54,
        "frequency": 11975,
        "name": "TWR"
      },
      {
        "type": 55,
        "frequency": 12222,
        "name": "VALLEY APP"
      },
      {
        "type": 55,
        "frequency": 12522,
        "name": "RDR"
      }
    ],
    "elevation": 192,
    "tower": true,
    "name": "Mona",
    "runways": [
      {
        "type": 100,
        "width": 46.02,
        "surfaceType": null,
        "numberStart": "04",
        "numberEnd": "22",
        "latStart": 53.25337642,
        "lonStart": -4.38160384,
        "latEnd": 53.26527252,
        "lonEnd": -4.3664544,
        "length": 0,
        "surfacetype": 2
      }
    ],
    "id": 17376
  },
  {
    "type": 1,
    "icao": "EGOV",
    "lat": 53.24852832666667,
    "lon": -4.536472853333334,
    "communications": [
      {
        "type": 50,
        "frequency": 12072,
        "name": "ATIS"
      },
      {
        "type": 53,
        "frequency": 12210,
        "name": "GND"
      },
      {
        "type": 54,
        "frequency": 12210,
        "name": "TWR"
      },
      {
        "type": 55,
        "frequency": 13435,
        "name": "APP"
      },
      {
        "type": 55,
        "frequency": 12522,
        "name": "RADAR"
      }
    ],
    "elevation": 37,
    "tower": true,
    "name": "RAF Valley",
    "runways": [
      {
        "type": 100,
        "width": 46.94,
        "surfaceType": null,
        "numberStart": "14",
        "numberEnd": "32",
        "latStart": 53.25387576,
        "lonStart": -4.54656255,
        "latEnd": 53.24042212,
        "lonEnd": -4.52028578,
        "length": 0,
        "surfacetype": 1
      },
      {
        "type": 100,
        "width": 47.85,
        "surfaceType": null,
        "numberStart": "01",
        "numberEnd": "19",
        "latStart": 53.24325645,
        "lonStart": -4.54049179,
        "latEnd": 53.25816005,
        "lonEnd": -4.53780516,
        "length": 0,
        "surfacetype": 1
      },
      {
        "type": 100,
        "width": 46.94,
        "surfaceType": null,
        "numberStart": "08",
        "numberEnd": "26",
        "latStart": 53.24574146,
        "lonStart": -4.54581003,
        "latEnd": 53.24971412,
        "lonEnd": -4.52788181,
        "length": 0,
        "surfacetype": 1
      }
    ],
    "id": 20792
  },
  {
    "type": 17,
    "icao": "EGCH",
    "lat": 53.29884814,
    "lon": -4.61686201,
    "communications": [],
    "elevation": 39,
    "tower": true,
    "name": "[H] Holyhead [H]",
    "runways": [
      {
        "type": 102,
        "width": 50,
        "surfaceType": 1,
        "numberStart": "H0",
        "numberEnd": null,
        "latStart": 53.29884814,
        "lonStart": -4.61686201,
        "latEnd": null,
        "lonEnd": null,
        "length": 50
      }
    ],
    "id": 30285
  }
]