[
  {
    "type": 1,
    "icao": "EEEI",
    "lat": 59.2602955,
    "lon": 24.208503999999998,
    "communications": [
      {
        "type": 54,
        "frequency": 12090,
        "name": "INFO"
      }
    ],
    "elevation": 64,
    "tower": false,
    "name": "AMARI",
    "runways": [
      {
        "type": 100,
        "width": 45.11,
        "surfaceType": null,
        "numberStart": "07",
        "numberEnd": "25",
        "latStart": 59.257319,
        "lonStart": 24.191919,
        "latEnd": 59.263272,
        "lonEnd": 24.225089,
        "length": 0,
        "surfacetype": 2
      }
    ],
    "id": 262
  },
  {
    "type": 1,
    "icao": "EETN",
    "lat": 59.413400325,
    "lon": 24.83280851,
    "communications": [
      {
        "type": 50,
        "frequency": 12487,
        "name": "ATIS"
      },
      {
        "type": 54,
        "frequency": 12060,
        "name": "TWR"
      },
      {
        "type": 55,
        "frequency": 12790,
        "name": "APP"
      }
    ],
    "elevation": 130,
    "tower": true,
    "name": "Lennart Meri Tallinn",
    "runways": [
      {
        "type": 100,
        "width": 45,
        "surfaceType": null,
        "numberStart": "08",
        "numberEnd": "26",
        "latStart": 59.41346325,
        "lonStart": 24.80566123,
        "latEnd": 59.4133374,
        "lonEnd": 24.85995579,
        "length": 0,
        "surfacetype": 1
      }
    ],
    "id": 15155
  }
]