[
  {
    "type": 1,
    "icao": "FAOB",
    "lat": -34.5615425,
    "lon": 20.2500535,
    "communications": [
      {
        "type": 53,
        "frequency": 11980,
        "name": "GND"
      },
      {
        "type": 54,
        "frequency": 11980,
        "name": "TWR"
      },
      {
        "type": 55,
        "frequency": 11980,
        "name": "APP"
      }
    ],
    "elevation": 52,
    "tower": true,
    "name": "Overberg",
    "runways": [
      {
        "type": 100,
        "width": 46.02,
        "surfaceType": null,
        "numberStart": "17",
        "numberEnd": "35",
        "latStart": -34.55439099,
        "lonStart": 20.2502888,
        "latEnd": -34.57750501,
        "lonEnd": 20.2695512,
        "length": 0,
        "surfacetype": 1
      },
      {
        "type": 100,
        "width": 39.93,
        "surfaceType": null,
        "numberStart": "10",
        "numberEnd": "28",
        "latStart": -34.55954583,
        "lonStart": 20.22903004,
        "latEnd": -34.55472817,
        "lonEnd": 20.25134396,
        "length": 0,
        "surfacetype": 1
      }
    ],
    "id": 16829
  },
  {
    "type": 1,
    "icao": "FASX",
    "lat": -34.048139500000005,
    "lon": 20.4727965,
    "communications": [],
    "elevation": 407,
    "tower": false,
    "name": "Hendrik Swellengrebel",
    "runways": [
      {
        "type": 100,
        "width": 11.89,
        "surfaceType": null,
        "numberStart": "15",
        "numberEnd": "33",
        "latStart": -34.04410804,
        "lonStart": 20.46781744,
        "latEnd": -34.04947596,
        "lonEnd": 20.47657256,
        "length": 0,
        "surfacetype": 1
      },
      {
        "type": 100,
        "width": 45.72,
        "surfaceType": null,
        "numberStart": "06",
        "numberEnd": "24",
        "latStart": -34.0513893,
        "lonStart": 20.47150942,
        "latEnd": -34.0475847,
        "lonEnd": 20.47528658,
        "length": 0,
        "surfacetype": 5
      }
    ],
    "id": 16843
  }
]