[
  {
    "type": 1,
    "icao": "EDWZ",
    "lat": 53.724844000000004,
    "lon": 7.373243,
    "communications": [
      {
        "type": 54,
        "frequency": 12305,
        "name": "Baltrum Info"
      }
    ],
    "elevation": 5,
    "tower": true,
    "name": "Baltrum",
    "runways": [
      {
        "type": 100,
        "width": 14.94,
        "surfaceType": null,
        "numberStart": "10",
        "numberEnd": "28",
        "latStart": 53.72497,
        "lonStart": 7.370529,
        "latEnd": 53.724718,
        "lonEnd": 7.375957,
        "length": 0,
        "surfacetype": 1
      }
    ],
    "id": 2154
  },
  {
    "type": 1,
    "icao": "EDXL",
    "lat": 53.164608,
    "lon": 7.7937275,
    "communications": [
      {
        "type": 54,
        "frequency": 12200,
        "name": "Barssel Info"
      }
    ],
    "elevation": 9,
    "tower": true,
    "name": "Barssel",
    "runways": [
      {
        "type": 100,
        "width": 29.87,
        "surfaceType": null,
        "numberStart": "12",
        "numberEnd": "30",
        "latStart": 53.165971,
        "lonStart": 7.78985,
        "latEnd": 53.163245,
        "lonEnd": 7.797605,
        "length": 0,
        "surfacetype": 3
      }
    ],
    "id": 2289
  },
  {
    "type": 1,
    "icao": "EDWE",
    "lat": 53.39060369999999,
    "lon": 7.22670039,
    "communications": [
      {
        "type": 54,
        "frequency": 11860,
        "name": "Emden Info"
      },
      {
        "type": 55,
        "frequency": 12360,
        "name": "WITTMUND/JEVER RADAR"
      },
      {
        "type": 55,
        "frequency": 12465,
        "name": "BREMEN RADAR"
      }
    ],
    "elevation": 1,
    "tower": true,
    "name": "Emden",
    "runways": [
      {
        "type": 100,
        "width": 29.87,
        "surfaceType": null,
        "numberStart": "07",
        "numberEnd": "25",
        "latStart": 53.38934,
        "lonStart": 7.217272,
        "latEnd": 53.3928,
        "lonEnd": 7.235933,
        "length": 0,
        "surfacetype": 1
      },
      {
        "type": 102,
        "width": 15.7,
        "surfaceType": 1,
        "numberStart": "H",
        "numberEnd": null,
        "latStart": 53.3896711,
        "lonStart": 7.22689617,
        "latEnd": null,
        "lonEnd": null,
        "length": 16.4
      }
    ],
    "id": 7153
  },
  {
    "type": 1,
    "icao": "EDXP",
    "lat": 53.7065985,
    "lon": 7.8203130000000005,
    "communications": [
      {
        "type": 54,
        "frequency": 12240,
        "name": "Harle Info"
      }
    ],
    "elevation": 6,
    "tower": true,
    "name": "Harle",
    "runways": [
      {
        "type": 100,
        "width": 20.12,
        "surfaceType": null,
        "numberStart": "09",
        "numberEnd": "27",
        "latStart": 53.70637,
        "lonStart": 7.816438,
        "latEnd": 53.706827,
        "lonEnd": 7.824188,
        "length": 0,
        "surfacetype": 1
      }
    ],
    "id": 11450
  },
  {
    "type": 1,
    "icao": "ETNJ",
    "lat": 53.533514,
    "lon": 7.888909,
    "communications": [],
    "elevation": 22,
    "tower": false,
    "name": "Jever AB (closed)",
    "runways": [
      {
        "type": 100,
        "width": 30,
        "surfaceType": null,
        "numberStart": "10",
        "numberEnd": "28",
        "latStart": 53.535917,
        "lonStart": 7.869321,
        "latEnd": 53.531111,
        "lonEnd": 7.908497,
        "length": 0,
        "surfacetype": 1
      }
    ],
    "id": 12980
  },
  {
    "type": 1,
    "icao": "EDWJ",
    "lat": 53.680345005,
    "lon": 7.05730844,
    "communications": [
      {
        "type": 54,
        "frequency": 12050,
        "name": "Juist INFO"
      }
    ],
    "elevation": 7,
    "tower": true,
    "name": "Juist",
    "runways": [
      {
        "type": 100,
        "width": 20.12,
        "surfaceType": null,
        "numberStart": "08",
        "numberEnd": "26",
        "latStart": 53.68051,
        "lonStart": 7.051346,
        "latEnd": 53.682003,
        "lonEnd": 7.061652,
        "length": 0,
        "surfacetype": 2
      },
      {
        "type": 100,
        "width": 29.87,
        "surfaceType": null,
        "numberStart": "12",
        "numberEnd": "30",
        "latStart": 53.6806977,
        "lonStart": 7.05506602,
        "latEnd": 53.67951285,
        "lonEnd": 7.06085241,
        "length": 0,
        "surfacetype": 3
      },
      {
        "type": 100,
        "width": 32.97,
        "surfaceType": null,
        "numberStart": "08R",
        "numberEnd": "26L",
        "latStart": 53.67943965,
        "lonStart": 7.05511309,
        "latEnd": 53.67990683,
        "lonEnd": 7.05982112,
        "length": 0,
        "surfacetype": 3
      }
    ],
    "id": 13132
  },
  {
    "type": 1,
    "icao": "EDWL",
    "lat": 53.742617743333334,
    "lon": 7.495817626666667,
    "communications": [
      {
        "type": 54,
        "frequency": 12202,
        "name": "Langeoog INFO"
      }
    ],
    "elevation": 6,
    "tower": true,
    "name": "Langeoog",
    "runways": [
      {
        "type": 100,
        "width": 14.94,
        "surfaceType": null,
        "numberStart": "05",
        "numberEnd": "23",
        "latStart": 53.740668,
        "lonStart": 7.493569,
        "latEnd": 53.744069,
        "lonEnd": 7.501743,
        "length": 0,
        "surfacetype": 1
      },
      {
        "type": 102,
        "width": 14.9,
        "surfaceType": 2,
        "numberStart": "H",
        "numberEnd": null,
        "latStart": 53.74311623,
        "lonStart": 7.49214088,
        "latEnd": null,
        "lonEnd": null,
        "length": 14.9
      }
    ],
    "id": 14930
  },
  {
    "type": 1,
    "icao": "EDWF",
    "lat": 53.271770000000004,
    "lon": 7.441552,
    "communications": [
      {
        "type": 54,
        "frequency": 12510,
        "name": "Bremen Information"
      },
      {
        "type": 54,
        "frequency": 13077,
        "name": "Leer Info"
      }
    ],
    "elevation": 2,
    "tower": true,
    "name": "Leer-Papenburg",
    "runways": [
      {
        "type": 100,
        "width": 20.12,
        "surfaceType": null,
        "numberStart": "08",
        "numberEnd": "26",
        "latStart": 53.270704,
        "lonStart": 7.43228,
        "latEnd": 53.272836,
        "lonEnd": 7.450824,
        "length": 0,
        "surfacetype": 1
      }
    ],
    "id": 15109
  },
  {
    "type": 1,
    "icao": "EDWS",
    "lat": 53.633120000000005,
    "lon": 7.1902705000000005,
    "communications": [
      {
        "type": 54,
        "frequency": 12510,
        "name": "Bremen Information"
      },
      {
        "type": 54,
        "frequency": 12050,
        "name": "Norddeich Info"
      }
    ],
    "elevation": 2,
    "tower": true,
    "name": "Norden Norddeich",
    "runways": [
      {
        "type": 100,
        "width": 20.12,
        "surfaceType": null,
        "numberStart": "16",
        "numberEnd": "34",
        "latStart": 53.636152,
        "lonStart": 7.188383,
        "latEnd": 53.630088,
        "lonEnd": 7.192158,
        "length": 0,
        "surfacetype": 1
      }
    ],
    "id": 18403
  },
  {
    "type": 1,
    "icao": "EDWY",
    "lat": 53.7068955,
    "lon": 7.23006,
    "communications": [
      {
        "type": 54,
        "frequency": 12200,
        "name": "Norderney INFO"
      }
    ],
    "elevation": 5,
    "tower": true,
    "name": "Norderney",
    "runways": [
      {
        "type": 100,
        "width": 20.12,
        "surfaceType": null,
        "numberStart": "09",
        "numberEnd": "27",
        "latStart": 53.706565,
        "lonStart": 7.22252,
        "latEnd": 53.707226,
        "lonEnd": 7.2376,
        "length": 0,
        "surfacetype": 1
      }
    ],
    "id": 18404
  },
  {
    "type": 1,
    "icao": "EHOW",
    "lat": 53.201667,
    "lon": 7.0336110000000005,
    "communications": [],
    "elevation": 2,
    "tower": false,
    "name": "Oostwold",
    "runways": [
      {
        "type": 100,
        "width": 74.98,
        "surfaceType": null,
        "numberStart": "07",
        "numberEnd": "25",
        "latStart": 53.19967385,
        "lonStart": 7.02687839,
        "latEnd": 53.20366015,
        "lonEnd": 7.04034361,
        "length": 0,
        "surfacetype": 3
      }
    ],
    "id": 18988
  },
  {
    "type": 1,
    "icao": "EDWG",
    "lat": 53.785194694000005,
    "lon": 7.915609921999999,
    "communications": [
      {
        "type": 54,
        "frequency": 12240,
        "name": "Wooge INFO"
      }
    ],
    "elevation": 5,
    "tower": true,
    "name": "Wangerooge",
    "runways": [
      {
        "type": 100,
        "width": 21.03,
        "surfaceType": null,
        "numberStart": "10",
        "numberEnd": "28",
        "latStart": 53.78282,
        "lonStart": 7.913096,
        "latEnd": 53.782271,
        "lonEnd": 7.926004,
        "length": 0,
        "surfacetype": 1
      },
      {
        "type": 100,
        "width": 29.73,
        "surfaceType": null,
        "numberStart": "02",
        "numberEnd": "20",
        "latStart": 53.78438548,
        "lonStart": 7.91288317,
        "latEnd": 53.78869436,
        "lonEnd": 7.9148453,
        "length": 0,
        "surfacetype": 3
      },
      {
        "type": 102,
        "width": 19.9,
        "surfaceType": 2,
        "numberStart": "H",
        "numberEnd": null,
        "latStart": 53.78780263,
        "lonStart": 7.91122114,
        "latEnd": null,
        "lonEnd": null,
        "length": 20
      }
    ],
    "id": 26891
  },
  {
    "type": 1,
    "icao": "EDWX",
    "lat": 53.2886885,
    "lon": 7.9308135,
    "communications": [
      {
        "type": 54,
        "frequency": 12365,
        "name": "Westerstede Info"
      }
    ],
    "elevation": 29,
    "tower": true,
    "name": "Westerstede-Felde",
    "runways": [
      {
        "type": 100,
        "width": 14.94,
        "surfaceType": null,
        "numberStart": "07",
        "numberEnd": "25",
        "latStart": 53.287543,
        "lonStart": 7.926591,
        "latEnd": 53.289834,
        "lonEnd": 7.935036,
        "length": 0,
        "surfacetype": 1
      }
    ],
    "id": 27144
  },
  {
    "type": 1,
    "icao": "ETNT",
    "lat": 53.54797987333333,
    "lon": 7.6636776866666665,
    "communications": [
      {
        "type": 54,
        "frequency": 11872,
        "name": "Wittmund tower"
      }
    ],
    "elevation": 26,
    "tower": true,
    "name": "Wittmundhafen AB",
    "runways": [
      {
        "type": 100,
        "width": 30,
        "surfaceType": null,
        "numberStart": "08",
        "numberEnd": "26",
        "latStart": 53.54504,
        "lonStart": 7.645155,
        "latEnd": 53.550767,
        "lonEnd": 7.689686,
        "length": 0,
        "surfacetype": 1
      },
      {
        "type": 102,
        "width": 33.7,
        "surfaceType": 1,
        "numberStart": "H1",
        "numberEnd": null,
        "latStart": 53.54813262,
        "lonStart": 7.65619206,
        "latEnd": null,
        "lonEnd": null,
        "length": 34.7
      }
    ],
    "id": 27479
  }
]