[
  {
    "type": 1,
    "icao": "YDII",
    "lat": -12.63242367,
    "lon": 58.86543532499999,
    "communications": [
      {
        "type": 51,
        "frequency": 12670,
        "name": "DUM IN MIRRIE CTAF"
      },
      {
        "type": 54,
        "frequency": 11815,
        "name": "BRISBANE CENTRE CNTR"
      }
    ],
    "elevation": 20,
    "tower": true,
    "name": "Dum in Mirrie Is",
    "runways": [
      {
        "type": 100,
        "width": 20.12,
        "surfaceType": null,
        "numberStart": "15",
        "numberEnd": "33",
        "latStart": -12.62756551,
        "lonStart": 130.36815248,
        "latEnd": -12.63728183,
        "lonEnd": 130.37509883,
        "length": 0,
        "surfacetype": 4
      }
    ],
    "id": 6542
  },
  {
    "type": 16,
    "icao": "YRPT",
    "lat": -12.683488969999999,
    "lon": 58.9504045,
    "communications": [],
    "elevation": 0,
    "tower": false,
    "name": "[S] RANKIN POINT",
    "runways": [
      {
        "type": 101,
        "width": 17.98,
        "surfaceType": null,
        "numberStart": "1",
        "numberEnd": "19",
        "latStart": -12.68362594,
        "lonStart": 130.584161,
        "latEnd": -12.683352,
        "lonEnd": 130.584181,
        "length": 0
      }
    ],
    "id": 34388
  },
  {
    "type": 16,
    "icao": "YTHO",
    "lat": -12.93447385,
    "lon": 58.64612496,
    "communications": [],
    "elevation": 0,
    "tower": false,
    "name": "[S] THOMASON",
    "runways": [
      {
        "type": 101,
        "width": 17.98,
        "surfaceType": null,
        "numberStart": "9",
        "numberEnd": "27",
        "latStart": -12.934465,
        "lonStart": 130.22673262,
        "latEnd": -12.9344827,
        "lonEnd": 130.22701348,
        "length": 0
      }
    ],
    "id": 34477
  }
]