[
  {
    "type": 1,
    "icao": "SDNY",
    "lat": -22.745336,
    "lon": -33.105775,
    "communications": [],
    "elevation": 164,
    "tower": false,
    "name": "AEROCLUBE NOVA IGUACU",
    "runways": [
      {
        "type": 100,
        "width": 28.04,
        "surfaceType": null,
        "numberStart": "11",
        "numberEnd": "29",
        "latStart": -22.745269,
        "lonStart": -43.466147,
        "latEnd": -22.745403,
        "lonEnd": -43.454467,
        "length": 0,
        "surfacetype": 1
      }
    ],
    "id": 77
  },
  {
    "type": 1,
    "icao": "SDAG",
    "lat": -22.975338999999998,
    "lon": -33.643170005,
    "communications": [],
    "elevation": 8,
    "tower": false,
    "name": "Angra dos Reis",
    "runways": [
      {
        "type": 100,
        "width": 29.87,
        "surfaceType": null,
        "numberStart": "10",
        "numberEnd": "28",
        "latStart": -22.97638322,
        "lonStart": -44.31204523,
        "latEnd": -22.97429478,
        "lonEnd": -44.30223619,
        "length": 0,
        "surfacetype": 1
      }
    ],
    "id": 1058
  },
  {
    "type": 1,
    "icao": "SBAF",
    "lat": -22.875083,
    "lon": -33.132041725,
    "communications": [
      {
        "type": 53,
        "frequency": 12185,
        "name": "AFONSOS"
      },
      {
        "type": 54,
        "frequency": 11890,
        "name": "AFONSOS TWR"
      },
      {
        "type": 55,
        "frequency": 11935,
        "name": "RIO APP"
      }
    ],
    "elevation": 109,
    "tower": true,
    "name": "Campo Delio Jardim de Mattos",
    "runways": [
      {
        "type": 100,
        "width": 52.12,
        "surfaceType": null,
        "numberStart": "08",
        "numberEnd": "26",
        "latStart": -22.87933262,
        "lonStart": -43.39325007,
        "latEnd": -22.87083338,
        "lonEnd": -43.37616793,
        "length": 0,
        "surfacetype": 2
      }
    ],
    "id": 4413
  },
  {
    "type": 1,
    "icao": "SDIN",
    "lat": -22.997500000000002,
    "lon": -33.199515335,
    "communications": [],
    "elevation": 2,
    "tower": false,
    "name": "Clube Ceu",
    "runways": [
      {
        "type": 100,
        "width": 29.87,
        "surfaceType": null,
        "numberStart": "07",
        "numberEnd": "25",
        "latStart": -22.99878171,
        "lonStart": -43.40281238,
        "latEnd": -22.99621829,
        "lonEnd": -43.3999654,
        "length": 0,
        "surfacetype": 3
      }
    ],
    "id": 5118
  },
  {
    "type": 1,
    "icao": "SDIL",
    "lat": -22.9034335,
    "lon": -33.596007,
    "communications": [],
    "elevation": 10,
    "tower": false,
    "name": "FAZENDA PEDRA BRANCA",
    "runways": [
      {
        "type": 100,
        "width": 17.98,
        "surfaceType": null,
        "numberStart": "06",
        "numberEnd": "24",
        "latStart": -22.907164,
        "lonStart": -44.292311,
        "latEnd": -22.899703,
        "lonEnd": -44.285619,
        "length": 0,
        "surfacetype": 1
      }
    ],
    "id": 7494
  },
  {
    "type": 1,
    "icao": "SDCZ",
    "lat": -22.93611111,
    "lon": -33.520179265,
    "communications": [],
    "elevation": 16,
    "tower": false,
    "name": "Fazenda Bom Jardim",
    "runways": [
      {
        "type": 100,
        "width": 22.86,
        "surfaceType": null,
        "numberStart": "11",
        "numberEnd": "29",
        "latStart": -22.93628665,
        "lonStart": -44.10442296,
        "latEnd": -22.93593557,
        "lonEnd": -44.09279926,
        "length": 0,
        "surfacetype": 3
      }
    ],
    "id": 8024
  },
  {
    "type": 1,
    "icao": "SNFQ",
    "lat": -22.149444445,
    "lon": -33.95482145,
    "communications": [],
    "elevation": 3001,
    "tower": false,
    "name": "Fazenda Paineira",
    "runways": [
      {
        "type": 100,
        "width": 17.98,
        "surfaceType": null,
        "numberStart": "04",
        "numberEnd": "22",
        "latStart": -22.15293907,
        "lonStart": -45.76369308,
        "latEnd": -22.14594982,
        "lonEnd": -45.76130693,
        "length": 0,
        "surfacetype": 4
      }
    ],
    "id": 8577
  },
  {
    "type": 1,
    "icao": "SDPA",
    "lat": -22.927500000000002,
    "lon": -33.50201544,
    "communications": [],
    "elevation": 20,
    "tower": false,
    "name": "Fazenda Portobello",
    "runways": [
      {
        "type": 100,
        "width": 29.87,
        "surfaceType": null,
        "numberStart": "03",
        "numberEnd": "21",
        "latStart": -22.93155742,
        "lonStart": -44.0805883,
        "latEnd": -22.92344258,
        "lonEnd": -44.0794117,
        "length": 0,
        "surfacetype": 4
      }
    ],
    "id": 8657
  },
  {
    "type": 1,
    "icao": "SDRF",
    "lat": -22.74611111,
    "lon": -33.39766025,
    "communications": [],
    "elevation": 1750,
    "tower": false,
    "name": "Fazenda Recanto Feliz",
    "runways": [
      {
        "type": 100,
        "width": 20.12,
        "surfaceType": null,
        "numberStart": "05",
        "numberEnd": "23",
        "latStart": -22.74961586,
        "lonStart": -44.05271414,
        "latEnd": -22.74260636,
        "lonEnd": -44.04895252,
        "length": 0,
        "surfacetype": 3
      }
    ],
    "id": 8702
  },
  {
    "type": 1,
    "icao": "SIFU",
    "lat": -22.415555555,
    "lon": -33.095524425,
    "communications": [],
    "elevation": 1319,
    "tower": false,
    "name": "Fazenda Ribeirao",
    "runways": [
      {
        "type": 100,
        "width": 17.98,
        "surfaceType": null,
        "numberStart": "07",
        "numberEnd": "25",
        "latStart": -22.41747017,
        "lonStart": -43.77740791,
        "latEnd": -22.41364094,
        "lonEnd": -43.77314764,
        "length": 0,
        "surfacetype": 3
      }
    ],
    "id": 8724
  },
  {
    "type": 1,
    "icao": "SBGW",
    "lat": -22.791608500000002,
    "lon": -33.9946265,
    "communications": [
      {
        "type": 54,
        "frequency": 12590,
        "name": "GUARA TWR"
      },
      {
        "type": 54,
        "frequency": 12280,
        "name": "GUARA TWR"
      },
      {
        "type": 55,
        "frequency": 12280,
        "name": "GUARA APP"
      }
    ],
    "elevation": 1761,
    "tower": true,
    "name": "GUARATINGUETA",
    "runways": [
      {
        "type": 100,
        "width": 29.87,
        "surfaceType": null,
        "numberStart": "02",
        "numberEnd": "20",
        "latStart": -22.798611,
        "lonStart": -45.204647,
        "latEnd": -22.784606,
        "lonEnd": -45.204911,
        "length": 0,
        "surfacetype": 1
      }
    ],
    "id": 10202
  },
  {
    "type": 1,
    "icao": "SBGL",
    "lat": -22.80895825,
    "lon": -33.035064235,
    "communications": [
      {
        "type": 50,
        "frequency": 12760,
        "name": "ATIS"
      },
      {
        "type": 52,
        "frequency": 12100,
        "name": "CLNC DEL"
      },
      {
        "type": 53,
        "frequency": 12165,
        "name": "GND"
      },
      {
        "type": 54,
        "frequency": 11820,
        "name": "TWR"
      },
      {
        "type": 55,
        "frequency": 11935,
        "name": "RIO APP"
      }
    ],
    "elevation": 26,
    "tower": true,
    "name": "Galeao Antonio Carlos Jombim",
    "runways": [
      {
        "type": 100,
        "width": 45,
        "surfaceType": null,
        "numberStart": "10",
        "numberEnd": "28",
        "latStart": -22.801944,
        "lonStart": -43.25526746,
        "latEnd": -22.792222,
        "lonEnd": -43.21827225,
        "length": 0,
        "surfacetype": 2
      },
      {
        "type": 100,
        "width": 47,
        "surfaceType": null,
        "numberStart": "15",
        "numberEnd": "33",
        "latStart": -22.8125,
        "lonStart": -43.26360048,
        "latEnd": -22.829167,
        "lonEnd": -43.23860048,
        "length": 0,
        "surfacetype": 1
      }
    ],
    "id": 10273
  },
  {
    "type": 1,
    "icao": "SIYS",
    "lat": -22.430833335,
    "lon": -33.953605405,
    "communications": [],
    "elevation": 2759,
    "tower": false,
    "name": "Helibras",
    "runways": [
      {
        "type": 100,
        "width": 24.08,
        "surfaceType": null,
        "numberStart": "02",
        "numberEnd": "20",
        "latStart": -22.4335639,
        "lonStart": -45.47910804,
        "latEnd": -22.42810277,
        "lonEnd": -45.4792253,
        "length": 0,
        "surfacetype": 3
      }
    ],
    "id": 11645
  },
  {
    "type": 1,
    "icao": "SBJR",
    "lat": -22.987777700000002,
    "lon": -33.176965165,
    "communications": [],
    "elevation": 10,
    "tower": true,
    "name": "Jacarepagua",
    "runways": [
      {
        "type": 100,
        "width": 12.8,
        "surfaceType": null,
        "numberStart": "02",
        "numberEnd": "20",
        "latStart": -22.99182572,
        "lonStart": -43.37020065,
        "latEnd": -22.98372968,
        "lonEnd": -43.37035415,
        "length": 0,
        "surfacetype": 2
      }
    ],
    "id": 12845
  },
  {
    "type": 1,
    "icao": "SDRS",
    "lat": -22.478497,
    "lon": -33.480654,
    "communications": [],
    "elevation": 1320,
    "tower": true,
    "name": "Resende",
    "runways": [
      {
        "type": 100,
        "width": 29.87,
        "surfaceType": null,
        "numberStart": "08",
        "numberEnd": "26",
        "latStart": -22.4815,
        "lonStart": -44.485814,
        "latEnd": -22.475494,
        "lonEnd": -44.474858,
        "length": 0,
        "surfacetype": 1
      }
    ],
    "id": 21374
  },
  {
    "type": 1,
    "icao": "SBSC",
    "lat": -22.932488999999997,
    "lon": -33.322886,
    "communications": [
      {
        "type": 53,
        "frequency": 12180,
        "name": "GND"
      },
      {
        "type": 54,
        "frequency": 12290,
        "name": "TWR"
      },
      {
        "type": 54,
        "frequency": 11880,
        "name": "TWR"
      },
      {
        "type": 55,
        "frequency": 13250,
        "name": "APP"
      },
      {
        "type": 55,
        "frequency": 13370,
        "name": "APP"
      }
    ],
    "elevation": 10,
    "tower": true,
    "name": "SANTA CRUZ",
    "runways": [
      {
        "type": 100,
        "width": 45.11,
        "surfaceType": null,
        "numberStart": "05",
        "numberEnd": "23",
        "latStart": -22.943792,
        "lonStart": -43.724586,
        "latEnd": -22.921186,
        "lonEnd": -43.713594,
        "length": 0,
        "surfacetype": 1
      }
    ],
    "id": 22038
  },
  {
    "type": 1,
    "icao": "SNSK",
    "lat": -22.273056,
    "lon": -33.959397275,
    "communications": [],
    "elevation": 2851,
    "tower": true,
    "name": "Santa Rita Do Sapucai",
    "runways": [
      {
        "type": 100,
        "width": 14.33,
        "surfaceType": null,
        "numberStart": "16",
        "numberEnd": "34",
        "latStart": -22.26960996,
        "lonStart": -45.64229251,
        "latEnd": -22.27650204,
        "lonEnd": -45.63604309,
        "length": 0,
        "surfacetype": 2
      }
    ],
    "id": 22920
  },
  {
    "type": 1,
    "icao": "SBRJ",
    "lat": -22.9103590975,
    "lon": -33.03374693,
    "communications": [
      {
        "type": 50,
        "frequency": 13265,
        "name": "ATIS"
      },
      {
        "type": 52,
        "frequency": 12105,
        "name": "TFC"
      },
      {
        "type": 53,
        "frequency": 12170,
        "name": "GND"
      },
      {
        "type": 54,
        "frequency": 11870,
        "name": "RIO TWR"
      },
      {
        "type": 55,
        "frequency": 11935,
        "name": "RIO CON"
      }
    ],
    "elevation": 11,
    "tower": true,
    "name": "Santos-Dumont",
    "runways": [
      {
        "type": 100,
        "width": 42.06,
        "surfaceType": null,
        "numberStart": "02R",
        "numberEnd": "20L",
        "latStart": -22.91646342,
        "lonStart": -43.16252972,
        "latEnd": -22.90452776,
        "lonEnd": -43.16332187,
        "length": 0,
        "surfacetype": 1
      },
      {
        "type": 100,
        "width": 29.87,
        "surfaceType": null,
        "numberStart": "02L",
        "numberEnd": "20R",
        "latStart": -22.91583381,
        "lonStart": -43.16331884,
        "latEnd": -22.9046114,
        "lonEnd": -43.16404407,
        "length": 0,
        "surfacetype": 1
      }
    ],
    "id": 22956
  },
  {
    "type": 1,
    "icao": "SNLO",
    "lat": -22.0909055,
    "lon": -33.566968,
    "communications": [],
    "elevation": 2871,
    "tower": true,
    "name": "Sao Lourenco",
    "runways": [
      {
        "type": 100,
        "width": 32,
        "surfaceType": null,
        "numberStart": "05",
        "numberEnd": "23",
        "latStart": -22.095839,
        "lonStart": -45.047964,
        "latEnd": -22.085972,
        "lonEnd": -45.041092,
        "length": 0,
        "surfacetype": 1
      }
    ],
    "id": 22985
  }
]