[
  {
    "type": 1,
    "icao": "YAYR",
    "lat": -19.595269,
    "lon": 147.3233545,
    "communications": [
      {
        "type": 50,
        "frequency": 12055,
        "name": "BRISBANE CNTR FSS"
      },
      {
        "type": 50,
        "frequency": 12670,
        "name": "CTAF FSS"
      },
      {
        "type": 51,
        "frequency": 12210,
        "name": "YAYR UNIC"
      },
      {
        "type": 51,
        "frequency": 12670,
        "name": "CTAF CTAF"
      }
    ],
    "elevation": 41,
    "tower": false,
    "name": "Ayr",
    "runways": [
      {
        "type": 100,
        "width": 29.87,
        "surfaceType": null,
        "numberStart": "11",
        "numberEnd": "29",
        "latStart": -19.595062,
        "lonStart": 147.316285,
        "latEnd": -19.599348,
        "lonEnd": 147.326023,
        "length": 0,
        "surfacetype": 3
      },
      {
        "type": 100,
        "width": 29.87,
        "surfaceType": null,
        "numberStart": "01",
        "numberEnd": "19",
        "latStart": -19.599431,
        "lonStart": 147.322944,
        "latEnd": -19.587235,
        "lonEnd": 147.328166,
        "length": 0,
        "surfacetype": 1
      }
    ],
    "id": 32682
  },
  {
    "type": 17,
    "icao": "YCUL",
    "lat": -19.39587239,
    "lon": 147.1065782,
    "communications": [],
    "elevation": 20,
    "tower": false,
    "name": "[H] CUNGULLA HELIPAD",
    "runways": [
      {
        "type": 102,
        "width": 9.1,
        "surfaceType": 3,
        "numberStart": "H1",
        "numberEnd": null,
        "latStart": -19.39587239,
        "lonStart": 147.1065782,
        "latEnd": null,
        "lonEnd": null,
        "length": 9.1
      }
    ],
    "id": 33071
  }
]