[
  {
    "type": 17,
    "icao": "IL67",
    "lat": 38.12976944,
    "lon": -88.90478889,
    "communications": [],
    "elevation": 423,
    "tower": false,
    "name": "[H] Big Muddy Correctional Facility",
    "runways": [
      {
        "type": 102,
        "width": 12.2,
        "surfaceType": 2,
        "numberStart": "H1",
        "numberEnd": null,
        "latStart": 38.12976944,
        "lonStart": -88.90478889,
        "latEnd": null,
        "lonEnd": null,
        "length": 12.2
      }
    ],
    "id": 28467
  },
  {
    "type": 17,
    "icao": "63IS",
    "lat": 38.675325,
    "lon": -88.48338167,
    "communications": [],
    "elevation": 484,
    "tower": false,
    "name": "[H] Clay County Hospital",
    "runways": [
      {
        "type": 102,
        "width": 9.1,
        "surfaceType": 2,
        "numberStart": "H1",
        "numberEnd": null,
        "latStart": 38.675325,
        "lonStart": -88.48338167,
        "latEnd": null,
        "lonEnd": null,
        "length": 9.1
      }
    ],
    "id": 28997
  },
  {
    "type": 17,
    "icao": "IS28",
    "lat": 38.62615944,
    "lon": -88.96311612,
    "communications": [],
    "elevation": 548,
    "tower": false,
    "name": "[H] Fabick Three",
    "runways": [
      {
        "type": 102,
        "width": 6.1,
        "surfaceType": 2,
        "numberStart": "H1",
        "numberEnd": null,
        "latStart": 38.62615944,
        "lonStart": -88.96311612,
        "latEnd": null,
        "lonEnd": null,
        "length": 6.1
      }
    ],
    "id": 29633
  },
  {
    "type": 17,
    "icao": "6IS4",
    "lat": 38.32227138,
    "lon": -88.91062028,
    "communications": [],
    "elevation": 500,
    "tower": false,
    "name": "[H] Good Samaritan Regional Health Care Ce",
    "runways": [
      {
        "type": 102,
        "width": 13.4,
        "surfaceType": 2,
        "numberStart": "H1",
        "numberEnd": null,
        "latStart": 38.32227138,
        "lonStart": -88.91062028,
        "latEnd": null,
        "lonEnd": null,
        "length": 13.4
      }
    ],
    "id": 29966
  },
  {
    "type": 17,
    "icao": "0IL0",
    "lat": 38.08671444,
    "lon": -88.53893945,
    "communications": [],
    "elevation": 438,
    "tower": false,
    "name": "[H] Hamilton Memorial",
    "runways": [
      {
        "type": 102,
        "width": 9.1,
        "surfaceType": 2,
        "numberStart": "H1",
        "numberEnd": null,
        "latStart": 38.08671444,
        "lonStart": -88.53893945,
        "latEnd": null,
        "lonEnd": null,
        "length": 9.1
      }
    ],
    "id": 30107
  },
  {
    "type": 17,
    "icao": "4K7",
    "lat": 38.9894875,
    "lon": -88.17642806,
    "communications": [],
    "elevation": 540,
    "tower": false,
    "name": "[H] Jasper County Safety Council",
    "runways": [
      {
        "type": 102,
        "width": 30.5,
        "surfaceType": 3,
        "numberStart": "H1",
        "numberEnd": null,
        "latStart": 38.9894875,
        "lonStart": -88.17642806,
        "latEnd": null,
        "lonEnd": null,
        "length": 30.5
      }
    ],
    "id": 30594
  },
  {
    "type": 17,
    "icao": "IS50",
    "lat": 38.08199388,
    "lon": -88.91701195,
    "communications": [],
    "elevation": 450,
    "tower": false,
    "name": "[H] Rend Lake Conservancy District",
    "runways": [
      {
        "type": 102,
        "width": 91.4,
        "surfaceType": 2,
        "numberStart": "H1",
        "numberEnd": null,
        "latStart": 38.08199388,
        "lonStart": -88.91701195,
        "latEnd": null,
        "lonEnd": null,
        "length": 91.4
      }
    ],
    "id": 32310
  },
  {
    "type": 17,
    "icao": "7H3",
    "lat": 38.7375475,
    "lon": -88.07725945,
    "communications": [],
    "elevation": 484,
    "tower": false,
    "name": "[H] Richland Meml Hospital",
    "runways": [
      {
        "type": 102,
        "width": 12.2,
        "surfaceType": 2,
        "numberStart": "H1",
        "numberEnd": null,
        "latStart": 38.7375475,
        "lonStart": -88.07725945,
        "latEnd": null,
        "lonEnd": null,
        "length": 12.2
      }
    ],
    "id": 32340
  }
]