[
  {
    "type": 1,
    "icao": "EGET",
    "lat": 60.192079265000004,
    "lon": -1.2435281200000001,
    "communications": [
      {
        "type": 54,
        "frequency": 12530,
        "name": "Tingwall Information"
      }
    ],
    "elevation": 43,
    "tower": true,
    "name": "Lerwick Tingwall",
    "runways": [
      {
        "type": 100,
        "width": 17.98,
        "surfaceType": null,
        "numberStart": "02",
        "numberEnd": "20",
        "latStart": 60.18878053,
        "lonStart": -1.24508124,
        "latEnd": 60.195378,
        "lonEnd": -1.241975,
        "length": 0,
        "surfacetype": 1
      }
    ],
    "id": 15185
  },
  {
    "type": 1,
    "icao": "EG79",
    "lat": 60.321675065,
    "lon": -1.693160835,
    "communications": [],
    "elevation": 82,
    "tower": false,
    "name": "Papa Stour",
    "runways": [
      {
        "type": 100,
        "width": 17.98,
        "surfaceType": null,
        "numberStart": "18",
        "numberEnd": "36",
        "latStart": 60.32362216,
        "lonStart": -1.69224405,
        "latEnd": 60.31972797,
        "lonEnd": -1.69407762,
        "length": 0,
        "surfacetype": 1
      }
    ],
    "id": 19734
  },
  {
    "type": 1,
    "icao": "EGPM",
    "lat": 60.43265063,
    "lon": -1.29610757,
    "communications": [
      {
        "type": 54,
        "frequency": 12360,
        "name": "Scatsta Approach"
      }
    ],
    "elevation": 81,
    "tower": true,
    "name": "Scatsta",
    "runways": [
      {
        "type": 100,
        "width": 31.09,
        "surfaceType": null,
        "numberStart": "06",
        "numberEnd": "24",
        "latStart": 60.42918566,
        "lonStart": -1.30624826,
        "latEnd": 60.4361156,
        "lonEnd": -1.28596688,
        "length": 0,
        "surfacetype": 1
      }
    ],
    "id": 23072
  }
]