[
  {
    "type": 17,
    "icao": "45CO",
    "lat": 40.20553944,
    "lon": -104.97553334,
    "communications": [],
    "elevation": 5023,
    "tower": false,
    "name": "[H] Ag-Air Inc",
    "runways": [
      {
        "type": 102,
        "width": 4.6,
        "surfaceType": 2,
        "numberStart": "H1",
        "numberEnd": null,
        "latStart": 40.20553944,
        "lonStart": -104.97553334,
        "latEnd": null,
        "lonEnd": null,
        "length": 4.6
      }
    ],
    "id": 28030
  },
  {
    "type": 17,
    "icao": "0CD3",
    "lat": 40.34803638,
    "lon": -104.52829112,
    "communications": [],
    "elevation": 4633,
    "tower": false,
    "name": "[H] Branchs",
    "runways": [
      {
        "type": 102,
        "width": 7.6,
        "surfaceType": 2,
        "numberStart": "H1",
        "numberEnd": null,
        "latStart": 40.34803638,
        "lonStart": -104.52829112,
        "latEnd": null,
        "lonEnd": null,
        "length": 7.6
      }
    ],
    "id": 28566
  },
  {
    "type": 17,
    "icao": "7CO7",
    "lat": 40.34083333,
    "lon": -104.82250001,
    "communications": [],
    "elevation": 4899,
    "tower": false,
    "name": "[H] Frontier Helicopters",
    "runways": [
      {
        "type": 102,
        "width": 12.2,
        "surfaceType": 2,
        "numberStart": "H1",
        "numberEnd": null,
        "latStart": 40.34083333,
        "lonStart": -104.82250001,
        "latEnd": null,
        "lonEnd": null,
        "length": 18.3
      }
    ],
    "id": 29837
  },
  {
    "type": 17,
    "icao": "98CO",
    "lat": 40.4166475,
    "lon": -104.70607695,
    "communications": [],
    "elevation": 4600,
    "tower": false,
    "name": "[H] NCMC",
    "runways": [
      {
        "type": 102,
        "width": 12.2,
        "surfaceType": 2,
        "numberStart": "H1",
        "numberEnd": null,
        "latStart": 40.4166475,
        "lonStart": -104.70607695,
        "latEnd": null,
        "lonEnd": null,
        "length": 12.2
      }
    ],
    "id": 31520
  },
  {
    "type": 17,
    "icao": "50CO",
    "lat": 40.65831527,
    "lon": -104.95108445,
    "communications": [],
    "elevation": 5200,
    "tower": false,
    "name": "[H] William T Browder",
    "runways": [
      {
        "type": 102,
        "width": 30.5,
        "surfaceType": 4,
        "numberStart": "H1",
        "numberEnd": null,
        "latStart": 40.65831527,
        "lonStart": -104.95108445,
        "latEnd": null,
        "lonEnd": null,
        "length": 61
      }
    ],
    "id": 33856
  }
]