[
  {
    "type": 1,
    "icao": "VTSG",
    "lat": 8.09665711,
    "lon": 98.98603647,
    "communications": [
      {
        "type": 53,
        "frequency": 12190,
        "name": "GND"
      },
      {
        "type": 54,
        "frequency": 11860,
        "name": "TWR"
      },
      {
        "type": 55,
        "frequency": 12005,
        "name": "APP"
      }
    ],
    "elevation": 82,
    "tower": true,
    "name": "Krabi",
    "runways": [
      {
        "type": 100,
        "width": 45.11,
        "surfaceType": null,
        "numberStart": "14",
        "numberEnd": "32",
        "latStart": 8.106467,
        "lonStart": 98.980119,
        "latEnd": 8.085486,
        "lonEnd": 98.997406,
        "length": 0,
        "surfacetype": 1
      },
      {
        "type": 102,
        "width": 14.94,
        "surfaceType": 2,
        "numberStart": "H1",
        "numberEnd": null,
        "latStart": 8.09657023,
        "lonStart": 98.98378483,
        "latEnd": null,
        "lonEnd": null,
        "length": 14.94
      },
      {
        "type": 102,
        "width": 14.94,
        "surfaceType": 2,
        "numberStart": "H2",
        "numberEnd": null,
        "latStart": 8.09677405,
        "lonStart": 98.98402759,
        "latEnd": null,
        "lonEnd": null,
        "length": 14.94
      },
      {
        "type": 102,
        "width": 14.94,
        "surfaceType": 1,
        "numberStart": "H3",
        "numberEnd": null,
        "latStart": 8.09798827,
        "lonStart": 98.98484493,
        "latEnd": null,
        "lonEnd": null,
        "length": 14.94
      }
    ],
    "id": 14108
  },
  {
    "type": 1,
    "icao": "VTSW",
    "lat": 8.018668009999999,
    "lon": 98.40312324,
    "communications": [
      {
        "type": 54,
        "frequency": 12230,
        "name": "Pattern"
      }
    ],
    "elevation": 50,
    "tower": true,
    "name": "Phuket Airpark",
    "runways": [
      {
        "type": 100,
        "width": 39.93,
        "surfaceType": null,
        "numberStart": "13",
        "numberEnd": "31",
        "latStart": 8.02000281,
        "lonStart": 98.40129428,
        "latEnd": 8.01733321,
        "lonEnd": 98.4049522,
        "length": 0,
        "surfacetype": 3
      }
    ],
    "id": 20079
  },
  {
    "type": 1,
    "icao": "VTSP",
    "lat": 8.113199,
    "lon": 98.31687099999999,
    "communications": [
      {
        "type": 50,
        "frequency": 12800,
        "name": "ATIS"
      },
      {
        "type": 53,
        "frequency": 12190,
        "name": "GND"
      },
      {
        "type": 54,
        "frequency": 11810,
        "name": "TWR"
      },
      {
        "type": 55,
        "frequency": 12470,
        "name": "APP"
      }
    ],
    "elevation": 82,
    "tower": true,
    "name": "Phuket Intl",
    "runways": [
      {
        "type": 100,
        "width": 45.11,
        "surfaceType": null,
        "numberStart": "09",
        "numberEnd": "27",
        "latStart": 8.111892,
        "lonStart": 98.303275,
        "latEnd": 8.114506,
        "lonEnd": 98.330467,
        "length": 0,
        "surfacetype": 1
      }
    ],
    "id": 20080
  }
]