[
  {
    "type": 1,
    "icao": "RJOT",
    "lat": 34.214053,
    "lon": 134.015772,
    "communications": [
      {
        "type": 50,
        "frequency": 12745,
        "name": "ATIS"
      },
      {
        "type": 54,
        "frequency": 13590,
        "name": "TWR"
      },
      {
        "type": 54,
        "frequency": 12620,
        "name": "TWR"
      },
      {
        "type": 54,
        "frequency": 11830,
        "name": "TWR"
      },
      {
        "type": 55,
        "frequency": 11902,
        "name": "TCA"
      },
      {
        "type": 55,
        "frequency": 12120,
        "name": "APP"
      },
      {
        "type": 55,
        "frequency": 12040,
        "name": "APP"
      },
      {
        "type": 56,
        "frequency": 12040,
        "name": "DEP"
      }
    ],
    "elevation": 607,
    "tower": true,
    "name": "TAKAMATSU",
    "runways": [
      {
        "type": 100,
        "width": 60.96,
        "surfaceType": null,
        "numberStart": "08",
        "numberEnd": "26",
        "latStart": 34.210739,
        "lonStart": 134.002808,
        "latEnd": 34.217367,
        "lonEnd": 134.028736,
        "length": 0,
        "surfacetype": 1
      }
    ],
    "id": 24548
  },
  {
    "type": 1,
    "icao": "RJOS",
    "lat": 34.1328085,
    "lon": 134.606639,
    "communications": [
      {
        "type": 54,
        "frequency": 12620,
        "name": "TWR"
      },
      {
        "type": 54,
        "frequency": 11800,
        "name": "TWR"
      },
      {
        "type": 55,
        "frequency": 12245,
        "name": "APP"
      },
      {
        "type": 55,
        "frequency": 12010,
        "name": "APP"
      },
      {
        "type": 55,
        "frequency": 12400,
        "name": "APP"
      },
      {
        "type": 56,
        "frequency": 12010,
        "name": "DEP"
      },
      {
        "type": 56,
        "frequency": 12400,
        "name": "DEP"
      }
    ],
    "elevation": 26,
    "tower": true,
    "name": "TOKUSHIMA",
    "runways": [
      {
        "type": 100,
        "width": 45.72,
        "surfaceType": null,
        "numberStart": "11",
        "numberEnd": "29",
        "latStart": 34.134739,
        "lonStart": 134.596125,
        "latEnd": 34.130878,
        "lonEnd": 134.617153,
        "length": 0,
        "surfacetype": 1
      }
    ],
    "id": 24775
  }
]