[
  {
    "type": 1,
    "icao": "EDWA",
    "lat": 54.627240130000004,
    "lon": 31.77822841,
    "communications": [],
    "elevation": 1,
    "tower": false,
    "name": "Bordelum",
    "runways": [
      {
        "type": 100,
        "width": 24.99,
        "surfaceType": null,
        "numberStart": "04",
        "numberEnd": "22",
        "latStart": 54.62538241,
        "lonStart": 8.92735897,
        "latEnd": 54.62909785,
        "lonEnd": 8.9327554,
        "length": 0,
        "surfacetype": 3
      }
    ],
    "id": 3010
  },
  {
    "type": 1,
    "icao": "EDXH",
    "lat": 54.18584087,
    "lon": 31.049759241666663,
    "communications": [
      {
        "type": 54,
        "frequency": 12245,
        "name": "Helgoland Info"
      }
    ],
    "elevation": 6,
    "tower": true,
    "name": "Helgoland-Dune",
    "runways": [
      {
        "type": 100,
        "width": 29.87,
        "surfaceType": null,
        "numberStart": "15",
        "numberEnd": "33",
        "latStart": 54.18659,
        "lonStart": 7.9127035,
        "latEnd": 54.183115,
        "lonEnd": 7.91692832,
        "length": 0,
        "surfacetype": 2
      },
      {
        "type": 100,
        "width": 20.12,
        "surfaceType": null,
        "numberStart": "03",
        "numberEnd": "21",
        "latStart": 54.1846086,
        "lonStart": 7.91429951,
        "latEnd": 54.18796283,
        "lonEnd": 7.91715072,
        "length": 0,
        "surfacetype": 2
      },
      {
        "type": 100,
        "width": 11.89,
        "surfaceType": null,
        "numberStart": "06",
        "numberEnd": "24",
        "latStart": 54.18569337,
        "lonStart": 7.91339919,
        "latEnd": 54.18707542,
        "lonEnd": 7.91667915,
        "length": 0,
        "surfacetype": 2
      }
    ],
    "id": 11644
  },
  {
    "type": 1,
    "icao": "EDXJ",
    "lat": 54.509957,
    "lon": 31.82372,
    "communications": [
      {
        "type": 56,
        "frequency": 12510,
        "name": "BREMEN Information"
      },
      {
        "type": 54,
        "frequency": 12205,
        "name": "Husum Info"
      }
    ],
    "elevation": 62,
    "tower": true,
    "name": "Husum Schwesing",
    "runways": [
      {
        "type": 100,
        "width": 29.87,
        "surfaceType": null,
        "numberStart": "03",
        "numberEnd": "21",
        "latStart": 54.504532,
        "lonStart": 9.132058,
        "latEnd": 54.515382,
        "lonEnd": 9.144432,
        "length": 0,
        "surfacetype": 1
      }
    ],
    "id": 12231
  },
  {
    "type": 1,
    "icao": "EDXK",
    "lat": 54.79106145,
    "lon": 31.873274300000002,
    "communications": [
      {
        "type": 54,
        "frequency": 12260,
        "name": "Leck Info"
      }
    ],
    "elevation": 23,
    "tower": true,
    "name": "Leck",
    "runways": [
      {
        "type": 100,
        "width": 29.87,
        "surfaceType": null,
        "numberStart": "11",
        "numberEnd": "29",
        "latStart": 54.7926339,
        "lonStart": 8.9570596,
        "latEnd": 54.789489,
        "lonEnd": 8.968869,
        "length": 0,
        "surfacetype": 3
      }
    ],
    "id": 15091
  },
  {
    "type": 1,
    "icao": "EDHP",
    "lat": 54.53634,
    "lon": 31.606005500000002,
    "communications": [
      {
        "type": 54,
        "frequency": 12300,
        "name": "Pellworm Info"
      }
    ],
    "elevation": 9,
    "tower": true,
    "name": "Pellworm",
    "runways": [
      {
        "type": 100,
        "width": 29.87,
        "surfaceType": null,
        "numberStart": "11",
        "numberEnd": "29",
        "latStart": 54.5371,
        "lonStart": 8.676431,
        "latEnd": 54.53558,
        "lonEnd": 8.683823,
        "length": 0,
        "surfacetype": 3
      }
    ],
    "id": 19944
  },
  {
    "type": 1,
    "icao": "EDXR",
    "lat": 54.21954805000001,
    "lon": 31.909144475000005,
    "communications": [
      {
        "type": 56,
        "frequency": 12510,
        "name": "BREMEN INFO"
      },
      {
        "type": 54,
        "frequency": 12365,
        "name": "Rendsburg Info"
      }
    ],
    "elevation": 22,
    "tower": false,
    "name": "Rendsburg Schachtholm",
    "runways": [
      {
        "type": 100,
        "width": 29.87,
        "surfaceType": null,
        "numberStart": "03",
        "numberEnd": "21",
        "latStart": 54.217505,
        "lonStart": 9.596441,
        "latEnd": 54.224566,
        "lonEnd": 9.604781,
        "length": 0,
        "surfacetype": 1
      },
      {
        "type": 100,
        "width": 29.87,
        "surfaceType": null,
        "numberStart": "12",
        "numberEnd": "30",
        "latStart": 54.21935817,
        "lonStart": 9.59880787,
        "latEnd": 54.21676303,
        "lonEnd": 9.60570114,
        "length": 0,
        "surfacetype": 3
      }
    ],
    "id": 21358
  },
  {
    "type": 1,
    "icao": "EDXO",
    "lat": 54.308884500000005,
    "lon": 31.495989,
    "communications": [
      {
        "type": 54,
        "frequency": 12977,
        "name": "St. Peter Ording INFO"
      }
    ],
    "elevation": 4,
    "tower": true,
    "name": "Sankt Peter Ording",
    "runways": [
      {
        "type": 100,
        "width": 29.87,
        "surfaceType": null,
        "numberStart": "07",
        "numberEnd": "25",
        "latStart": 54.307726,
        "lonStart": 8.681935,
        "latEnd": 54.310043,
        "lonEnd": 8.691316,
        "length": 0,
        "surfacetype": 1
      }
    ],
    "id": 22879
  },
  {
    "type": 1,
    "icao": "ETNS",
    "lat": 54.458674422499996,
    "lon": 31.982807065,
    "communications": [
      {
        "type": 54,
        "frequency": 12510,
        "name": "BREMEN INFO"
      },
      {
        "type": 55,
        "frequency": 12330,
        "name": "RADAR"
      },
      {
        "type": 55,
        "frequency": 13515,
        "name": "RADAR"
      },
      {
        "type": 54,
        "frequency": 12510,
        "name": "Schleswig Tower"
      }
    ],
    "elevation": 69,
    "tower": false,
    "name": "Schleswig Jagel AB",
    "runways": [
      {
        "type": 100,
        "width": 29.87,
        "surfaceType": null,
        "numberStart": "05",
        "numberEnd": "23",
        "latStart": 54.450303,
        "lonStart": 9.499342,
        "latEnd": 54.468438,
        "lonEnd": 9.533497,
        "length": 0,
        "surfacetype": 1
      },
      {
        "type": 100,
        "width": 45.11,
        "surfaceType": null,
        "numberStart": "07",
        "numberEnd": "25",
        "latStart": 54.45557121,
        "lonStart": 9.50306278,
        "latEnd": 54.46038548,
        "lonEnd": 9.53200673,
        "length": 0,
        "surfacetype": 1
      }
    ],
    "id": 23099
  },
  {
    "type": 1,
    "icao": "EDXC",
    "lat": 54.425469185,
    "lon": 31.98079498,
    "communications": [
      {
        "type": 54,
        "frequency": 11867,
        "name": "Kropp Info"
      }
    ],
    "elevation": 54,
    "tower": true,
    "name": "Schleswig Kropp",
    "runways": [
      {
        "type": 100,
        "width": 32,
        "surfaceType": null,
        "numberStart": "09",
        "numberEnd": "27",
        "latStart": 54.42527037,
        "lonStart": 9.53592196,
        "latEnd": 54.425668,
        "lonEnd": 9.547527,
        "length": 0,
        "surfacetype": 3
      }
    ],
    "id": 23100
  },
  {
    "type": 1,
    "icao": "EKTD",
    "lat": 54.929625,
    "lon": 31.881041664999998,
    "communications": [],
    "elevation": 6,
    "tower": false,
    "name": "Toender",
    "runways": [
      {
        "type": 100,
        "width": 29.87,
        "surfaceType": null,
        "numberStart": "12",
        "numberEnd": "30",
        "latStart": 54.93136667,
        "lonStart": 8.8342,
        "latEnd": 54.92788333,
        "lonEnd": 8.84643333,
        "length": 0,
        "surfacetype": 3
      }
    ],
    "id": 25423
  },
  {
    "type": 1,
    "icao": "EDXW",
    "lat": 54.91151750166667,
    "lon": 31.622861286666666,
    "communications": [
      {
        "type": 50,
        "frequency": 11840,
        "name": "SYLT ATIS"
      },
      {
        "type": 54,
        "frequency": 11975,
        "name": "Sylt Tower"
      },
      {
        "type": 55,
        "frequency": 12022,
        "name": "BREMEN RADAR"
      }
    ],
    "elevation": 50,
    "tower": true,
    "name": "Westerland Sylt",
    "runways": [
      {
        "type": 100,
        "width": 45.11,
        "surfaceType": null,
        "numberStart": "14",
        "numberEnd": "32",
        "latStart": 54.919347,
        "lonStart": 8.33288302,
        "latEnd": 54.90385,
        "lonEnd": 8.35209402,
        "length": 0,
        "surfacetype": 1
      },
      {
        "type": 100,
        "width": 45.11,
        "surfaceType": null,
        "numberStart": "06",
        "numberEnd": "24",
        "latStart": 54.909417,
        "lonStart": 8.32917198,
        "latEnd": 54.917117,
        "lonEnd": 8.35199398,
        "length": 0,
        "surfacetype": 1
      },
      {
        "type": 100,
        "width": 30,
        "surfaceType": null,
        "numberStart": "13",
        "numberEnd": "31",
        "latStart": 54.91171725,
        "lonStart": 8.34648896,
        "latEnd": 54.90765676,
        "lonEnd": 8.35417057,
        "length": 0,
        "surfacetype": 3
      }
    ],
    "id": 27139
  }
]