[
  {
    "type": 1,
    "icao": "FY0R",
    "lat": -20.10055,
    "lon": 15.3022,
    "communications": [],
    "elevation": 3992,
    "tower": false,
    "name": "Danube",
    "runways": [
      {
        "type": 100,
        "width": 29.87,
        "surfaceType": null,
        "numberStart": "08",
        "numberEnd": "26",
        "latStart": -20.1013,
        "lonStart": 15.2975,
        "latEnd": -20.0998,
        "lonEnd": 15.3069,
        "length": 0,
        "surfacetype": 5
      }
    ],
    "id": 5997
  },
  {
    "type": 1,
    "icao": "FYGT",
    "lat": -20.0281,
    "lon": 15.065249999999999,
    "communications": [],
    "elevation": 3800,
    "tower": false,
    "name": "Gross Tsaub",
    "runways": [
      {
        "type": 100,
        "width": 10.06,
        "surfaceType": null,
        "numberStart": "09",
        "numberEnd": "27",
        "latStart": -20.0281,
        "lonStart": 15.06,
        "latEnd": -20.0281,
        "lonEnd": 15.0705,
        "length": 0,
        "surfacetype": 4
      }
    ],
    "id": 10830
  },
  {
    "type": 1,
    "icao": "FYKX",
    "lat": -20.3667,
    "lon": 15.057649999999999,
    "communications": [],
    "elevation": 3296,
    "tower": false,
    "name": "Khorixas",
    "runways": [
      {
        "type": 100,
        "width": 24.99,
        "surfaceType": null,
        "numberStart": "09",
        "numberEnd": "27",
        "latStart": -20.3667,
        "lonStart": 15.0519,
        "latEnd": -20.3667,
        "lonEnd": 15.0634,
        "length": 0,
        "surfacetype": 5
      }
    ],
    "id": 13825
  },
  {
    "type": 1,
    "icao": "FYTJ",
    "lat": -20.9,
    "lon": 15.55,
    "communications": [],
    "elevation": 2800,
    "tower": false,
    "name": "Otjohorongo",
    "runways": [
      {
        "type": 100,
        "width": 10.06,
        "surfaceType": null,
        "numberStart": "16",
        "numberEnd": "34",
        "latStart": -20.8962,
        "lonStart": 15.5485,
        "latEnd": -20.9038,
        "lonEnd": 15.5515,
        "length": 0,
        "surfacetype": 3
      }
    ],
    "id": 19077
  },
  {
    "type": 1,
    "icao": "FY3Z",
    "lat": -20.25,
    "lon": 15.4667,
    "communications": [],
    "elevation": 3500,
    "tower": false,
    "name": "Scheikhard's Brunnen",
    "runways": [
      {
        "type": 100,
        "width": 10.06,
        "surfaceType": null,
        "numberStart": "13",
        "numberEnd": "31",
        "latStart": -20.2478,
        "lonStart": 15.4639,
        "latEnd": -20.2522,
        "lonEnd": 15.4695,
        "length": 0,
        "surfacetype": 4
      }
    ],
    "id": 23086
  },
  {
    "type": 1,
    "icao": "FY52",
    "lat": -20.3942,
    "lon": 15.43075,
    "communications": [],
    "elevation": 3208,
    "tower": false,
    "name": "Vingerklip Lodge",
    "runways": [
      {
        "type": 100,
        "width": 10.06,
        "surfaceType": null,
        "numberStart": "09",
        "numberEnd": "27",
        "latStart": -20.3942,
        "lonStart": 15.4231,
        "latEnd": -20.3942,
        "lonEnd": 15.4384,
        "length": 0,
        "surfacetype": 5
      }
    ],
    "id": 26359
  }
]