[
  {
    "type": 1,
    "icao": "KMZJ",
    "lat": 32.51698052166666,
    "lon": -87.36192355499999,
    "communications": [
      {
        "type": 50,
        "frequency": 11837,
        "name": "WX-AWOS"
      },
      {
        "type": 51,
        "frequency": 12305,
        "name": "CTAF/UNICOM"
      }
    ],
    "elevation": 1892,
    "tower": true,
    "name": "Pinal Airpark",
    "runways": [
      {
        "type": 100,
        "width": 46.02,
        "surfaceType": null,
        "numberStart": "12",
        "numberEnd": "30",
        "latStart": 32.51636304,
        "lonStart": -111.33311947,
        "latEnd": 32.50364491,
        "lonEnd": -111.31771677,
        "length": 0,
        "surfacetype": 1
      },
      {
        "type": 102,
        "width": 29.87,
        "surfaceType": 1,
        "numberStart": "H1",
        "numberEnd": null,
        "latStart": 32.51957745,
        "lonStart": -111.33442383,
        "latEnd": null,
        "lonEnd": null,
        "length": 29.87
      },
      {
        "type": 102,
        "width": 29.87,
        "surfaceType": 1,
        "numberStart": "H2",
        "numberEnd": null,
        "latStart": 32.52013617,
        "lonStart": -111.33510471,
        "latEnd": null,
        "lonEnd": null,
        "length": 29.87
      },
      {
        "type": 102,
        "width": 29.87,
        "surfaceType": 1,
        "numberStart": "H3",
        "numberEnd": null,
        "latStart": 32.52067562,
        "lonStart": -111.33577645,
        "latEnd": null,
        "lonEnd": null,
        "length": 29.87
      },
      {
        "type": 102,
        "width": 29.87,
        "surfaceType": 1,
        "numberStart": "H5",
        "numberEnd": null,
        "latStart": 32.52148594,
        "lonStart": -111.33676178,
        "latEnd": null,
        "lonEnd": null,
        "length": 29.87
      }
    ],
    "id": 20135
  },
  {
    "type": 17,
    "icao": "AL14",
    "lat": 32.50346972,
    "lon": -87.86334695,
    "communications": [],
    "elevation": 148,
    "tower": false,
    "name": "[H] Bryan W. Whitfield Memorial Hospital",
    "runways": [
      {
        "type": 102,
        "width": 15.2,
        "surfaceType": 2,
        "numberStart": "H1",
        "numberEnd": null,
        "latStart": 32.50346972,
        "lonStart": -87.86334695,
        "latEnd": null,
        "lonEnd": null,
        "length": 15.2
      }
    ],
    "id": 28611
  },
  {
    "type": 17,
    "icao": "AL90",
    "lat": 32.429025,
    "lon": -87.05665723,
    "communications": [],
    "elevation": 148,
    "tower": false,
    "name": "[H] Selma Medical Center",
    "runways": [
      {
        "type": 102,
        "width": 15.2,
        "surfaceType": 2,
        "numberStart": "H1",
        "numberEnd": null,
        "latStart": 32.429025,
        "lonStart": -87.05665723,
        "latEnd": null,
        "lonEnd": null,
        "length": 15.2
      }
    ],
    "id": 32638
  },
  {
    "type": 17,
    "icao": "AL31",
    "lat": 32.40680333,
    "lon": -87.05415695,
    "communications": [],
    "elevation": 125,
    "tower": false,
    "name": "[H] Vaughan Hospital",
    "runways": [
      {
        "type": 102,
        "width": 18.3,
        "surfaceType": 1,
        "numberStart": "H1",
        "numberEnd": null,
        "latStart": 32.40680333,
        "lonStart": -87.05415695,
        "latEnd": null,
        "lonEnd": null,
        "length": 18.3
      }
    ],
    "id": 33597
  }
]