[
  {
    "type": 17,
    "icao": "ESHD",
    "lat": 59.39107377,
    "lon": 18.03349821,
    "communications": [],
    "elevation": 26,
    "tower": false,
    "name": "Danderyds sjukhus Stockholm",
    "runways": [
      {
        "type": 102,
        "width": 12.6,
        "surfaceType": 1,
        "numberStart": "H1",
        "numberEnd": null,
        "latStart": 59.39107377,
        "lonStart": 18.03349821,
        "latEnd": null,
        "lonEnd": null,
        "length": 11.9
      }
    ],
    "id": 5983
  },
  {
    "type": 17,
    "icao": "ESHK",
    "lat": 59.35110779,
    "lon": 18.03516821,
    "communications": [],
    "elevation": 118,
    "tower": false,
    "name": "Karolinska Universitetssjukhuset Solna Stockholm",
    "runways": [
      {
        "type": 102,
        "width": 27.2,
        "surfaceType": 15,
        "numberStart": "H72",
        "numberEnd": null,
        "latStart": 59.35110779,
        "lonStart": 18.03516821,
        "latEnd": null,
        "lonEnd": null,
        "length": 23.4
      }
    ],
    "id": 13630
  },
  {
    "type": 17,
    "icao": "ESHY",
    "lat": 59.7576422,
    "lon": 18.68918421,
    "communications": [],
    "elevation": 49,
    "tower": false,
    "name": "Norrtaelje Sjukhus",
    "runways": [
      {
        "type": 102,
        "width": 24.7,
        "surfaceType": 15,
        "numberStart": "H1",
        "numberEnd": null,
        "latStart": 59.7576422,
        "lonStart": 18.68918421,
        "latEnd": null,
        "lonEnd": null,
        "length": 24.2
      }
    ],
    "id": 18430
  },
  {
    "type": 17,
    "icao": "ESHC",
    "lat": 59.30847283,
    "lon": 18.05473097,
    "communications": [],
    "elevation": 137,
    "tower": false,
    "name": "Soedersjukhuset Stockholm",
    "runways": [
      {
        "type": 102,
        "width": 25.8,
        "surfaceType": 15,
        "numberStart": "H3",
        "numberEnd": null,
        "latStart": 59.30847283,
        "lonStart": 18.05473097,
        "latEnd": null,
        "lonEnd": null,
        "length": 30.4
      }
    ],
    "id": 23800
  },
  {
    "type": 17,
    "icao": "ESHG",
    "lat": 59.323251795000004,
    "lon": 18.064833555,
    "communications": [],
    "elevation": 0,
    "tower": false,
    "name": "[H] Stockholm - Gamla Stan",
    "runways": [
      {
        "type": 102,
        "width": 7.5,
        "surfaceType": 1,
        "numberStart": "H1",
        "numberEnd": null,
        "latStart": 59.32278194,
        "lonStart": 18.06625026,
        "latEnd": null,
        "lonEnd": null,
        "length": 7.5
      },
      {
        "type": 102,
        "width": 10,
        "surfaceType": 15,
        "numberStart": "H3",
        "numberEnd": null,
        "latStart": 59.32372165,
        "lonStart": 18.06341685,
        "latEnd": null,
        "lonEnd": null,
        "length": 16.43
      }
    ],
    "id": 33087
  }
]