[
  {
    "type": 1,
    "icao": "LCPH",
    "lat": 34.71814826,
    "lon": 32.484839050000005,
    "communications": [
      {
        "type": 54,
        "frequency": 11990,
        "name": "TWR"
      },
      {
        "type": 55,
        "frequency": 12080,
        "name": "APP"
      }
    ],
    "elevation": 41,
    "tower": true,
    "name": "PAFOS INTL",
    "runways": [
      {
        "type": 100,
        "width": 45.11,
        "surfaceType": null,
        "numberStart": "11",
        "numberEnd": "29",
        "latStart": 34.72235853,
        "lonStart": 32.47101389,
        "latEnd": 34.71393799,
        "lonEnd": 32.49866421,
        "length": 0,
        "surfacetype": 1
      }
    ],
    "id": 3464
  },
  {
    "type": 1,
    "icao": "LCRA",
    "lat": 34.590417,
    "lon": 32.987750000000005,
    "communications": [
      {
        "type": 54,
        "frequency": 12210,
        "name": "TWR"
      },
      {
        "type": 55,
        "frequency": 12210,
        "name": "APP"
      },
      {
        "type": 55,
        "frequency": 12210,
        "name": "DIRECTOR"
      },
      {
        "type": 55,
        "frequency": 12330,
        "name": "DIRECTOR"
      }
    ],
    "elevation": 76,
    "tower": true,
    "name": "Akrotiri",
    "runways": [
      {
        "type": 100,
        "width": 60.96,
        "surfaceType": null,
        "numberStart": "10",
        "numberEnd": "28",
        "latStart": 34.594167,
        "lonStart": 32.9735,
        "latEnd": 34.586667,
        "lonEnd": 33.002,
        "length": 0,
        "surfacetype": 1
      }
    ],
    "id": 20142
  }
]