[
  {
    "type": 1,
    "icao": "RJA2",
    "lat": 35.85939135,
    "lon": 140.241239675,
    "communications": [],
    "elevation": 7,
    "tower": true,
    "name": "Ohotone",
    "runways": [
      {
        "type": 100,
        "width": 20.12,
        "surfaceType": null,
        "numberStart": "07",
        "numberEnd": "25",
        "latStart": 35.85835808,
        "lonStart": 140.23817922,
        "latEnd": 35.86042462,
        "lonEnd": 140.24430013,
        "length": 0,
        "surfacetype": 1
      }
    ],
    "id": 4428
  },
  {
    "type": 1,
    "icao": "RJA3",
    "lat": 35.906268785,
    "lon": 140.24214059,
    "communications": [],
    "elevation": 8,
    "tower": true,
    "name": "Ryugasaki",
    "runways": [
      {
        "type": 100,
        "width": 35,
        "surfaceType": null,
        "numberStart": "08",
        "numberEnd": "26",
        "latStart": 35.90518754,
        "lonStart": 140.23790375,
        "latEnd": 35.90735003,
        "lonEnd": 140.24637743,
        "length": 0,
        "surfacetype": 1
      }
    ],
    "id": 4429
  },
  {
    "type": 1,
    "icao": "RJAA",
    "lat": 35.77748312,
    "lon": 140.38186407749998,
    "communications": [
      {
        "type": 50,
        "frequency": 12825,
        "name": "ATIS"
      },
      {
        "type": 52,
        "frequency": 12190,
        "name": "CLNC DEL"
      },
      {
        "type": 53,
        "frequency": 12195,
        "name": "GND"
      },
      {
        "type": 54,
        "frequency": 11835,
        "name": "TWR"
      },
      {
        "type": 54,
        "frequency": 11820,
        "name": "TWR"
      },
      {
        "type": 55,
        "frequency": 11945,
        "name": "TCA"
      },
      {
        "type": 55,
        "frequency": 12440,
        "name": "APP"
      },
      {
        "type": 56,
        "frequency": 12420,
        "name": "DEP"
      },
      {
        "type": 56,
        "frequency": 11960,
        "name": "DEP"
      }
    ],
    "elevation": 141,
    "tower": true,
    "name": "Tokyo Narita International",
    "runways": [
      {
        "type": 100,
        "width": 57.5,
        "surfaceType": null,
        "numberStart": "16R",
        "numberEnd": "34L",
        "latStart": 35.77487976,
        "lonStart": 140.36795951,
        "latEnd": 35.74432457,
        "lonEnd": 140.39005556,
        "length": 0,
        "surfacetype": 1
      },
      {
        "type": 100,
        "width": 55.5,
        "surfaceType": null,
        "numberStart": "16L",
        "numberEnd": "34R",
        "latStart": 35.80512984,
        "lonStart": 140.3776587,
        "latEnd": 35.78559831,
        "lonEnd": 140.39178254,
        "length": 0,
        "surfacetype": 1
      }
    ],
    "id": 4430
  },
  {
    "type": 1,
    "icao": "RJTL",
    "lat": 35.798944500000005,
    "lon": 140.01220849999999,
    "communications": [
      {
        "type": 54,
        "frequency": 12620,
        "name": "TWR"
      },
      {
        "type": 55,
        "frequency": 12200,
        "name": "PAR"
      },
      {
        "type": 55,
        "frequency": 12600,
        "name": "TOKYO APP"
      },
      {
        "type": 56,
        "frequency": 12600,
        "name": "TOKYO DEP"
      },
      {
        "type": 56,
        "frequency": 12080,
        "name": "TOKYO DEP"
      },
      {
        "type": 56,
        "frequency": 12760,
        "name": "TOKYO DEP"
      }
    ],
    "elevation": 98,
    "tower": true,
    "name": "SHIMOFUSA",
    "runways": [
      {
        "type": 100,
        "width": 45.72,
        "surfaceType": null,
        "numberStart": "01",
        "numberEnd": "19",
        "latStart": 35.788806,
        "lonStart": 140.012417,
        "latEnd": 35.809083,
        "lonEnd": 140.012,
        "length": 0,
        "surfacetype": 2
      }
    ],
    "id": 24441
  }
]