[
  {
    "type": 17,
    "icao": "CAB5",
    "lat": 49.03628298,
    "lon": -122.31404792,
    "communications": [
      {
        "type": 54,
        "frequency": 11940,
        "name": "TWR (inner)"
      },
      {
        "type": 54,
        "frequency": 12100,
        "name": "TWR (outer)"
      }
    ],
    "elevation": 0,
    "tower": true,
    "name": "Abbotsford Regional Hospital & Cancer Centre Heliport",
    "runways": [
      {
        "type": 102,
        "width": 25.9,
        "surfaceType": 1,
        "numberStart": "H1",
        "numberEnd": null,
        "latStart": 49.03628298,
        "lonStart": -122.31404792,
        "latEnd": null,
        "lonEnd": null,
        "length": 25.9
      }
    ],
    "id": 640
  },
  {
    "type": 1,
    "icao": "CAK3",
    "lat": 49.078764,
    "lon": -122.94053,
    "communications": [
      {
        "type": 54,
        "frequency": 12330,
        "name": "RDO"
      }
    ],
    "elevation": 10,
    "tower": true,
    "name": "DELTA HERITAGE AIR PARK",
    "runways": [
      {
        "type": 100,
        "width": 22.86,
        "surfaceType": null,
        "numberStart": "07",
        "numberEnd": "25",
        "latStart": 49.078764,
        "lonStart": -122.94597391,
        "latEnd": 49.078764,
        "lonEnd": -122.93508609,
        "length": 0,
        "surfacetype": 3
      }
    ],
    "id": 642
  },
  {
    "type": 1,
    "icao": "CYNJ",
    "lat": 49.101962327500004,
    "lon": -122.6293605825,
    "communications": [],
    "elevation": 34,
    "tower": true,
    "name": "Langley",
    "runways": [
      {
        "type": 100,
        "width": 22.86,
        "surfaceType": null,
        "numberStart": "01",
        "numberEnd": "19",
        "latStart": 49.09849555,
        "lonStart": -122.63028336,
        "latEnd": 49.10339589,
        "lonEnd": -122.62569267,
        "length": 0,
        "surfacetype": 1
      },
      {
        "type": 100,
        "width": 22.86,
        "surfaceType": null,
        "numberStart": "07",
        "numberEnd": "25",
        "latStart": 49.10306739,
        "lonStart": -122.63645788,
        "latEnd": 49.10289048,
        "lonEnd": -122.62500842,
        "length": 0,
        "surfacetype": 1
      }
    ],
    "id": 797
  },
  {
    "type": 1,
    "icao": "CYPK",
    "lat": 49.213936782999994,
    "lon": -122.70894103200001,
    "communications": [
      {
        "type": 50,
        "frequency": 12500,
        "name": "ATIS 125.0"
      },
      {
        "type": 53,
        "frequency": 12380,
        "name": "GND 123.8"
      },
      {
        "type": 54,
        "frequency": 12630,
        "name": "TWR 126.3"
      },
      {
        "type": 56,
        "frequency": 13230,
        "name": "DEP 132.3"
      }
    ],
    "elevation": 11,
    "tower": true,
    "name": "Pitt Meadows",
    "runways": [
      {
        "type": 100,
        "width": 22.86,
        "surfaceType": null,
        "numberStart": "08L",
        "numberEnd": "26R",
        "latStart": 49.21909057,
        "lonStart": -122.71596248,
        "latEnd": 49.21827447,
        "lonEnd": -122.70607842,
        "length": 0,
        "surfacetype": 1
      },
      {
        "type": 100,
        "width": 29.87,
        "surfaceType": null,
        "numberStart": "08R",
        "numberEnd": "26L",
        "latStart": 49.21487631,
        "lonStart": -122.72327564,
        "latEnd": 49.21330899,
        "lonEnd": -122.70338458,
        "length": 0,
        "surfacetype": 1
      },
      {
        "type": 100,
        "width": 22.86,
        "surfaceType": null,
        "numberStart": "18",
        "numberEnd": "36",
        "latStart": 49.21905346,
        "lonStart": -122.70687635,
        "latEnd": 49.21320614,
        "lonEnd": -122.71051083,
        "length": 0,
        "surfacetype": 1
      },
      {
        "type": 101,
        "width": 49.38,
        "surfaceType": null,
        "numberStart": "11",
        "numberEnd": "29",
        "latStart": 49.21110122,
        "lonStart": -122.71724887,
        "latEnd": 49.20623204,
        "lonEnd": -122.70224343,
        "length": 0
      },
      {
        "type": 102,
        "width": 24,
        "surfaceType": 15,
        "numberStart": "H1",
        "numberEnd": null,
        "latStart": 49.21212541,
        "lonStart": -122.70208254,
        "latEnd": null,
        "lonEnd": null,
        "length": 24
      },
      {
        "type": 102,
        "width": 24,
        "surfaceType": 15,
        "numberStart": "H2",
        "numberEnd": null,
        "latStart": 49.21209922,
        "lonStart": -122.70174718,
        "latEnd": null,
        "lonEnd": null,
        "length": 24
      }
    ],
    "id": 805
  },
  {
    "type": 1,
    "icao": "CYXX",
    "lat": 49.024712358,
    "lon": -122.36790001,
    "communications": [
      {
        "type": 50,
        "frequency": 11980,
        "name": "CYXX ATIS"
      },
      {
        "type": 50,
        "frequency": 12250,
        "name": "ABBOTSFORD FSS"
      },
      {
        "type": 50,
        "frequency": 12670,
        "name": "ABBOTSFORD FSS"
      },
      {
        "type": 53,
        "frequency": 12180,
        "name": "ABBOTSFORD GND"
      },
      {
        "type": 54,
        "frequency": 11940,
        "name": "ABBOTSFORD TWR"
      },
      {
        "type": 55,
        "frequency": 13269,
        "name": "VICTORIA APP"
      }
    ],
    "elevation": 187,
    "tower": true,
    "name": "Abbotsford",
    "runways": [
      {
        "type": 100,
        "width": 61,
        "surfaceType": null,
        "numberStart": "07",
        "numberEnd": "25",
        "latStart": 49.01911887,
        "lonStart": -122.37991855,
        "latEnd": 49.02106912,
        "lonEnd": -122.33988768,
        "length": 0,
        "surfacetype": 1
      },
      {
        "type": 100,
        "width": 61,
        "surfaceType": null,
        "numberStart": "01",
        "numberEnd": "19",
        "latStart": 49.01876667,
        "lonStart": -122.37871944,
        "latEnd": 49.031764,
        "lonEnd": -122.369176,
        "length": 0,
        "surfacetype": 1
      },
      {
        "type": 102,
        "width": 15,
        "surfaceType": 1,
        "numberStart": "H1",
        "numberEnd": null,
        "latStart": 49.03284313,
        "lonStart": -122.37179838,
        "latEnd": null,
        "lonEnd": null,
        "length": 14.5
      }
    ],
    "id": 864
  },
  {
    "type": 1,
    "icao": "CBQ2",
    "lat": 49.167146,
    "lon": -122.55184700000001,
    "communications": [
      {
        "type": 51,
        "frequency": 12320,
        "name": "FORT LANGLEY MULT"
      }
    ],
    "elevation": 6,
    "tower": false,
    "name": "Fort Langley",
    "runways": [
      {
        "type": 100,
        "width": 21.34,
        "surfaceType": null,
        "numberStart": "08",
        "numberEnd": "26",
        "latStart": 49.167572,
        "lonStart": -122.556359,
        "latEnd": 49.16672,
        "lonEnd": -122.547335,
        "length": 0,
        "surfacetype": 1
      }
    ],
    "id": 15101
  },
  {
    "type": 1,
    "icao": "SCHL",
    "lat": 49.746821999999995,
    "lon": -122.15054762,
    "communications": [],
    "elevation": 41,
    "tower": false,
    "name": "Harrison Lake Logging Camp",
    "runways": [
      {
        "type": 100,
        "width": 14.94,
        "surfaceType": null,
        "numberStart": "12",
        "numberEnd": "30",
        "latStart": 49.7487535,
        "lonStart": -122.15353678,
        "latEnd": 49.7448905,
        "lonEnd": -122.14755846,
        "length": 0,
        "surfacetype": 5
      }
    ],
    "id": 25249
  }
]