[
  {
    "type": 1,
    "icao": "KJKA",
    "lat": 30.289177852,
    "lon": -40.492635736,
    "communications": [
      {
        "type": 50,
        "frequency": 13452,
        "name": "AWOS 3"
      },
      {
        "type": 51,
        "frequency": 12270,
        "name": "CTAF/UNICOM"
      },
      {
        "type": 52,
        "frequency": 12455,
        "name": "CLNC DEL"
      },
      {
        "type": 56,
        "frequency": 12065,
        "name": "PENSACOLA DEPARTURE"
      },
      {
        "type": 55,
        "frequency": 12065,
        "name": "PENSACOLA APPROACH"
      }
    ],
    "elevation": 17,
    "tower": false,
    "name": "JACK EDWARDS",
    "runways": [
      {
        "type": 100,
        "width": 30.48,
        "surfaceType": null,
        "numberStart": "09",
        "numberEnd": "27",
        "latStart": 30.290283,
        "lonStart": -87.680244,
        "latEnd": 30.290321,
        "lonEnd": -87.658186,
        "length": 0,
        "surfacetype": 1
      },
      {
        "type": 100,
        "width": 22.86,
        "surfaceType": null,
        "numberStart": "17",
        "numberEnd": "35",
        "latStart": 30.293256,
        "lonStart": -87.677236,
        "latEnd": 30.283406,
        "lonEnd": -87.676261,
        "length": 0,
        "surfacetype": 1
      },
      {
        "type": 102,
        "width": 30.5,
        "surfaceType": 1,
        "numberStart": "H35",
        "numberEnd": null,
        "latStart": 30.28862326,
        "lonStart": -87.67942568,
        "latEnd": null,
        "lonEnd": null,
        "length": 30.5
      }
    ],
    "id": 12663
  },
  {
    "type": 1,
    "icao": "MM69",
    "lat": 30.674453,
    "lon": -40.1279095,
    "communications": [],
    "elevation": 2536,
    "tower": false,
    "name": "TACICURI",
    "runways": [
      {
        "type": 100,
        "width": 21.34,
        "surfaceType": null,
        "numberStart": "03",
        "numberEnd": "21",
        "latStart": 30.669128,
        "lonStart": -110.935597,
        "latEnd": 30.679778,
        "lonEnd": -110.926894,
        "length": 0,
        "surfacetype": 1
      }
    ],
    "id": 24534
  }
]