[
  {
    "type": 1,
    "icao": "MDAB",
    "lat": 19.1985865,
    "lon": -69.4297725,
    "communications": [
      {
        "type": 54,
        "frequency": 11845,
        "name": "TWR"
      }
    ],
    "elevation": 57,
    "tower": true,
    "name": "ARROYO BARRIL INTL",
    "runways": [
      {
        "type": 100,
        "width": 24.99,
        "surfaceType": null,
        "numberStart": "11",
        "numberEnd": "29",
        "latStart": 19.199456,
        "lonStart": -69.435242,
        "latEnd": 19.197717,
        "lonEnd": -69.424303,
        "length": 0,
        "surfacetype": 1
      }
    ],
    "id": 21209
  },
  {
    "type": 1,
    "icao": "MDCY",
    "lat": 19.264916499999998,
    "lon": -69.73208349999999,
    "communications": [
      {
        "type": 53,
        "frequency": 12170,
        "name": "Catey Ground"
      },
      {
        "type": 54,
        "frequency": 11835,
        "name": "Catey Tower"
      }
    ],
    "elevation": 12,
    "tower": true,
    "name": "Samana El Catey International",
    "runways": [
      {
        "type": 100,
        "width": 45.11,
        "surfaceType": null,
        "numberStart": "07",
        "numberEnd": "25",
        "latStart": 19.257833,
        "lonStart": -69.743,
        "latEnd": 19.272,
        "lonEnd": -69.721167,
        "length": 0,
        "surfacetype": 1
      }
    ],
    "id": 21212
  },
  {
    "type": 1,
    "icao": "MDPO",
    "lat": 19.319540945,
    "lon": -69.490814,
    "communications": [],
    "elevation": 57,
    "tower": true,
    "name": "El Portillo National",
    "runways": [
      {
        "type": 100,
        "width": 17.07,
        "surfaceType": null,
        "numberStart": "9",
        "numberEnd": "27",
        "latStart": 19.31954068,
        "lonStart": -69.49598785,
        "latEnd": 19.31954121,
        "lonEnd": -69.48564015,
        "length": 0,
        "surfacetype": 1
      }
    ],
    "id": 21218
  },
  {
    "type": 16,
    "icao": "SP20",
    "lat": 19.174044,
    "lon": -69.432617,
    "communications": [],
    "elevation": 0,
    "tower": false,
    "name": "[S] Arroyo Barril Harbor",
    "runways": [
      {
        "type": 101,
        "width": 3047.7,
        "surfaceType": null,
        "numberStart": "18",
        "numberEnd": "36",
        "latStart": 19.1877589,
        "lonStart": -69.432617,
        "latEnd": 19.1603291,
        "lonEnd": -69.432617,
        "length": 0
      }
    ],
    "id": 28234
  }
]