[
  {
    "type": 1,
    "icao": "KTTD",
    "lat": 45.550391960000006,
    "lon": -66.41843220666667,
    "communications": [
      {
        "type": 50,
        "frequency": 13562,
        "name": "ASOS"
      },
      {
        "type": 50,
        "frequency": 13562,
        "name": "ATIS"
      },
      {
        "type": 51,
        "frequency": 12090,
        "name": "CTAF"
      },
      {
        "type": 51,
        "frequency": 12295,
        "name": "UNICOM"
      },
      {
        "type": 53,
        "frequency": 12180,
        "name": "GND"
      },
      {
        "type": 54,
        "frequency": 12090,
        "name": "TROUTDALE TWR"
      },
      {
        "type": 55,
        "frequency": 12435,
        "name": "APP"
      },
      {
        "type": 55,
        "frequency": 11810,
        "name": "APP"
      },
      {
        "type": 56,
        "frequency": 12435,
        "name": "DEP"
      }
    ],
    "elevation": 39,
    "tower": true,
    "name": "Portland Troutdale",
    "runways": [
      {
        "type": 100,
        "width": 45.72,
        "surfaceType": null,
        "numberStart": "07",
        "numberEnd": "25",
        "latStart": 45.549194,
        "lonStart": -122.411786,
        "latEnd": 45.549539,
        "lonEnd": -122.390719,
        "length": 0,
        "surfacetype": 1
      },
      {
        "type": 102,
        "width": 16.6,
        "surfaceType": 1,
        "numberStart": "H1",
        "numberEnd": null,
        "latStart": 45.55244288,
        "lonStart": -122.39304962,
        "latEnd": null,
        "lonEnd": null,
        "length": 17.4
      }
    ],
    "id": 20417
  },
  {
    "type": 1,
    "icao": "OR80",
    "lat": 45.50956055,
    "lon": -66.81218152999999,
    "communications": [],
    "elevation": 200,
    "tower": false,
    "name": "Teufels Farm Strip",
    "runways": [
      {
        "type": 100,
        "width": 15.24,
        "surfaceType": null,
        "numberStart": "09",
        "numberEnd": "27",
        "latStart": 45.51027497,
        "lonStart": -122.97417571,
        "latEnd": 45.50884613,
        "lonEnd": -122.96825431,
        "length": 0,
        "surfacetype": 3
      },
      {
        "type": 102,
        "width": 12.19,
        "surfaceType": 3,
        "numberStart": "H1",
        "numberEnd": null,
        "latStart": 45.50956055,
        "lonStart": -122.97121501,
        "latEnd": null,
        "lonEnd": null,
        "length": 15.24
      }
    ],
    "id": 25196
  }
]