[
  {
    "type": 1,
    "icao": "MT05",
    "lat": 45.70606194,
    "lon": -31.458796820000003,
    "communications": [],
    "elevation": 3189,
    "tower": false,
    "name": "Airpark Oscars",
    "runways": [
      {
        "type": 100,
        "width": 10.67,
        "surfaceType": null,
        "numberStart": "03",
        "numberEnd": "21",
        "latStart": 45.70306529,
        "lonStart": -108.62665223,
        "latEnd": 45.70905859,
        "lonEnd": -108.61807001,
        "length": 0,
        "surfacetype": 1
      }
    ],
    "id": 760
  },
  {
    "type": 1,
    "icao": "6S1",
    "lat": 45.2916665,
    "lon": -31.8197225,
    "communications": [
      {
        "type": 51,
        "frequency": 12290,
        "name": "CTAF"
      }
    ],
    "elevation": 3720,
    "tower": false,
    "name": "BRIDGER MUNI",
    "runways": [
      {
        "type": 100,
        "width": 12.8,
        "surfaceType": null,
        "numberStart": "16",
        "numberEnd": "34",
        "latStart": 45.296389,
        "lonStart": -108.926389,
        "latEnd": 45.286944,
        "lonEnd": -108.925,
        "length": 0,
        "surfacetype": 1
      }
    ],
    "id": 1909
  },
  {
    "type": 1,
    "icao": "7U9",
    "lat": 45.405223050000004,
    "lon": -31.864299965,
    "communications": [],
    "elevation": 4319,
    "tower": false,
    "name": "Bangart Field",
    "runways": [
      {
        "type": 100,
        "width": 12.19,
        "surfaceType": null,
        "numberStart": "17",
        "numberEnd": "35",
        "latStart": 45.40973175,
        "lonStart": -109.12931428,
        "latEnd": 45.40071435,
        "lonEnd": -109.13043796,
        "length": 0,
        "surfacetype": 5
      }
    ],
    "id": 2187
  },
  {
    "type": 1,
    "icao": "6S3",
    "lat": 45.6305375,
    "lon": -31.808787499999998,
    "communications": [
      {
        "type": 51,
        "frequency": 12280,
        "name": "CTAF/UNICOM"
      }
    ],
    "elevation": 3575,
    "tower": false,
    "name": "COLUMBUS",
    "runways": [
      {
        "type": 100,
        "width": 22.86,
        "surfaceType": null,
        "numberStart": "10",
        "numberEnd": "28",
        "latStart": 45.632503,
        "lonStart": -109.246147,
        "latEnd": 45.628572,
        "lonEnd": -109.232331,
        "length": 0,
        "surfacetype": 1
      }
    ],
    "id": 4063
  },
  {
    "type": 1,
    "icao": "5U7",
    "lat": 45.320833,
    "lon": -31.308888999999997,
    "communications": [
      {
        "type": 51,
        "frequency": 12290,
        "name": "CTAF"
      }
    ],
    "elevation": 3242,
    "tower": false,
    "name": "FORT SMITH LNDG STRIP",
    "runways": [
      {
        "type": 100,
        "width": 15.24,
        "surfaceType": null,
        "numberStart": "07",
        "numberEnd": "25",
        "latStart": 45.320833,
        "lonStart": -107.938611,
        "latEnd": 45.320833,
        "lonEnd": -107.923889,
        "length": 0,
        "surfacetype": 1
      }
    ],
    "id": 7646
  },
  {
    "type": 1,
    "icao": "KBIL",
    "lat": 45.80762239833333,
    "lon": -31.37664301166667,
    "communications": [
      {
        "type": 54,
        "frequency": 12720,
        "name": "tower"
      },
      {
        "type": 50,
        "frequency": 12630,
        "name": "atis"
      },
      {
        "type": 53,
        "frequency": 12990,
        "name": "GND CON"
      },
      {
        "type": 52,
        "frequency": 12190,
        "name": "clnc del"
      }
    ],
    "elevation": 3651,
    "tower": true,
    "name": "KBIL",
    "runways": [
      {
        "type": 100,
        "width": 45.72,
        "surfaceType": null,
        "numberStart": "10L",
        "numberEnd": "28R",
        "latStart": 45.81269711,
        "lonStart": -108.55481125,
        "latEnd": 45.80162782,
        "lonEnd": -108.51505347,
        "length": 0,
        "surfacetype": 1
      },
      {
        "type": 100,
        "width": 22.86,
        "surfaceType": null,
        "numberStart": "10R",
        "numberEnd": "28L",
        "latStart": 45.80919738,
        "lonStart": -108.56281486,
        "latEnd": 45.8053057,
        "lonEnd": -108.54896676,
        "length": 0,
        "surfacetype": 1
      },
      {
        "type": 100,
        "width": 22.86,
        "surfaceType": null,
        "numberStart": "07",
        "numberEnd": "25",
        "latStart": 45.80766617,
        "lonStart": -108.55840569,
        "latEnd": 45.80924021,
        "lonEnd": -108.5369312,
        "length": 0,
        "surfacetype": 1
      }
    ],
    "id": 13281
  },
  {
    "type": 1,
    "icao": "6S8",
    "lat": 45.70400816666666,
    "lon": -31.530522666666666,
    "communications": [
      {
        "type": 51,
        "frequency": 12305,
        "name": "CTAF/UNICOM"
      },
      {
        "type": 55,
        "frequency": 11920,
        "name": "BILLING APP/DEP"
      },
      {
        "type": 55,
        "frequency": 12050,
        "name": "BILLING APP/DEP"
      }
    ],
    "elevation": 3517,
    "tower": false,
    "name": "LAUREL MUNI",
    "runways": [
      {
        "type": 100,
        "width": 22.86,
        "surfaceType": null,
        "numberStart": "04",
        "numberEnd": "22",
        "latStart": 45.701625,
        "lonStart": -108.763969,
        "latEnd": 45.710739,
        "lonEnd": -108.748319,
        "length": 0,
        "surfacetype": 1
      },
      {
        "type": 100,
        "width": 15.24,
        "surfaceType": null,
        "numberStart": "14",
        "numberEnd": "32",
        "latStart": 45.704294,
        "lonStart": -108.766528,
        "latEnd": 45.698933,
        "lonEnd": -108.762503,
        "length": 0,
        "surfacetype": 1
      },
      {
        "type": 100,
        "width": 18.29,
        "surfaceType": null,
        "numberStart": "09",
        "numberEnd": "27",
        "latStart": 45.70445,
        "lonStart": -108.766319,
        "latEnd": 45.704008,
        "lonEnd": -108.762061,
        "length": 0,
        "surfacetype": 3
      }
    ],
    "id": 14422
  }
]