[
  {
    "type": 1,
    "icao": "85OR",
    "lat": 42.404595,
    "lon": -39.324386829999995,
    "communications": [],
    "elevation": 4410,
    "tower": false,
    "name": "Allens Airstrip",
    "runways": [
      {
        "type": 100,
        "width": 24.38,
        "surfaceType": null,
        "numberStart": "15",
        "numberEnd": "33",
        "latStart": 42.40808295,
        "lonStart": -121.04988071,
        "latEnd": 42.40110705,
        "lonEnd": -121.04787263,
        "length": 0,
        "surfacetype": 4
      }
    ],
    "id": 891
  },
  {
    "type": 1,
    "icao": "71OR",
    "lat": 42.161544989999996,
    "lon": -39.376081080000006,
    "communications": [],
    "elevation": 5180,
    "tower": false,
    "name": "Barnes Valley",
    "runways": [
      {
        "type": 100,
        "width": 15.24,
        "surfaceType": null,
        "numberStart": "16",
        "numberEnd": "34",
        "latStart": 42.16510869,
        "lonStart": -120.91014345,
        "latEnd": 42.15798129,
        "lonEnd": -120.90980767,
        "length": 0,
        "surfacetype": 4
      }
    ],
    "id": 2251
  },
  {
    "type": 1,
    "icao": "2S7",
    "lat": 42.5831945,
    "lon": -39.6490275,
    "communications": [
      {
        "type": 51,
        "frequency": 12290,
        "name": "CTAF"
      }
    ],
    "elevation": 4216,
    "tower": false,
    "name": "Chiloquin State",
    "runways": [
      {
        "type": 100,
        "width": 18.29,
        "surfaceType": null,
        "numberStart": "17",
        "numberEnd": "35",
        "latStart": 42.588333,
        "lonStart": -121.876111,
        "latEnd": 42.578056,
        "lonEnd": -121.876111,
        "length": 0,
        "surfacetype": 1
      }
    ],
    "id": 4922
  },
  {
    "type": 1,
    "icao": "OR26",
    "lat": 42.127660829999996,
    "lon": -39.179684574999996,
    "communications": [],
    "elevation": 4775,
    "tower": false,
    "name": "Farr",
    "runways": [
      {
        "type": 100,
        "width": 12.19,
        "surfaceType": null,
        "numberStart": "17",
        "numberEnd": "35",
        "latStart": 42.13147238,
        "lonStart": -120.48321843,
        "latEnd": 42.12384928,
        "lonEnd": -120.48448047,
        "length": 0,
        "surfacetype": 3
      }
    ],
    "id": 7820
  },
  {
    "type": 1,
    "icao": "5OR4",
    "lat": 42.434868879999996,
    "lon": -39.460396419999995,
    "communications": [],
    "elevation": 4339,
    "tower": false,
    "name": "Flying T Ranch",
    "runways": [
      {
        "type": 100,
        "width": 18.29,
        "surfaceType": null,
        "numberStart": "10",
        "numberEnd": "28",
        "latStart": 42.43654296,
        "lonStart": -121.35398764,
        "latEnd": 42.4331948,
        "lonEnd": -121.3454557,
        "length": 0,
        "surfacetype": 3
      }
    ],
    "id": 9516
  },
  {
    "type": 1,
    "icao": "25OR",
    "lat": 42.124317000000005,
    "lon": -39.669142135,
    "communications": [],
    "elevation": 4120,
    "tower": false,
    "name": "Juniper Hills",
    "runways": [
      {
        "type": 100,
        "width": 18.29,
        "surfaceType": null,
        "numberStart": "16",
        "numberEnd": "34",
        "latStart": 42.12755184,
        "lonStart": -121.45936643,
        "latEnd": 42.12108216,
        "lonEnd": -121.45619157,
        "length": 0,
        "surfacetype": 3
      }
    ],
    "id": 13148
  },
  {
    "type": 1,
    "icao": "KLMT",
    "lat": 42.1561343025,
    "lon": -39.795753202499995,
    "communications": [
      {
        "type": 50,
        "frequency": 12650,
        "name": "ATIS"
      },
      {
        "type": 51,
        "frequency": 11820,
        "name": "CTAF"
      },
      {
        "type": 51,
        "frequency": 12295,
        "name": "UNICOM"
      },
      {
        "type": 53,
        "frequency": 12190,
        "name": "GND"
      },
      {
        "type": 54,
        "frequency": 11820,
        "name": "KINGSLEY TWR"
      },
      {
        "type": 55,
        "frequency": 12367,
        "name": "KINGSLEY APP/DEP"
      }
    ],
    "elevation": 4095,
    "tower": true,
    "name": "Klamath Falls",
    "runways": [
      {
        "type": 100,
        "width": 45.72,
        "surfaceType": null,
        "numberStart": "14",
        "numberEnd": "32",
        "latStart": 42.16889124,
        "lonStart": -121.74017122,
        "latEnd": 42.14325166,
        "lonEnd": -121.72636592,
        "length": 0,
        "surfacetype": 1
      },
      {
        "type": 100,
        "width": 30.48,
        "surfaceType": null,
        "numberStart": "07",
        "numberEnd": "25",
        "latStart": 42.15623915,
        "lonStart": -121.74224841,
        "latEnd": 42.15615516,
        "lonEnd": -121.7233662,
        "length": 0,
        "surfacetype": 1
      }
    ],
    "id": 13968
  },
  {
    "type": 1,
    "icao": "0OR3",
    "lat": 42.019038609999996,
    "lon": -39.84464049,
    "communications": [],
    "elevation": 4090,
    "tower": false,
    "name": "Long Ranch",
    "runways": [
      {
        "type": 100,
        "width": 30.48,
        "surfaceType": null,
        "numberStart": "10",
        "numberEnd": "28",
        "latStart": 42.02029417,
        "lonStart": -121.70706403,
        "latEnd": 42.01778305,
        "lonEnd": -121.70070709,
        "length": 0,
        "surfacetype": 5
      }
    ],
    "id": 15465
  },
  {
    "type": 1,
    "icao": "4S7",
    "lat": 42.0011265,
    "lon": -39.700361,
    "communications": [
      {
        "type": 51,
        "frequency": 12290,
        "name": "CTAF"
      }
    ],
    "elevation": 4051,
    "tower": false,
    "name": "Malin",
    "runways": [
      {
        "type": 100,
        "width": 9.14,
        "surfaceType": null,
        "numberStart": "14",
        "numberEnd": "32",
        "latStart": 42.004694,
        "lonStart": -121.398281,
        "latEnd": 41.997559,
        "lonEnd": -121.394451,
        "length": 0,
        "surfacetype": 1
      }
    ],
    "id": 16536
  },
  {
    "type": 1,
    "icao": "87OR",
    "lat": 42.65181194,
    "lon": -39.340466795,
    "communications": [],
    "elevation": 4980,
    "tower": false,
    "name": "Moondance Ranch",
    "runways": [
      {
        "type": 100,
        "width": 15.24,
        "surfaceType": null,
        "numberStart": "12",
        "numberEnd": "30",
        "latStart": 42.65354461,
        "lonStart": -121.33101286,
        "latEnd": 42.65007927,
        "lonEnd": -121.32677048,
        "length": 0,
        "surfacetype": 3
      }
    ],
    "id": 17456
  },
  {
    "type": 1,
    "icao": "64S",
    "lat": 42.7431945,
    "lon": -39.8725,
    "communications": [
      {
        "type": 51,
        "frequency": 12280,
        "name": "CTAF/UNICOM"
      }
    ],
    "elevation": 2578,
    "tower": false,
    "name": "Prospect State",
    "runways": [
      {
        "type": 100,
        "width": 15.24,
        "surfaceType": null,
        "numberStart": "02",
        "numberEnd": "20",
        "latStart": 42.738889,
        "lonStart": -122.4925,
        "latEnd": 42.7475,
        "lonEnd": -122.483611,
        "length": 0,
        "surfacetype": 1
      }
    ],
    "id": 20569
  },
  {
    "type": 1,
    "icao": "08OR",
    "lat": 42.83931166,
    "lon": -39.14002352,
    "communications": [],
    "elevation": 4990,
    "tower": false,
    "name": "Saxon Sycan",
    "runways": [
      {
        "type": 100,
        "width": 6.1,
        "surfaceType": null,
        "numberStart": "18",
        "numberEnd": "36",
        "latStart": 42.84298404,
        "lonStart": -121.11568632,
        "latEnd": 42.83563928,
        "lonEnd": -121.11874868,
        "length": 0,
        "surfacetype": 5
      }
    ],
    "id": 23069
  },
  {
    "type": 1,
    "icao": "KJVL",
    "lat": 42.6186777675,
    "lon": -39.6710446975,
    "communications": [
      {
        "type": 55,
        "frequency": 12100,
        "name": "ROCKFORD APP/DEP"
      },
      {
        "type": 50,
        "frequency": 12825,
        "name": "ATIS"
      },
      {
        "type": 52,
        "frequency": 12165,
        "name": "CLNC DEL"
      },
      {
        "type": 51,
        "frequency": 11880,
        "name": "CTAF"
      },
      {
        "type": 53,
        "frequency": 12165,
        "name": "JANESVILLE GND"
      },
      {
        "type": 51,
        "frequency": 11430,
        "name": "GREEN BAY RDO"
      },
      {
        "type": 54,
        "frequency": 11880,
        "name": "JANESVILLE TWR"
      },
      {
        "type": 51,
        "frequency": 12295,
        "name": "UNICOM"
      }
    ],
    "elevation": 808,
    "tower": false,
    "name": "Southern Wisconsin Regional Airport",
    "runways": [
      {
        "type": 100,
        "width": 45.72,
        "surfaceType": null,
        "numberStart": "14",
        "numberEnd": "32",
        "latStart": 42.62816795,
        "lonStart": -89.05520663,
        "latEnd": 42.61436402,
        "lonEnd": -89.03548397,
        "length": 0,
        "surfacetype": 2
      },
      {
        "type": 100,
        "width": 45.72,
        "surfaceType": null,
        "numberStart": "04",
        "numberEnd": "22",
        "latStart": 42.61177193,
        "lonStart": -89.04977622,
        "latEnd": 42.6255858,
        "lonEnd": -89.03329859,
        "length": 0,
        "surfacetype": 1
      },
      {
        "type": 100,
        "width": 22.86,
        "surfaceType": null,
        "numberStart": "18",
        "numberEnd": "36",
        "latStart": 42.62775297,
        "lonStart": -89.0362134,
        "latEnd": 42.61491279,
        "lonEnd": -89.03597279,
        "length": 0,
        "surfacetype": 1
      },
      {
        "type": 102,
        "width": 25.5,
        "surfaceType": 15,
        "numberStart": "H29",
        "numberEnd": null,
        "latStart": 42.61272711,
        "lonStart": -89.04364062,
        "latEnd": null,
        "lonEnd": null,
        "length": 24.2
      },
      {
        "type": 102,
        "width": 25.4,
        "surfaceType": 15,
        "numberStart": "H13",
        "numberEnd": null,
        "latStart": 42.61413957,
        "lonStart": -89.03838332,
        "latEnd": null,
        "lonEnd": null,
        "length": 24.6
      }
    ],
    "id": 23913
  },
  {
    "type": 1,
    "icao": "80OR",
    "lat": 42.36431833,
    "lon": -39.303285005000006,
    "communications": [],
    "elevation": 4540,
    "tower": false,
    "name": "Wilderness",
    "runways": [
      {
        "type": 100,
        "width": 24.38,
        "surfaceType": null,
        "numberStart": "08",
        "numberEnd": "26",
        "latStart": 42.36479552,
        "lonStart": -120.97041115,
        "latEnd": 42.36384114,
        "lonEnd": -120.96122053,
        "length": 0,
        "surfacetype": 5
      }
    ],
    "id": 27277
  }
]