[
  {
    "type": 1,
    "icao": "8M1",
    "lat": 34.590771000000004,
    "lon": -88.647628,
    "communications": [
      {
        "type": 51,
        "frequency": 12280,
        "name": "CTAF/UNICOM"
      }
    ],
    "elevation": 383,
    "tower": false,
    "name": "BOONEVILLE BALDWYN",
    "runways": [
      {
        "type": 100,
        "width": 18.29,
        "surfaceType": null,
        "numberStart": "15",
        "numberEnd": "33",
        "latStart": 34.595375,
        "lonStart": -88.651256,
        "latEnd": 34.586167,
        "lonEnd": -88.644,
        "length": 0,
        "surfacetype": 1
      }
    ],
    "id": 1834
  },
  {
    "type": 1,
    "icao": "MS18",
    "lat": 34.769999999999996,
    "lon": -88.60555556,
    "communications": [],
    "elevation": 465,
    "tower": false,
    "name": "Dilworth",
    "runways": [
      {
        "type": 100,
        "width": 10.67,
        "surfaceType": null,
        "numberStart": "18",
        "numberEnd": "36",
        "latStart": 34.77329108,
        "lonStart": -88.60548563,
        "latEnd": 34.76670892,
        "lonEnd": -88.60562549,
        "length": 0,
        "surfacetype": 3
      }
    ],
    "id": 6295
  },
  {
    "type": 1,
    "icao": "11M",
    "lat": 34.352046380000004,
    "lon": -88.37726834,
    "communications": [],
    "elevation": 450,
    "tower": false,
    "name": "Fulton-Itawamba County",
    "runways": [
      {
        "type": 100,
        "width": 18.29,
        "surfaceType": null,
        "numberStart": "17",
        "numberEnd": "35",
        "latStart": 34.35611019,
        "lonStart": -88.37804796,
        "latEnd": 34.34798257,
        "lonEnd": -88.37648872,
        "length": 0,
        "surfacetype": 1
      }
    ],
    "id": 9785
  },
  {
    "type": 1,
    "icao": "15M",
    "lat": 34.772368,
    "lon": -88.1658735,
    "communications": [
      {
        "type": 51,
        "frequency": 12290,
        "name": "CTAF"
      }
    ],
    "elevation": 630,
    "tower": false,
    "name": "IUKA",
    "runways": [
      {
        "type": 100,
        "width": 18.29,
        "surfaceType": null,
        "numberStart": "18",
        "numberEnd": "36",
        "latStart": 34.776753,
        "lonStart": -88.165503,
        "latEnd": 34.767983,
        "lonEnd": -88.166244,
        "length": 0,
        "surfacetype": 1
      }
    ],
    "id": 12371
  },
  {
    "type": 1,
    "icao": "MS68",
    "lat": 34.326493049999996,
    "lon": -88.57255028,
    "communications": [],
    "elevation": 458,
    "tower": false,
    "name": "Lambs Field",
    "runways": [
      {
        "type": 100,
        "width": 16.76,
        "surfaceType": null,
        "numberStart": "18",
        "numberEnd": "36",
        "latStart": 34.32875566,
        "lonStart": -88.57250246,
        "latEnd": 34.32423044,
        "lonEnd": -88.5725981,
        "length": 0,
        "surfacetype": 3
      }
    ],
    "id": 14886
  },
  {
    "type": 1,
    "icao": "MS29",
    "lat": 34.38260249,
    "lon": -88.53338306,
    "communications": [],
    "elevation": 322,
    "tower": false,
    "name": "Mantachie",
    "runways": [
      {
        "type": 100,
        "width": 47.24,
        "surfaceType": null,
        "numberStart": "09",
        "numberEnd": "27",
        "latStart": 34.38266592,
        "lonStart": -88.53778626,
        "latEnd": 34.38253906,
        "lonEnd": -88.52897986,
        "length": 0,
        "surfacetype": 3
      }
    ],
    "id": 16615
  },
  {
    "type": 1,
    "icao": "5A4",
    "lat": 34.015812499999996,
    "lon": -88.72619850000001,
    "communications": [
      {
        "type": 51,
        "frequency": 12290,
        "name": "CTAF"
      },
      {
        "type": 55,
        "frequency": 12607,
        "name": "COLUMBUS APP/DEP"
      }
    ],
    "elevation": 335,
    "tower": false,
    "name": "OKOLONA MUNI RICH STOVALL FLD",
    "runways": [
      {
        "type": 100,
        "width": 18.29,
        "surfaceType": null,
        "numberStart": "18",
        "numberEnd": "36",
        "latStart": 34.020208,
        "lonStart": -88.726236,
        "latEnd": 34.011417,
        "lonEnd": -88.726161,
        "length": 0,
        "surfacetype": 1
      }
    ],
    "id": 18632
  },
  {
    "type": 1,
    "icao": "KCRX",
    "lat": 34.914968,
    "lon": -88.603485,
    "communications": [
      {
        "type": 50,
        "frequency": 11867,
        "name": "AWOS 3"
      },
      {
        "type": 51,
        "frequency": 12280,
        "name": "CTAF/UNICOM"
      }
    ],
    "elevation": 425,
    "tower": false,
    "name": "ROSCOE TURNER",
    "runways": [
      {
        "type": 100,
        "width": 30.48,
        "surfaceType": null,
        "numberStart": "17",
        "numberEnd": "35",
        "latStart": 34.923842,
        "lonStart": -88.604703,
        "latEnd": 34.906094,
        "lonEnd": -88.602267,
        "length": 0,
        "surfacetype": 1
      }
    ],
    "id": 21036
  },
  {
    "type": 1,
    "icao": "MS63",
    "lat": 34.05427388,
    "lon": -88.37115334,
    "communications": [],
    "elevation": 330,
    "tower": false,
    "name": "Rye Field",
    "runways": [
      {
        "type": 100,
        "width": 30.48,
        "surfaceType": null,
        "numberStart": "16",
        "numberEnd": "34",
        "latStart": 34.05764548,
        "lonStart": -88.37255458,
        "latEnd": 34.05090228,
        "lonEnd": -88.3697521,
        "length": 0,
        "surfacetype": 3
      }
    ],
    "id": 21879
  },
  {
    "type": 1,
    "icao": "01M",
    "lat": 34.491667,
    "lon": -88.201111,
    "communications": [
      {
        "type": 51,
        "frequency": 12280,
        "name": "CTAF/UNICOM"
      }
    ],
    "elevation": 578,
    "tower": false,
    "name": "TISHOMINGO CO",
    "runways": [
      {
        "type": 100,
        "width": 18.29,
        "surfaceType": null,
        "numberStart": "17",
        "numberEnd": "35",
        "latStart": 34.496975,
        "lonStart": -88.202829,
        "latEnd": 34.486359,
        "lonEnd": -88.199393,
        "length": 0,
        "surfacetype": 1
      }
    ],
    "id": 24750
  },
  {
    "type": 1,
    "icao": "KTUP",
    "lat": 34.268111000000005,
    "lon": -88.769894,
    "communications": [
      {
        "type": 50,
        "frequency": 13352,
        "name": "ASOS"
      },
      {
        "type": 51,
        "frequency": 11877,
        "name": "CTAF"
      },
      {
        "type": 53,
        "frequency": 12182,
        "name": "GND"
      },
      {
        "type": 54,
        "frequency": 11877,
        "name": "TWR"
      }
    ],
    "elevation": 346,
    "tower": true,
    "name": "TUPELO RGNL",
    "runways": [
      {
        "type": 100,
        "width": 30.48,
        "surfaceType": null,
        "numberStart": "18",
        "numberEnd": "36",
        "latStart": 34.277039,
        "lonStart": -88.769919,
        "latEnd": 34.259183,
        "lonEnd": -88.769869,
        "length": 0,
        "surfacetype": 1
      }
    ],
    "id": 24906
  },
  {
    "type": 17,
    "icao": "MS26",
    "lat": 34.93397722,
    "lon": -88.55199306,
    "communications": [],
    "elevation": 466,
    "tower": false,
    "name": "[H] Magnolia Hospital",
    "runways": [
      {
        "type": 102,
        "width": 7.6,
        "surfaceType": 2,
        "numberStart": "H1",
        "numberEnd": null,
        "latStart": 34.93397722,
        "lonStart": -88.55199306,
        "latEnd": null,
        "lonEnd": null,
        "length": 7.6
      }
    ],
    "id": 31038
  },
  {
    "type": 17,
    "icao": "MS73",
    "lat": 34.75286888,
    "lon": -88.21837612,
    "communications": [],
    "elevation": 580,
    "tower": false,
    "name": "[H] Segars",
    "runways": [
      {
        "type": 100,
        "width": 7.62,
        "surfaceType": null,
        "numberStart": "17",
        "numberEnd": "35",
        "latStart": 34.75422348,
        "lonStart": -88.21863725,
        "latEnd": 34.75151428,
        "lonEnd": -88.21811499,
        "length": 0,
        "surfacetype": 3
      }
    ],
    "id": 32635
  },
  {
    "type": 17,
    "icao": "16N",
    "lat": 34.81092305,
    "lon": -88.20365278,
    "communications": [],
    "elevation": 600,
    "tower": false,
    "name": "[H] Tishomingo Health Services Inc",
    "runways": [
      {
        "type": 102,
        "width": 15.2,
        "surfaceType": 1,
        "numberStart": "H1",
        "numberEnd": null,
        "latStart": 34.81092305,
        "lonStart": -88.20365278,
        "latEnd": null,
        "lonEnd": null,
        "length": 15.2
      }
    ],
    "id": 33334
  }
]