[
  {
    "type": 1,
    "icao": "YBNA",
    "lat": -28.833302115,
    "lon": 153.56109330499999,
    "communications": [
      {
        "type": 51,
        "frequency": 12130,
        "name": "ACTIVATE LIGHTS ONLY MULTICOM"
      },
      {
        "type": 51,
        "frequency": 12420,
        "name": "BALLINA CTAF"
      },
      {
        "type": 52,
        "frequency": 12030,
        "name": "BRISBANE CTR"
      }
    ],
    "elevation": 3,
    "tower": false,
    "name": "Ballina/Byron Gateway",
    "runways": [
      {
        "type": 100,
        "width": 30,
        "surfaceType": null,
        "numberStart": "06",
        "numberEnd": "24",
        "latStart": -28.83572872,
        "lonStart": 153.55183099,
        "latEnd": -28.83087551,
        "lonEnd": 153.57035562,
        "length": 0,
        "surfacetype": 1
      }
    ],
    "id": 2144
  },
  {
    "type": 1,
    "icao": "YCAS",
    "lat": -28.880934905000004,
    "lon": 153.0603608975,
    "communications": [
      {
        "type": 51,
        "frequency": 12420,
        "name": "CASINO CTAF"
      },
      {
        "type": 52,
        "frequency": 12030,
        "name": "BRISBANE CNTR"
      }
    ],
    "elevation": 83,
    "tower": false,
    "name": "Casino",
    "runways": [
      {
        "type": 100,
        "width": 30,
        "surfaceType": null,
        "numberStart": "10",
        "numberEnd": "28",
        "latStart": -28.87999342,
        "lonStart": 153.05555149,
        "latEnd": -28.88263931,
        "lonEnd": 153.06639604,
        "length": 0,
        "surfacetype": 1
      },
      {
        "type": 100,
        "width": 50,
        "surfaceType": null,
        "numberStart": "10L",
        "numberEnd": "28R",
        "latStart": -28.87955393,
        "lonStart": 153.05570198,
        "latEnd": -28.88155296,
        "lonEnd": 153.06379408,
        "length": 0,
        "surfacetype": 3
      }
    ],
    "id": 4621
  },
  {
    "type": 1,
    "icao": "YBCG",
    "lat": -28.165811821666665,
    "lon": 153.5072881783333,
    "communications": [
      {
        "type": 50,
        "frequency": 13450,
        "name": "ATIS"
      },
      {
        "type": 54,
        "frequency": 11870,
        "name": "Gold Coast Tower"
      },
      {
        "type": 53,
        "frequency": 12180,
        "name": "Gold Coast Ground"
      },
      {
        "type": 55,
        "frequency": 11950,
        "name": "Brisbane Center"
      }
    ],
    "elevation": 20,
    "tower": true,
    "name": "Gold Coast International",
    "runways": [
      {
        "type": 100,
        "width": 45,
        "surfaceType": null,
        "numberStart": "14",
        "numberEnd": "32",
        "latStart": -28.15651377,
        "lonStart": 153.50070747,
        "latEnd": -28.17609505,
        "lonEnd": 153.513172,
        "length": 0,
        "surfacetype": 1
      },
      {
        "type": 100,
        "width": 18,
        "surfaceType": null,
        "numberStart": "17",
        "numberEnd": "35",
        "latStart": -28.164367,
        "lonStart": 153.506729,
        "latEnd": -28.169605,
        "lonEnd": 153.506306,
        "length": 0,
        "surfacetype": 1
      },
      {
        "type": 102,
        "width": 14,
        "surfaceType": 1,
        "numberStart": "H1",
        "numberEnd": null,
        "latStart": -28.16197232,
        "lonStart": 153.50814995,
        "latEnd": null,
        "lonEnd": null,
        "length": 14
      },
      {
        "type": 102,
        "width": 17,
        "surfaceType": 1,
        "numberStart": "H2",
        "numberEnd": null,
        "latStart": -28.16631779,
        "lonStart": 153.50866465,
        "latEnd": null,
        "lonEnd": null,
        "length": 17
      }
    ],
    "id": 10569
  },
  {
    "type": 1,
    "icao": "YLIS",
    "lat": -28.830830865,
    "lon": 153.25852506500001,
    "communications": [
      {
        "type": 50,
        "frequency": 12805,
        "name": "Lismore AWIS"
      },
      {
        "type": 51,
        "frequency": 12420,
        "name": "LISMORE CTAF AFRU"
      },
      {
        "type": 52,
        "frequency": 12030,
        "name": "BRISBANE CNTR"
      }
    ],
    "elevation": 35,
    "tower": false,
    "name": "Lismore",
    "runways": [
      {
        "type": 100,
        "width": 30,
        "surfaceType": null,
        "numberStart": "15",
        "numberEnd": "33",
        "latStart": -28.8239865,
        "lonStart": 153.25524889,
        "latEnd": -28.83767523,
        "lonEnd": 153.26180124,
        "length": 0,
        "surfacetype": 1
      }
    ],
    "id": 15328
  },
  {
    "type": 1,
    "icao": "3AUS",
    "lat": -28.576572,
    "lon": 153.452606,
    "communications": [],
    "elevation": 80,
    "tower": false,
    "name": "Mullumbimby Grass Strip",
    "runways": [
      {
        "type": 100,
        "width": 30.48,
        "surfaceType": null,
        "numberStart": "07",
        "numberEnd": "25",
        "latStart": -28.57722885,
        "lonStart": 153.4497345,
        "latEnd": -28.57591515,
        "lonEnd": 153.4554775,
        "length": 0,
        "surfacetype": 3
      }
    ],
    "id": 17705
  },
  {
    "type": 1,
    "icao": "YMUR",
    "lat": -28.33250962,
    "lon": 153.41258553,
    "communications": [],
    "elevation": 19,
    "tower": false,
    "name": "Murwillumbah",
    "runways": [
      {
        "type": 100,
        "width": 66.14,
        "surfaceType": null,
        "numberStart": "18",
        "numberEnd": "36",
        "latStart": -28.3373673,
        "lonStart": 153.41088773,
        "latEnd": -28.32765194,
        "lonEnd": 153.41428333,
        "length": 0,
        "surfacetype": 3
      }
    ],
    "id": 17753
  },
  {
    "type": 1,
    "icao": "YNOB",
    "lat": -28.295885105,
    "lon": 153.3263103,
    "communications": [],
    "elevation": 68,
    "tower": false,
    "name": "NOBBYS CREEK",
    "runways": [
      {
        "type": 100,
        "width": 9.14,
        "surfaceType": null,
        "numberStart": "1",
        "numberEnd": "19",
        "latStart": -28.29979071,
        "lonStart": 153.32514343,
        "latEnd": -28.2919795,
        "lonEnd": 153.32747717,
        "length": 0,
        "surfacetype": 1
      }
    ],
    "id": 17962
  },
  {
    "type": 1,
    "icao": "YXNU",
    "lat": -28.167721405,
    "lon": 153.222411665,
    "communications": [],
    "elevation": 436,
    "tower": false,
    "name": "NUMINBAH",
    "runways": [
      {
        "type": 100,
        "width": 17.07,
        "surfaceType": null,
        "numberStart": "15",
        "numberEnd": "33",
        "latStart": -28.16600878,
        "lonStart": 153.22130759,
        "latEnd": -28.16943403,
        "lonEnd": 153.22351574,
        "length": 0,
        "surfacetype": 4
      }
    ],
    "id": 18029
  },
  {
    "type": 1,
    "icao": "YTYH",
    "lat": -28.594912315000002,
    "lon": 153.55087174,
    "communications": [],
    "elevation": 15,
    "tower": false,
    "name": "TYAGARAH",
    "runways": [
      {
        "type": 100,
        "width": 45.11,
        "surfaceType": null,
        "numberStart": "6",
        "numberEnd": "24",
        "latStart": -28.59684906,
        "lonStart": 153.54667031,
        "latEnd": -28.59297557,
        "lonEnd": 153.55507317,
        "length": 0,
        "surfacetype": 3
      }
    ],
    "id": 24932
  },
  {
    "type": 1,
    "icao": "1AUS",
    "lat": -28.600176,
    "lon": 153.542068,
    "communications": [],
    "elevation": 20,
    "tower": false,
    "name": "Tyagarah",
    "runways": [
      {
        "type": 100,
        "width": 51.82,
        "surfaceType": null,
        "numberStart": "05",
        "numberEnd": "23",
        "latStart": -28.60285238,
        "lonStart": 153.53661365,
        "latEnd": -28.59749962,
        "lonEnd": 153.54752235,
        "length": 0,
        "surfacetype": 3
      }
    ],
    "id": 25770
  },
  {
    "type": 1,
    "icao": "YWWS",
    "lat": -28.014703609999998,
    "lon": 153.06981572,
    "communications": [],
    "elevation": 370,
    "tower": false,
    "name": "WIRRAWAY STATION",
    "runways": [
      {
        "type": 100,
        "width": 32,
        "surfaceType": null,
        "numberStart": "6",
        "numberEnd": "24",
        "latStart": -28.01648638,
        "lonStart": 153.06468921,
        "latEnd": -28.01292084,
        "lonEnd": 153.07494223,
        "length": 0,
        "surfacetype": 3
      }
    ],
    "id": 26715
  },
  {
    "type": 17,
    "icao": "YGWG",
    "lat": -28.17842647,
    "lon": 153.3924184,
    "communications": [],
    "elevation": 750,
    "tower": false,
    "name": "[H] GWINGANNA",
    "runways": [
      {
        "type": 102,
        "width": 9.1,
        "surfaceType": 2,
        "numberStart": "H62",
        "numberEnd": null,
        "latStart": -28.17842647,
        "lonStart": 153.3924184,
        "latEnd": null,
        "lonEnd": null,
        "length": 9.1
      }
    ],
    "id": 29860
  },
  {
    "type": 17,
    "icao": "YLIH",
    "lat": -28.801237695,
    "lon": 153.28817668,
    "communications": [],
    "elevation": 34,
    "tower": false,
    "name": "[H] LISMORE HOSPITAL",
    "runways": [
      {
        "type": 102,
        "width": 11,
        "surfaceType": 2,
        "numberStart": "H21",
        "numberEnd": null,
        "latStart": -28.80127105,
        "lonStart": 153.2880678,
        "latEnd": null,
        "lonEnd": null,
        "length": 11
      },
      {
        "type": 102,
        "width": 11,
        "surfaceType": 2,
        "numberStart": "H22",
        "numberEnd": null,
        "latStart": -28.80120434,
        "lonStart": 153.28828556,
        "latEnd": null,
        "lonEnd": null,
        "length": 11
      }
    ],
    "id": 30792
  },
  {
    "type": 17,
    "icao": "YXNT",
    "lat": -28.216792,
    "lon": 153.234142,
    "communications": [],
    "elevation": 772,
    "tower": false,
    "name": "[H] NATURAL ARCH",
    "runways": [
      {
        "type": 102,
        "width": 18,
        "surfaceType": 15,
        "numberStart": "H23",
        "numberEnd": null,
        "latStart": -28.216792,
        "lonStart": 153.234142,
        "latEnd": null,
        "lonEnd": null,
        "length": 18
      }
    ],
    "id": 31518
  },
  {
    "type": 17,
    "icao": "YXOR",
    "lat": -28.231534,
    "lon": 153.13572,
    "communications": [],
    "elevation": 2993,
    "tower": false,
    "name": "[H] OREILLYS",
    "runways": [
      {
        "type": 102,
        "width": 18,
        "surfaceType": 15,
        "numberStart": "H1",
        "numberEnd": null,
        "latStart": -28.231534,
        "lonStart": 153.13572,
        "latEnd": null,
        "lonEnd": null,
        "length": 18
      }
    ],
    "id": 31706
  }
]