[
  {
    "type": 1,
    "icao": "FALW",
    "lat": -32.9672995,
    "lon": -7.40199246625,
    "communications": [
      {
        "type": 53,
        "frequency": 12175,
        "name": "GND"
      },
      {
        "type": 54,
        "frequency": 12880,
        "name": "TWR"
      },
      {
        "type": 54,
        "frequency": 12080,
        "name": "TWR"
      },
      {
        "type": 55,
        "frequency": 12250,
        "name": "APP"
      }
    ],
    "elevation": 108,
    "tower": true,
    "name": "Langebaanweg",
    "runways": [
      {
        "type": 100,
        "width": 45.72,
        "surfaceType": null,
        "numberStart": "02R",
        "numberEnd": "20L",
        "latStart": -32.97825082,
        "lonStart": 18.16618838,
        "latEnd": -32.95716718,
        "lonEnd": 18.16670162,
        "length": 0,
        "surfacetype": 1
      },
      {
        "type": 100,
        "width": 45.72,
        "surfaceType": null,
        "numberStart": "02L",
        "numberEnd": "20R",
        "latStart": -32.97902881,
        "lonStart": 18.16201845,
        "latEnd": -32.95796719,
        "lonEnd": 18.16253555,
        "length": 0,
        "surfacetype": 1
      },
      {
        "type": 100,
        "width": 45.72,
        "surfaceType": null,
        "numberStart": "16",
        "numberEnd": "34",
        "latStart": -32.96452522,
        "lonStart": 18.15397304,
        "latEnd": -32.97750678,
        "lonEnd": 18.16869296,
        "length": 0,
        "surfacetype": 1
      },
      {
        "type": 100,
        "width": 45.72,
        "surfaceType": null,
        "numberStart": "07",
        "numberEnd": "25",
        "latStart": -32.96659004,
        "lonStart": 18.15188151,
        "latEnd": -32.95735996,
        "lonEnd": 18.16367849,
        "length": 0,
        "surfacetype": 1
      }
    ],
    "id": 14926
  },
  {
    "type": 1,
    "icao": "FASD",
    "lat": -32.96413,
    "lon": -7.493954459999999,
    "communications": [
      {
        "type": 55,
        "frequency": 12250,
        "name": "LANGEBAANWEG APP"
      }
    ],
    "elevation": 50,
    "tower": false,
    "name": "Saldanha Vredenburg",
    "runways": [
      {
        "type": 100,
        "width": 24.99,
        "surfaceType": null,
        "numberStart": "02",
        "numberEnd": "20",
        "latStart": -32.97055419,
        "lonStart": 17.96979689,
        "latEnd": -32.95770581,
        "lonEnd": 17.96917111,
        "length": 0,
        "surfacetype": 1
      }
    ],
    "id": 22734
  }
]