[
  {
    "type": 1,
    "icao": "FMNA",
    "lat": -12.349388385000001,
    "lon": 49.291683595,
    "communications": [
      {
        "type": 54,
        "frequency": 11810,
        "name": "AFIS INFO"
      }
    ],
    "elevation": 374,
    "tower": true,
    "name": "Arrachart",
    "runways": [
      {
        "type": 100,
        "width": 29.87,
        "surfaceType": null,
        "numberStart": "13",
        "numberEnd": "31",
        "latStart": -12.34559883,
        "lonStart": 49.28589998,
        "latEnd": -12.35317794,
        "lonEnd": 49.29746721,
        "length": 0,
        "surfacetype": 1
      }
    ],
    "id": 2185
  },
  {
    "type": 1,
    "icao": "FM43",
    "lat": -12.2560915,
    "lon": 49.254171,
    "communications": [
      {
        "type": 54,
        "frequency": 11890,
        "name": "AFIS"
      },
      {
        "type": 54,
        "frequency": 11970,
        "name": "TWR"
      }
    ],
    "elevation": 200,
    "tower": true,
    "name": "ANTSIRANANA ANDRAKAKA",
    "runways": [
      {
        "type": 100,
        "width": 45.11,
        "surfaceType": null,
        "numberStart": "13",
        "numberEnd": "31",
        "latStart": -12.249289,
        "lonStart": 49.244981,
        "latEnd": -12.262894,
        "lonEnd": 49.263361,
        "length": 0,
        "surfacetype": 1
      }
    ],
    "id": 17157
  }
]