[
  {
    "type": 1,
    "icao": "BUL",
    "lat": -7.221183,
    "lon": 146.65125,
    "communications": [
      {
        "type": 50,
        "frequency": 12770,
        "name": "BUO AWOS"
      }
    ],
    "elevation": 2192,
    "tower": false,
    "name": "Bulolo",
    "runways": [
      {
        "type": 100,
        "width": 60.05,
        "surfaceType": null,
        "numberStart": "15",
        "numberEnd": "33",
        "latStart": -7.21580617,
        "lonStart": 146.64848846,
        "latEnd": -7.22655983,
        "lonEnd": 146.65401154,
        "length": 0,
        "surfacetype": 4
      }
    ],
    "id": 3373
  },
  {
    "type": 1,
    "icao": "KOR",
    "lat": -7.834759,
    "lon": 146.53353900000002,
    "communications": [
      {
        "type": 50,
        "frequency": 12770,
        "name": "KOR AWOS"
      }
    ],
    "elevation": 200,
    "tower": false,
    "name": "Kokoro",
    "runways": [
      {
        "type": 100,
        "width": 30.48,
        "surfaceType": null,
        "numberStart": "01",
        "numberEnd": "19",
        "latStart": -7.83697407,
        "lonStart": 146.53314474,
        "latEnd": -7.83254393,
        "lonEnd": 146.53393326,
        "length": 0,
        "surfacetype": 4
      }
    ],
    "id": 14049
  },
  {
    "type": 1,
    "icao": "MYX",
    "lat": -7.213054,
    "lon": 146.02020299999998,
    "communications": [
      {
        "type": 50,
        "frequency": 12770,
        "name": "MYX AWOS"
      }
    ],
    "elevation": 3700,
    "tower": false,
    "name": "Menyamya",
    "runways": [
      {
        "type": 100,
        "width": 30.48,
        "surfaceType": null,
        "numberStart": "16",
        "numberEnd": "34",
        "latStart": -7.20860409,
        "lonStart": 146.01811142,
        "latEnd": -7.21750391,
        "lonEnd": 146.02229458,
        "length": 0,
        "surfacetype": 4
      }
    ],
    "id": 17066
  },
  {
    "type": 1,
    "icao": "TKB",
    "lat": -7.681165999999999,
    "lon": 146.550095,
    "communications": [
      {
        "type": 50,
        "frequency": 12770,
        "name": "TKB AWOS"
      }
    ],
    "elevation": 1220,
    "tower": false,
    "name": "Tekadu",
    "runways": [
      {
        "type": 100,
        "width": 30.48,
        "surfaceType": null,
        "numberStart": "05",
        "numberEnd": "23",
        "latStart": -7.68292915,
        "lonStart": 146.54797473,
        "latEnd": -7.67940285,
        "lonEnd": 146.55221527,
        "length": 0,
        "surfacetype": 4
      }
    ],
    "id": 25135
  }
]