[
  {
    "type": 1,
    "icao": "LGIR",
    "lat": 35.339487166666665,
    "lon": 30.254749166666667,
    "communications": [
      {
        "type": 50,
        "frequency": 12755,
        "name": "ATIS"
      },
      {
        "type": 53,
        "frequency": 12170,
        "name": "KAZANTZAKIS GND"
      },
      {
        "type": 54,
        "frequency": 12210,
        "name": "KAZANTZAKIS TWR"
      },
      {
        "type": 55,
        "frequency": 12397,
        "name": "IRAKLION RADAR"
      }
    ],
    "elevation": 115,
    "tower": true,
    "name": "Iraklion - Nizos Kazantzakis",
    "runways": [
      {
        "type": 100,
        "width": 45.11,
        "surfaceType": null,
        "numberStart": "09",
        "numberEnd": "27",
        "latStart": 35.341042,
        "lonStart": 25.161183,
        "latEnd": 35.339014,
        "lonEnd": 25.190489,
        "length": 0,
        "surfacetype": 1
      },
      {
        "type": 100,
        "width": 49.99,
        "surfaceType": null,
        "numberStart": "12",
        "numberEnd": "30",
        "latStart": 35.343883,
        "lonStart": 25.173342,
        "latEnd": 35.335556,
        "lonEnd": 25.187253,
        "length": 0,
        "surfacetype": 1
      },
      {
        "type": 100,
        "width": 39.93,
        "surfaceType": null,
        "numberStart": "18",
        "numberEnd": "36",
        "latStart": 35.342286,
        "lonStart": 25.184258,
        "latEnd": 35.335142,
        "lonEnd": 25.184197,
        "length": 0,
        "surfacetype": 1
      }
    ],
    "id": 12542
  },
  {
    "type": 1,
    "icao": "LGTL",
    "lat": 35.1920205,
    "lon": 30.263081999999997,
    "communications": [
      {
        "type": 54,
        "frequency": 12210,
        "name": "TWR"
      }
    ],
    "elevation": 1180,
    "tower": true,
    "name": "KASTELI",
    "runways": [
      {
        "type": 100,
        "width": 45.11,
        "surfaceType": null,
        "numberStart": "02",
        "numberEnd": "20",
        "latStart": 35.179333,
        "lonStart": 25.321456,
        "latEnd": 35.204708,
        "lonEnd": 25.332544,
        "length": 0,
        "surfacetype": 1
      }
    ],
    "id": 13262
  },
  {
    "type": 1,
    "icao": "LGST",
    "lat": 35.216140499999995,
    "lon": 30.657270999999998,
    "communications": [
      {
        "type": 54,
        "frequency": 12260,
        "name": "INFO"
      }
    ],
    "elevation": 376,
    "tower": false,
    "name": "SITIA",
    "runways": [
      {
        "type": 100,
        "width": 45.11,
        "surfaceType": null,
        "numberStart": "05",
        "numberEnd": "23",
        "latStart": 35.210192,
        "lonStart": 26.092453,
        "latEnd": 35.222089,
        "lonEnd": 26.110022,
        "length": 0,
        "surfacetype": 1
      }
    ],
    "id": 22308
  }
]