[
  {
    "type": 1,
    "icao": "7S5",
    "lat": 44.8651996075,
    "lon": -81.18266697249999,
    "communications": [
      {
        "type": 51,
        "frequency": 12280,
        "name": "CTAF/UNICOM"
      }
    ],
    "elevation": 180,
    "tower": false,
    "name": "INDEPENDENCE STATE",
    "runways": [
      {
        "type": 100,
        "width": 20.12,
        "surfaceType": null,
        "numberStart": "16",
        "numberEnd": "34",
        "latStart": 44.87119111,
        "lonStart": -123.19832091,
        "latEnd": 44.86254264,
        "lonEnd": -123.19821457,
        "length": 0,
        "surfacetype": 1
      },
      {
        "type": 102,
        "width": 15.9,
        "surfaceType": 1,
        "numberStart": "H1",
        "numberEnd": null,
        "latStart": 44.86364406,
        "lonStart": -123.19744481,
        "latEnd": null,
        "lonEnd": null,
        "length": 15.9
      },
      {
        "type": 102,
        "width": 15.9,
        "surfaceType": 1,
        "numberStart": "H2",
        "numberEnd": null,
        "latStart": 44.86342062,
        "lonStart": -123.19744481,
        "latEnd": null,
        "lonEnd": null,
        "length": 15.9
      }
    ],
    "id": 12298
  },
  {
    "type": 1,
    "icao": "KSLE",
    "lat": 44.909997032499994,
    "lon": -81.0277177425,
    "communications": [
      {
        "type": 50,
        "frequency": 12455,
        "name": "ATIS"
      },
      {
        "type": 51,
        "frequency": 11910,
        "name": "CTAF"
      },
      {
        "type": 51,
        "frequency": 12295,
        "name": "UNICOM"
      },
      {
        "type": 53,
        "frequency": 12190,
        "name": "GND"
      },
      {
        "type": 54,
        "frequency": 11910,
        "name": "SALEM TWR"
      }
    ],
    "elevation": 213,
    "tower": true,
    "name": "McNary Fld",
    "runways": [
      {
        "type": 100,
        "width": 45.72,
        "surfaceType": null,
        "numberStart": "13",
        "numberEnd": "31",
        "latStart": 44.916872,
        "lonStart": -123.007256,
        "latEnd": 44.903058,
        "lonEnd": -122.996072,
        "length": 0,
        "surfacetype": 1
      },
      {
        "type": 100,
        "width": 30.48,
        "surfaceType": null,
        "numberStart": "16",
        "numberEnd": "34",
        "latStart": 44.916108,
        "lonStart": -123.003306,
        "latEnd": 44.902,
        "lonEnd": -123.003572,
        "length": 0,
        "surfacetype": 1
      },
      {
        "type": 102,
        "width": 16,
        "surfaceType": 1,
        "numberStart": "H1",
        "numberEnd": null,
        "latStart": 44.91197811,
        "lonStart": -123.00152385,
        "latEnd": null,
        "lonEnd": null,
        "length": 16
      },
      {
        "type": 102,
        "width": 16,
        "surfaceType": 1,
        "numberStart": "H2",
        "numberEnd": null,
        "latStart": 44.9141576,
        "lonStart": -123.00218257,
        "latEnd": null,
        "lonEnd": null,
        "length": 16
      },
      {
        "type": 102,
        "width": 12,
        "surfaceType": 2,
        "numberStart": "H3",
        "numberEnd": null,
        "latStart": 44.90790206,
        "lonStart": -123.00606137,
        "latEnd": null,
        "lonEnd": null,
        "length": 12
      },
      {
        "type": 102,
        "width": 12,
        "surfaceType": 2,
        "numberStart": "H4",
        "numberEnd": null,
        "latStart": 44.90790049,
        "lonStart": -123.00647015,
        "latEnd": null,
        "lonEnd": null,
        "length": 12
      }
    ],
    "id": 16973
  }
]