[
  {
    "type": 1,
    "icao": "ETWM",
    "lat": 52.72417342333333,
    "lon": 22.45897340666667,
    "communications": [],
    "elevation": 55,
    "tower": false,
    "name": "ETWM Meppen AB",
    "runways": [
      {
        "type": 100,
        "width": 60,
        "surfaceType": null,
        "numberStart": "04",
        "numberEnd": "22",
        "latStart": 52.721467,
        "lonStart": 7.322294,
        "latEnd": 52.724732,
        "lonEnd": 7.330374,
        "length": 0,
        "surfacetype": 3
      },
      {
        "type": 102,
        "width": 42.5,
        "surfaceType": 1,
        "numberStart": "H2",
        "numberEnd": null,
        "latStart": 52.72632127,
        "lonStart": 7.32989422,
        "latEnd": null,
        "lonEnd": null,
        "length": 41.5
      }
    ],
    "id": 6827
  },
  {
    "type": 1,
    "icao": "EIKK",
    "lat": 52.65,
    "lon": 22.663157984999998,
    "communications": [],
    "elevation": 300,
    "tower": false,
    "name": "Kilkenny",
    "runways": [
      {
        "type": 100,
        "width": 29.87,
        "surfaceType": null,
        "numberStart": "09",
        "numberEnd": "27",
        "latStart": 52.65,
        "lonStart": -7.32368403,
        "latEnd": 52.65,
        "lonEnd": -7.30964997,
        "length": 0,
        "surfacetype": 3
      }
    ],
    "id": 13852
  },
  {
    "type": 1,
    "icao": "EIMY",
    "lat": 52.703244045,
    "lon": 22.49959187,
    "communications": [],
    "elevation": 399,
    "tower": false,
    "name": "Moyne",
    "runways": [
      {
        "type": 100,
        "width": 17.98,
        "surfaceType": null,
        "numberStart": "02",
        "numberEnd": "20",
        "latStart": 52.70080512,
        "lonStart": -7.70649923,
        "latEnd": 52.70568297,
        "lonEnd": -7.70356896,
        "length": 0,
        "surfacetype": 3
      }
    ],
    "id": 17659
  },
  {
    "type": 1,
    "icao": "ETHE",
    "lat": 52.29149953,
    "lon": 22.353251666666665,
    "communications": [
      {
        "type": 54,
        "frequency": 12210,
        "name": "Bentlage tower"
      },
      {
        "type": 55,
        "frequency": 12330,
        "name": "Bentlage radar"
      }
    ],
    "elevation": 128,
    "tower": false,
    "name": "Rheine - Bentlage AAF",
    "runways": [
      {
        "type": 100,
        "width": 29.87,
        "surfaceType": null,
        "numberStart": "09",
        "numberEnd": "27",
        "latStart": 52.290913,
        "lonStart": 7.38326,
        "latEnd": 52.291414,
        "lonEnd": 7.390778,
        "length": 0,
        "surfacetype": 1
      },
      {
        "type": 102,
        "width": 50,
        "surfaceType": 15,
        "numberStart": "H3",
        "numberEnd": null,
        "latStart": 52.29217159,
        "lonStart": 7.385081,
        "latEnd": null,
        "lonEnd": null,
        "length": 53.6
      }
    ],
    "id": 21405
  },
  {
    "type": 1,
    "icao": "EIWF",
    "lat": 52.18718212,
    "lon": 22.551264485,
    "communications": [
      {
        "type": 50,
        "frequency": 12115,
        "name": "ATIS"
      },
      {
        "type": 53,
        "frequency": 12160,
        "name": "GND"
      },
      {
        "type": 54,
        "frequency": 12985,
        "name": "TWR"
      }
    ],
    "elevation": 119,
    "tower": true,
    "name": "Waterford",
    "runways": [
      {
        "type": 100,
        "width": 29.87,
        "surfaceType": null,
        "numberStart": "03",
        "numberEnd": "21",
        "latStart": 52.18116812,
        "lonStart": -7.09066715,
        "latEnd": 52.19319612,
        "lonEnd": -7.08315115,
        "length": 0,
        "surfacetype": 1
      }
    ],
    "id": 26962
  },
  {
    "type": 17,
    "icao": "EIIH",
    "lat": 52.892012135,
    "lon": 22.8138916,
    "communications": [],
    "elevation": 611,
    "tower": false,
    "name": "[H] Midlands Heliport",
    "runways": [
      {
        "type": 100,
        "width": 20.12,
        "surfaceType": null,
        "numberStart": "18",
        "numberEnd": "36",
        "latStart": 52.89363583,
        "lonStart": -7.26260524,
        "latEnd": 52.89038844,
        "lonEnd": -7.26296712,
        "length": 0,
        "surfacetype": 3
      }
    ],
    "id": 31350
  }
]