[
  {
    "type": 1,
    "icao": "YPPF",
    "lat": -34.794570470000004,
    "lon": 69.261093187,
    "communications": [
      {
        "type": 50,
        "frequency": 12090,
        "name": "ATIS"
      },
      {
        "type": 51,
        "frequency": 11870,
        "name": "CTAF"
      },
      {
        "type": 53,
        "frequency": 11990,
        "name": "PARAFIELD GND"
      },
      {
        "type": 54,
        "frequency": 12460,
        "name": "PARAFIELD TWR"
      }
    ],
    "elevation": 57,
    "tower": true,
    "name": "Adelaide Parafield",
    "runways": [
      {
        "type": 100,
        "width": 17.98,
        "surfaceType": null,
        "numberStart": "03L",
        "numberEnd": "21R",
        "latStart": -34.80376534,
        "lonStart": 138.63063736,
        "latEnd": -34.79304647,
        "lonEnd": 138.63762046,
        "length": 0,
        "surfacetype": 1
      },
      {
        "type": 100,
        "width": 17.98,
        "surfaceType": null,
        "numberStart": "03R",
        "numberEnd": "21L",
        "latStart": -34.80215091,
        "lonStart": 138.63432711,
        "latEnd": -34.79199859,
        "lonEnd": 138.64095065,
        "length": 0,
        "surfacetype": 1
      },
      {
        "type": 100,
        "width": 17.98,
        "surfaceType": null,
        "numberStart": "08R",
        "numberEnd": "26L",
        "latStart": -34.79557361,
        "lonStart": 138.62329684,
        "latEnd": -34.79476203,
        "lonEnd": 138.63409681,
        "length": 0,
        "surfacetype": 1
      },
      {
        "type": 100,
        "width": 17.98,
        "surfaceType": null,
        "numberStart": "08L",
        "numberEnd": "26R",
        "latStart": -34.79353724,
        "lonStart": 138.62475126,
        "latEnd": -34.79274659,
        "lonEnd": 138.63519352,
        "length": 0,
        "surfacetype": 1
      },
      {
        "type": 102,
        "width": 29.8,
        "surfaceType": 1,
        "numberStart": "H1",
        "numberEnd": null,
        "latStart": -34.78837481,
        "lonStart": 138.63079826,
        "latEnd": null,
        "lonEnd": null,
        "length": 29.7
      },
      {
        "type": 102,
        "width": 21.7,
        "surfaceType": 15,
        "numberStart": "H2",
        "numberEnd": null,
        "latStart": -34.78974911,
        "lonStart": 138.63967472,
        "latEnd": null,
        "lonEnd": null,
        "length": 21.9
      }
    ],
    "id": 574
  },
  {
    "type": 1,
    "icao": "YPED",
    "lat": -34.705856156,
    "lon": 69.287900708,
    "communications": [
      {
        "type": 51,
        "frequency": 11830,
        "name": "CTAF"
      },
      {
        "type": 53,
        "frequency": 13410,
        "name": "GND"
      },
      {
        "type": 54,
        "frequency": 11830,
        "name": "TWR"
      },
      {
        "type": 55,
        "frequency": 12860,
        "name": "ADELAIDE APP"
      }
    ],
    "elevation": 67,
    "tower": true,
    "name": "Edinburgh",
    "runways": [
      {
        "type": 100,
        "width": 49.99,
        "surfaceType": null,
        "numberStart": "04",
        "numberEnd": "22",
        "latStart": -34.71079974,
        "lonStart": 138.61667788,
        "latEnd": -34.6996875,
        "lonEnd": 138.63163748,
        "length": 0,
        "surfacetype": 3
      },
      {
        "type": 100,
        "width": 46.02,
        "surfaceType": null,
        "numberStart": "18",
        "numberEnd": "36",
        "latStart": -34.69454744,
        "lonStart": 138.61757798,
        "latEnd": -34.71737414,
        "lonEnd": 138.61342819,
        "length": 0,
        "surfacetype": 1
      },
      {
        "type": 102,
        "width": 17.98,
        "surfaceType": 1,
        "numberStart": "H1",
        "numberEnd": null,
        "latStart": -34.70687196,
        "lonStart": 138.62230932,
        "latEnd": null,
        "lonEnd": null,
        "length": 17.98
      }
    ],
    "id": 6965
  }
]