[
  {
    "type": 1,
    "icao": "FAEO",
    "lat": -26.495643,
    "lon": 29.979764,
    "communications": [],
    "elevation": 5700,
    "tower": false,
    "name": "ERMELO",
    "runways": [
      {
        "type": 100,
        "width": 10.06,
        "surfaceType": null,
        "numberStart": "13",
        "numberEnd": "31",
        "latStart": -26.492939,
        "lonStart": 29.972706,
        "latEnd": -26.498347,
        "lonEnd": 29.986822,
        "length": 0,
        "surfacetype": 1
      }
    ],
    "id": 6800
  },
  {
    "type": 1,
    "icao": "FASC",
    "lat": -26.524082,
    "lon": 29.170149000000002,
    "communications": [
      {
        "type": 50,
        "frequency": 12100,
        "name": "ATIS"
      },
      {
        "type": 51,
        "frequency": 12200,
        "name": "CTAF"
      }
    ],
    "elevation": 5250,
    "tower": false,
    "name": "Secunda",
    "runways": [
      {
        "type": 100,
        "width": 17.98,
        "surfaceType": null,
        "numberStart": "11",
        "numberEnd": "29",
        "latStart": -26.52403277,
        "lonStart": 29.16461884,
        "latEnd": -26.52413123,
        "lonEnd": 29.17567916,
        "length": 0,
        "surfacetype": 1
      }
    ],
    "id": 23203
  },
  {
    "type": 1,
    "icao": "FATT",
    "lat": -26.776545,
    "lon": 29.338763999999998,
    "communications": [
      {
        "type": 51,
        "frequency": 12220,
        "name": "CTAF"
      }
    ],
    "elevation": 5313,
    "tower": false,
    "name": "Tutuka Power Station",
    "runways": [
      {
        "type": 100,
        "width": 17.98,
        "surfaceType": null,
        "numberStart": "04",
        "numberEnd": "22",
        "latStart": -26.78296247,
        "lonStart": 29.33642839,
        "latEnd": -26.77012753,
        "lonEnd": 29.34109961,
        "length": 0,
        "surfacetype": 1
      }
    ],
    "id": 25735
  }
]