[
  {
    "type": 1,
    "icao": "LEPA",
    "lat": 39.55163882,
    "lon": 2.7369601875,
    "communications": [
      {
        "type": 55,
        "frequency": 11940,
        "name": "APP"
      },
      {
        "type": 54,
        "frequency": 11830,
        "name": "TWR"
      },
      {
        "type": 50,
        "frequency": 11925,
        "name": "ATIS"
      },
      {
        "type": 53,
        "frequency": 12190,
        "name": "GMC N"
      },
      {
        "type": 53,
        "frequency": 12170,
        "name": "GMC S"
      }
    ],
    "elevation": 24,
    "tower": true,
    "name": "Palma de Mallorca",
    "runways": [
      {
        "type": 100,
        "width": 45.11,
        "surfaceType": null,
        "numberStart": "06L",
        "numberEnd": "24R",
        "latStart": 39.54715256,
        "lonStart": 2.71074093,
        "latEnd": 39.56280899,
        "lonEnd": 2.74384248,
        "length": 0,
        "surfacetype": 1
      },
      {
        "type": 100,
        "width": 45.11,
        "surfaceType": null,
        "numberStart": "06R",
        "numberEnd": "24L",
        "latStart": 39.54125901,
        "lonStart": 2.73172851,
        "latEnd": 39.55533472,
        "lonEnd": 2.76152883,
        "length": 0,
        "surfacetype": 1
      }
    ],
    "id": 19678
  },
  {
    "type": 1,
    "icao": "LESB",
    "lat": 39.598910525,
    "lon": 2.70263264,
    "communications": [
      {
        "type": 54,
        "frequency": 11830,
        "name": "PALMA TWR"
      },
      {
        "type": 55,
        "frequency": 11940,
        "name": "PALMA APP"
      }
    ],
    "elevation": 134,
    "tower": true,
    "name": "Son Bonet",
    "runways": [
      {
        "type": 100,
        "width": 23,
        "surfaceType": null,
        "numberStart": "05",
        "numberEnd": "23",
        "latStart": 39.59468809,
        "lonStart": 2.69584643,
        "latEnd": 39.60313296,
        "lonEnd": 2.70941885,
        "length": 0,
        "surfacetype": 1
      }
    ],
    "id": 23837
  }
]