[
  {
    "type": 1,
    "icao": "LEPA",
    "lat": 39.55477125625,
    "lon": 2.73896419625,
    "communications": [
      {
        "type": 54,
        "frequency": 11830,
        "name": "TWR"
      },
      {
        "type": 55,
        "frequency": 11940,
        "name": "APP"
      },
      {
        "type": 50,
        "frequency": 11925,
        "name": "ATIS"
      },
      {
        "type": 53,
        "frequency": 12190,
        "name": "GMC N"
      },
      {
        "type": 53,
        "frequency": 12170,
        "name": "GMC S"
      }
    ],
    "elevation": 23,
    "tower": true,
    "name": "Palma de Mallorca",
    "runways": [
      {
        "type": 100,
        "width": 45.11,
        "surfaceType": null,
        "numberStart": "06L",
        "numberEnd": "24R",
        "latStart": 39.54715288,
        "lonStart": 2.71074067,
        "latEnd": 39.56280867,
        "lonEnd": 2.74385021,
        "length": 0,
        "surfacetype": 1
      },
      {
        "type": 100,
        "width": 45.11,
        "surfaceType": null,
        "numberStart": "06R",
        "numberEnd": "24L",
        "latStart": 39.54125845,
        "lonStart": 2.73172896,
        "latEnd": 39.55533528,
        "lonEnd": 2.7615314,
        "length": 0,
        "surfacetype": 1
      },
      {
        "type": 102,
        "width": 30,
        "surfaceType": 2,
        "numberStart": "H1",
        "numberEnd": null,
        "latStart": 39.55890798,
        "lonStart": 2.7414738,
        "latEnd": null,
        "lonEnd": null,
        "length": 30
      },
      {
        "type": 102,
        "width": 30,
        "surfaceType": 2,
        "numberStart": "H2",
        "numberEnd": null,
        "latStart": 39.55865335,
        "lonStart": 2.74090086,
        "latEnd": null,
        "lonEnd": null,
        "length": 30
      },
      {
        "type": 102,
        "width": 30,
        "surfaceType": 2,
        "numberStart": "H3",
        "numberEnd": null,
        "latStart": 39.55716343,
        "lonStart": 2.7410322,
        "latEnd": null,
        "lonEnd": null,
        "length": 30
      },
      {
        "type": 102,
        "width": 30,
        "surfaceType": 2,
        "numberStart": "H4",
        "numberEnd": null,
        "latStart": 39.55689001,
        "lonStart": 2.74045547,
        "latEnd": null,
        "lonEnd": null,
        "length": 30
      }
    ],
    "id": 3519
  },
  {
    "type": 1,
    "icao": "LESB",
    "lat": 39.598910525,
    "lon": 2.70263264,
    "communications": [
      {
        "type": 54,
        "frequency": 11830,
        "name": "PALMA TWR"
      },
      {
        "type": 55,
        "frequency": 11940,
        "name": "PALMA APP"
      }
    ],
    "elevation": 134,
    "tower": true,
    "name": "Son Bonet",
    "runways": [
      {
        "type": 100,
        "width": 23,
        "surfaceType": null,
        "numberStart": "05",
        "numberEnd": "23",
        "latStart": 39.59468809,
        "lonStart": 2.69584643,
        "latEnd": 39.60313296,
        "lonEnd": 2.70941885,
        "length": 0,
        "surfacetype": 1
      }
    ],
    "id": 20180
  }
]