[
  {
    "type": 1,
    "icao": "KWSD",
    "lat": 32.33840275,
    "lon": -106.40319525,
    "communications": [],
    "elevation": 3934,
    "tower": false,
    "name": "CONDRON AAF",
    "runways": [
      {
        "type": 100,
        "width": 22.86,
        "surfaceType": null,
        "numberStart": "09",
        "numberEnd": "27",
        "latStart": 32.343056,
        "lonStart": -106.4125,
        "latEnd": 32.339722,
        "lonEnd": -106.393061,
        "length": 0,
        "surfacetype": 1
      },
      {
        "type": 100,
        "width": 45.72,
        "surfaceType": null,
        "numberStart": "01",
        "numberEnd": "19",
        "latStart": 32.329722,
        "lonStart": -106.405831,
        "latEnd": 32.341111,
        "lonEnd": -106.401389,
        "length": 0,
        "surfacetype": 4
      }
    ],
    "id": 4106
  },
  {
    "type": 1,
    "icao": "KHMN",
    "lat": 32.852111666666666,
    "lon": -106.10911916666667,
    "communications": [
      {
        "type": 52,
        "frequency": 12690,
        "name": "CHEROKEE MISSION"
      },
      {
        "type": 52,
        "frequency": 12670,
        "name": "CLNC DEL"
      },
      {
        "type": 53,
        "frequency": 12705,
        "name": "GND"
      },
      {
        "type": 54,
        "frequency": 11930,
        "name": "TWR"
      },
      {
        "type": 55,
        "frequency": 12060,
        "name": "APP"
      },
      {
        "type": 56,
        "frequency": 12810,
        "name": "DEP"
      }
    ],
    "elevation": 4093,
    "tower": true,
    "name": "HOLLOMAN AFB",
    "runways": [
      {
        "type": 100,
        "width": 45.72,
        "surfaceType": null,
        "numberStart": "07",
        "numberEnd": "25",
        "latStart": 32.846228,
        "lonStart": -106.124639,
        "latEnd": 32.852714,
        "lonEnd": -106.083289,
        "length": 0,
        "surfacetype": 1
      },
      {
        "type": 100,
        "width": 45.72,
        "surfaceType": null,
        "numberStart": "16",
        "numberEnd": "34",
        "latStart": 32.866597,
        "lonStart": -106.107689,
        "latEnd": 32.834003,
        "lonEnd": -106.099356,
        "length": 0,
        "surfacetype": 1
      },
      {
        "type": 100,
        "width": 91.44,
        "surfaceType": null,
        "numberStart": "04",
        "numberEnd": "22",
        "latStart": 32.846803,
        "lonStart": -106.132628,
        "latEnd": 32.866325,
        "lonEnd": -106.107114,
        "length": 0,
        "surfacetype": 1
      }
    ],
    "id": 11168
  },
  {
    "type": 1,
    "icao": "KLRU",
    "lat": 32.289128833333336,
    "lon": -106.92199116666666,
    "communications": [
      {
        "type": 50,
        "frequency": 11902,
        "name": "AWOS 3"
      },
      {
        "type": 51,
        "frequency": 12270,
        "name": "CTAF/UNICOM"
      }
    ],
    "elevation": 4456,
    "tower": false,
    "name": "LAS CRUCES INTL",
    "runways": [
      {
        "type": 100,
        "width": 30.48,
        "surfaceType": null,
        "numberStart": "04",
        "numberEnd": "22",
        "latStart": 32.284578,
        "lonStart": -106.9321,
        "latEnd": 32.296503,
        "lonEnd": -106.912311,
        "length": 0,
        "surfacetype": 1
      },
      {
        "type": 100,
        "width": 30.48,
        "surfaceType": null,
        "numberStart": "12",
        "numberEnd": "30",
        "latStart": 32.299178,
        "lonStart": -106.929925,
        "latEnd": 32.284603,
        "lonEnd": -106.912772,
        "length": 0,
        "surfacetype": 1
      },
      {
        "type": 100,
        "width": 30.48,
        "surfaceType": null,
        "numberStart": "08",
        "numberEnd": "26",
        "latStart": 32.284953,
        "lonStart": -106.932236,
        "latEnd": 32.284958,
        "lonEnd": -106.912603,
        "length": 0,
        "surfacetype": 1
      }
    ],
    "id": 14398
  },
  {
    "type": 1,
    "icao": "79E",
    "lat": 32.44314583,
    "lon": -106.67972417,
    "communications": [],
    "elevation": 4440,
    "tower": false,
    "name": "Shoestring Ranch",
    "runways": [
      {
        "type": 100,
        "width": 7.62,
        "surfaceType": null,
        "numberStart": "08",
        "numberEnd": "26",
        "latStart": 32.44320567,
        "lonStart": -106.68378639,
        "latEnd": 32.44308599,
        "lonEnd": -106.67566195,
        "length": 0,
        "surfacetype": 4
      }
    ],
    "id": 23440
  },
  {
    "type": 17,
    "icao": "73E",
    "lat": 32.28926083,
    "lon": -106.74000167,
    "communications": [],
    "elevation": 4026,
    "tower": false,
    "name": "[H] Memorial Medical Center",
    "runways": [
      {
        "type": 102,
        "width": 35,
        "surfaceType": 1,
        "numberStart": "H1",
        "numberEnd": null,
        "latStart": 32.28926083,
        "lonStart": -106.74000167,
        "latEnd": null,
        "lonEnd": null,
        "length": 44.2
      }
    ],
    "id": 31254
  }
]