[
  {
    "type": 1,
    "icao": "EBAW",
    "lat": 51.19005757333333,
    "lon": 4.461493655000001,
    "communications": [
      {
        "type": 53,
        "frequency": 12180,
        "name": "ANTWERP GND"
      },
      {
        "type": 54,
        "frequency": 13520,
        "name": "ANTWERP TWR"
      },
      {
        "type": 55,
        "frequency": 11825,
        "name": "BRUSSELS APP"
      }
    ],
    "elevation": 39,
    "tower": true,
    "name": "Antwerp Deurne",
    "runways": [
      {
        "type": 100,
        "width": 45.11,
        "surfaceType": null,
        "numberStart": "11",
        "numberEnd": "29",
        "latStart": 51.19237886,
        "lonStart": 4.45276224,
        "latEnd": 51.18779298,
        "lonEnd": 4.47304168,
        "length": 0,
        "surfacetype": 1
      },
      {
        "type": 100,
        "width": 49.99,
        "surfaceType": null,
        "numberStart": "11L",
        "numberEnd": "29R",
        "latStart": 51.19276395,
        "lonStart": 4.45782914,
        "latEnd": 51.18967877,
        "lonEnd": 4.47147264,
        "length": 0,
        "surfacetype": 3
      },
      {
        "type": 102,
        "width": 20.1,
        "surfaceType": 1,
        "numberStart": "H1",
        "numberEnd": null,
        "latStart": 51.19021555,
        "lonStart": 4.45373572,
        "latEnd": null,
        "lonEnd": null,
        "length": 20.1
      },
      {
        "type": 102,
        "width": 15.9,
        "surfaceType": 1,
        "numberStart": "H2",
        "numberEnd": null,
        "latStart": 51.18751533,
        "lonStart": 4.46012051,
        "latEnd": null,
        "lonEnd": null,
        "length": 15.9
      }
    ],
    "id": 1103
  },
  {
    "type": 1,
    "icao": "EBBT",
    "lat": 51.341003,
    "lon": 4.503,
    "communications": [
      {
        "type": 54,
        "frequency": 12290,
        "name": "Brasschaat Tower"
      },
      {
        "type": 55,
        "frequency": 12250,
        "name": "Brasschaat Approach"
      }
    ],
    "elevation": 76,
    "tower": true,
    "name": "Brasschaat",
    "runways": [
      {
        "type": 100,
        "width": 30.48,
        "surfaceType": null,
        "numberStart": "17",
        "numberEnd": "35",
        "latStart": 51.34496317,
        "lonStart": 4.5016525,
        "latEnd": 51.33704283,
        "lonEnd": 4.5043475,
        "length": 0,
        "surfacetype": 1
      }
    ],
    "id": 3127
  },
  {
    "type": 1,
    "icao": "EBHN",
    "lat": 51.306160750000004,
    "lon": 4.387136164999999,
    "communications": [
      {
        "type": 50,
        "frequency": 12690,
        "name": "Brussels Info"
      },
      {
        "type": 51,
        "frequency": 13500,
        "name": "Hoevenen Radio"
      }
    ],
    "elevation": 32,
    "tower": false,
    "name": "EBHN",
    "runways": [
      {
        "type": 100,
        "width": 24.99,
        "surfaceType": null,
        "numberStart": "15",
        "numberEnd": "33",
        "latStart": 51.30849937,
        "lonStart": 4.38481395,
        "latEnd": 51.30382213,
        "lonEnd": 4.38945838,
        "length": 0,
        "surfacetype": 3
      }
    ],
    "id": 6637
  },
  {
    "type": 1,
    "icao": "EHGR",
    "lat": 51.56574475,
    "lon": 4.93469275,
    "communications": [
      {
        "type": 54,
        "frequency": 12532,
        "name": "TWR"
      },
      {
        "type": 55,
        "frequency": 12357,
        "name": "RAPCON WEST"
      }
    ],
    "elevation": 49,
    "tower": true,
    "name": "Gilze Rijen",
    "runways": [
      {
        "type": 100,
        "width": 45.11,
        "surfaceType": null,
        "numberStart": "10",
        "numberEnd": "28",
        "latStart": 51.569537,
        "lonStart": 4.911985,
        "latEnd": 51.565173,
        "lonEnd": 4.95145,
        "length": 0,
        "surfacetype": 1
      },
      {
        "type": 100,
        "width": 29.87,
        "surfaceType": null,
        "numberStart": "02",
        "numberEnd": "20",
        "latStart": 51.555436,
        "lonStart": 4.933242,
        "latEnd": 51.572833,
        "lonEnd": 4.942094,
        "length": 0,
        "surfacetype": 1
      }
    ],
    "id": 10489
  },
  {
    "type": 1,
    "icao": "EHRD",
    "lat": 51.95538185,
    "lon": 4.441765026666666,
    "communications": [
      {
        "type": 53,
        "frequency": 12217,
        "name": "GND"
      },
      {
        "type": 54,
        "frequency": 11820,
        "name": "TWR"
      },
      {
        "type": 54,
        "frequency": 11970,
        "name": "TWR"
      },
      {
        "type": 55,
        "frequency": 11905,
        "name": "SCHIPHOL"
      },
      {
        "type": 55,
        "frequency": 12120,
        "name": "SCHIPHOL"
      },
      {
        "type": 55,
        "frequency": 12702,
        "name": "APP"
      }
    ],
    "elevation": -15,
    "tower": true,
    "name": "Rotterdam The Hague",
    "runways": [
      {
        "type": 100,
        "width": 45.11,
        "surfaceType": null,
        "numberStart": "06",
        "numberEnd": "24",
        "latStart": 51.952086,
        "lonStart": 4.428242,
        "latEnd": 51.96285,
        "lonEnd": 4.455081,
        "length": 0,
        "surfacetype": 1
      },
      {
        "type": 102,
        "width": 25,
        "surfaceType": 1,
        "numberStart": "H3",
        "numberEnd": null,
        "latStart": 51.95120955,
        "lonStart": 4.44197208,
        "latEnd": null,
        "lonEnd": null,
        "length": 25
      }
    ],
    "id": 21770
  },
  {
    "type": 1,
    "icao": "EHSE",
    "lat": 51.55494544,
    "lon": 4.55323068,
    "communications": [
      {
        "type": 54,
        "frequency": 12065,
        "name": "Seppe Radio"
      }
    ],
    "elevation": 30,
    "tower": true,
    "name": "Seppe",
    "runways": [
      {
        "type": 100,
        "width": 22.86,
        "surfaceType": null,
        "numberStart": "07",
        "numberEnd": "25",
        "latStart": 51.55339688,
        "lonStart": 4.54763744,
        "latEnd": 51.556494,
        "lonEnd": 4.55882392,
        "length": 0,
        "surfacetype": 1
      }
    ],
    "id": 23273
  },
  {
    "type": 1,
    "icao": "EBWE",
    "lat": 51.394783,
    "lon": 4.9601945,
    "communications": [
      {
        "type": 54,
        "frequency": 12022,
        "name": "RDO"
      }
    ],
    "elevation": 104,
    "tower": false,
    "name": "WEELDE",
    "runways": [
      {
        "type": 100,
        "width": 44.81,
        "surfaceType": null,
        "numberStart": "07",
        "numberEnd": "25",
        "latStart": 51.389844,
        "lonStart": 4.940322,
        "latEnd": 51.399722,
        "lonEnd": 4.980067,
        "length": 0,
        "surfacetype": 2
      }
    ],
    "id": 26558
  },
  {
    "type": 1,
    "icao": "EHWO",
    "lat": 51.449,
    "lon": 4.3420835,
    "communications": [
      {
        "type": 54,
        "frequency": 11850,
        "name": "TWR"
      },
      {
        "type": 55,
        "frequency": 12357,
        "name": "ARRIVAL"
      },
      {
        "type": 55,
        "frequency": 12357,
        "name": "RAPCON WEST"
      }
    ],
    "elevation": 62,
    "tower": true,
    "name": "Woensdrecht",
    "runways": [
      {
        "type": 100,
        "width": 45.11,
        "surfaceType": null,
        "numberStart": "07",
        "numberEnd": "25",
        "latStart": 51.445167,
        "lonStart": 4.325667,
        "latEnd": 51.452833,
        "lonEnd": 4.3585,
        "length": 0,
        "surfacetype": 1
      }
    ],
    "id": 27488
  },
  {
    "type": 1,
    "icao": "EBZR",
    "lat": 51.26463946,
    "lon": 4.75430613,
    "communications": [
      {
        "type": 54,
        "frequency": 12380,
        "name": "Zoersel Radio"
      }
    ],
    "elevation": 171,
    "tower": true,
    "name": "Zoersel",
    "runways": [
      {
        "type": 100,
        "width": 45.11,
        "surfaceType": null,
        "numberStart": "05",
        "numberEnd": "23",
        "latStart": 51.25602039,
        "lonStart": 4.73785989,
        "latEnd": 51.27325853,
        "lonEnd": 4.77075237,
        "length": 0,
        "surfacetype": 2
      }
    ],
    "id": 27918
  }
]