[
  {
    "type": 1,
    "icao": "RJNH",
    "lat": 34.7502375,
    "lon": 86.21963149999999,
    "communications": [
      {
        "type": 53,
        "frequency": 12620,
        "name": "GND"
      },
      {
        "type": 54,
        "frequency": 12620,
        "name": "TWR"
      },
      {
        "type": 55,
        "frequency": 12795,
        "name": "TCA"
      },
      {
        "type": 55,
        "frequency": 12010,
        "name": "APP"
      },
      {
        "type": 56,
        "frequency": 12010,
        "name": "DEP"
      }
    ],
    "elevation": 150,
    "tower": true,
    "name": "HAMAMATSU",
    "runways": [
      {
        "type": 100,
        "width": 45.11,
        "surfaceType": null,
        "numberStart": "09",
        "numberEnd": "27",
        "latStart": 34.750381,
        "lonStart": 137.689169,
        "latEnd": 34.750094,
        "lonEnd": 137.716997,
        "length": 0,
        "surfacetype": 2
      }
    ],
    "id": 10976
  },
  {
    "type": 1,
    "icao": "RJAZ",
    "lat": 34.1861115,
    "lon": 86.65885705,
    "communications": [],
    "elevation": 454,
    "tower": true,
    "name": "Kozushima",
    "runways": [
      {
        "type": 100,
        "width": 24.99,
        "surfaceType": null,
        "numberStart": "11",
        "numberEnd": "29",
        "latStart": 34.18695162,
        "lonStart": 139.13244272,
        "latEnd": 34.18527138,
        "lonEnd": 139.14090328,
        "length": 0,
        "surfacetype": 1
      }
    ],
    "id": 14106
  },
  {
    "type": 1,
    "icao": "RJTQ",
    "lat": 34.0721375,
    "lon": 86.81781000000001,
    "communications": [
      {
        "type": 54,
        "frequency": 11805,
        "name": "RDO"
      }
    ],
    "elevation": 67,
    "tower": true,
    "name": "MIYAKEJIMA",
    "runways": [
      {
        "type": 100,
        "width": 30.48,
        "surfaceType": null,
        "numberStart": "02",
        "numberEnd": "20",
        "latStart": 34.066411,
        "lonStart": 139.557756,
        "latEnd": 34.077864,
        "lonEnd": 139.561956,
        "length": 0,
        "surfacetype": 1
      }
    ],
    "id": 16160
  },
  {
    "type": 1,
    "icao": "RJAN",
    "lat": 34.3695412,
    "lon": 86.81648975,
    "communications": [],
    "elevation": 94,
    "tower": true,
    "name": "Niijima",
    "runways": [
      {
        "type": 100,
        "width": 24.99,
        "surfaceType": null,
        "numberStart": "11",
        "numberEnd": "29",
        "latStart": 34.37041183,
        "lonStart": 139.26430893,
        "latEnd": 34.36867057,
        "lonEnd": 139.27276987,
        "length": 0,
        "surfacetype": 1
      }
    ],
    "id": 18328
  },
  {
    "type": 1,
    "icao": "RJNY",
    "lat": 34.8126545,
    "lon": 86.5514295,
    "communications": [
      {
        "type": 54,
        "frequency": 12620,
        "name": "TWR"
      },
      {
        "type": 54,
        "frequency": 12010,
        "name": "TWR"
      }
    ],
    "elevation": 23,
    "tower": true,
    "name": "SHIZUHAMA",
    "runways": [
      {
        "type": 100,
        "width": 45.72,
        "surfaceType": null,
        "numberStart": "09",
        "numberEnd": "27",
        "latStart": 34.812317,
        "lonStart": 138.289867,
        "latEnd": 34.812992,
        "lonEnd": 138.306242,
        "length": 0,
        "surfacetype": 1
      }
    ],
    "id": 22236
  }
]