[
  {
    "type": 1,
    "icao": "LZBD",
    "lat": 48.74333912499999,
    "lon": 35.094421835,
    "communications": [
      {
        "type": 51,
        "frequency": 12220,
        "name": "TRAFFIC"
      }
    ],
    "elevation": 983,
    "tower": true,
    "name": "Bidovce",
    "runways": [
      {
        "type": 100,
        "width": 35.05,
        "surfaceType": null,
        "numberStart": "17L",
        "numberEnd": "35R",
        "latStart": 48.74618554,
        "lonStart": 21.44746608,
        "latEnd": 48.74144776,
        "lonEnd": 21.44917079,
        "length": 0,
        "surfacetype": 3
      },
      {
        "type": 100,
        "width": 15.24,
        "surfaceType": null,
        "numberStart": "17R",
        "numberEnd": "35L",
        "latStart": 48.74460841,
        "lonStart": 21.44765871,
        "latEnd": 48.74111479,
        "lonEnd": 21.44893595,
        "length": 0,
        "surfacetype": 1
      }
    ],
    "id": 2676
  },
  {
    "type": 1,
    "icao": "LZKC",
    "lat": 48.9368911375,
    "lon": 35.4631514025,
    "communications": [
      {
        "type": 51,
        "frequency": 12260,
        "name": "INFO"
      }
    ],
    "elevation": 566,
    "tower": true,
    "name": "HUMENNE - Kamenica nad Cirochou",
    "runways": [
      {
        "type": 100,
        "width": 70.1,
        "surfaceType": null,
        "numberStart": "07R",
        "numberEnd": "25L",
        "latStart": 48.93559028,
        "lonStart": 21.9884804,
        "latEnd": 48.93766903,
        "lonEnd": 22.0001197,
        "length": 0,
        "surfacetype": 3
      },
      {
        "type": 100,
        "width": 49.99,
        "surfaceType": null,
        "numberStart": "07L",
        "numberEnd": "25R",
        "latStart": 48.93611371,
        "lonStart": 21.98826465,
        "latEnd": 48.93819153,
        "lonEnd": 21.99990067,
        "length": 0,
        "surfacetype": 3
      }
    ],
    "id": 11241
  },
  {
    "type": 1,
    "icao": "UKLU",
    "lat": 48.634277499999996,
    "lon": 35.441018,
    "communications": [
      {
        "type": 54,
        "frequency": 13450,
        "name": "TWR"
      },
      {
        "type": 55,
        "frequency": 12190,
        "name": "APP"
      }
    ],
    "elevation": 383,
    "tower": true,
    "name": "UZHHOROD INTL",
    "runways": [
      {
        "type": 100,
        "width": 39.93,
        "surfaceType": null,
        "numberStart": "10",
        "numberEnd": "28",
        "latStart": 48.636397,
        "lonStart": 22.249878,
        "latEnd": 48.632158,
        "lonEnd": 22.276833,
        "length": 0,
        "surfacetype": 2
      }
    ],
    "id": 25856
  }
]