[
  {
    "type": 1,
    "icao": "LTF",
    "lat": -2.83343569,
    "lon": 69.39323482500001,
    "communications": [
      {
        "type": 50,
        "frequency": 12770,
        "name": "LTF AWOS"
      }
    ],
    "elevation": 15,
    "tower": false,
    "name": "Leitre",
    "runways": [
      {
        "type": 100,
        "width": 52.12,
        "surfaceType": null,
        "numberStart": "11",
        "numberEnd": "29",
        "latStart": -2.83186624,
        "lonStart": 141.62147479,
        "latEnd": -2.83500514,
        "lonEnd": 141.62859442,
        "length": 0,
        "surfacetype": 3
      }
    ],
    "id": 15136
  },
  {
    "type": 1,
    "icao": "SIZ",
    "lat": -2.9941329999999997,
    "lon": 69.51698029500001,
    "communications": [
      {
        "type": 50,
        "frequency": 12770,
        "name": "SIZ AWOS"
      }
    ],
    "elevation": 10,
    "tower": false,
    "name": "Sissano",
    "runways": [
      {
        "type": 100,
        "width": 30.48,
        "surfaceType": null,
        "numberStart": "11",
        "numberEnd": "29",
        "latStart": -2.99268263,
        "lonStart": 142.02954396,
        "latEnd": -2.99558337,
        "lonEnd": 142.03606804,
        "length": 0,
        "surfacetype": 4
      }
    ],
    "id": 23567
  },
  {
    "type": 1,
    "icao": "AYVN",
    "lat": -2.69259975,
    "lon": 69.2993090325,
    "communications": [
      {
        "type": 50,
        "frequency": 12770,
        "name": "VAI AWOS"
      }
    ],
    "elevation": 9,
    "tower": false,
    "name": "Vanimo",
    "runways": [
      {
        "type": 100,
        "width": 25.91,
        "surfaceType": null,
        "numberStart": "12",
        "numberEnd": "30",
        "latStart": -2.687622,
        "lonStart": 141.296792,
        "latEnd": -2.697761,
        "lonEnd": 141.308917,
        "length": 0,
        "surfacetype": 1
      },
      {
        "type": 100,
        "width": 30.48,
        "surfaceType": null,
        "numberStart": "13",
        "numberEnd": "31",
        "latStart": -2.68717192,
        "lonStart": 141.29604921,
        "latEnd": -2.69784408,
        "lonEnd": 141.30948079,
        "length": 0,
        "surfacetype": 1
      }
    ],
    "id": 26217
  }
]