[
  {
    "type": 1,
    "icao": "BCV",
    "lat": 17.26952671,
    "lon": -88.77625373000001,
    "communications": [],
    "elevation": 185,
    "tower": false,
    "name": "Hector Silva Airstrip",
    "runways": [
      {
        "type": 100,
        "width": 21.19,
        "surfaceType": null,
        "numberStart": "11",
        "numberEnd": "29",
        "latStart": 17.2714712,
        "lonStart": -88.78108651,
        "latEnd": 17.26758222,
        "lonEnd": -88.77142095,
        "length": 0,
        "surfacetype": 1
      }
    ],
    "id": 11628
  },
  {
    "type": 1,
    "icao": "MZBZ",
    "lat": 17.5391445,
    "lon": -88.3082015,
    "communications": [
      {
        "type": 53,
        "frequency": 12190,
        "name": "GND"
      },
      {
        "type": 54,
        "frequency": 11800,
        "name": "BELIZE TWR"
      },
      {
        "type": 55,
        "frequency": 12100,
        "name": "BELIZE APP"
      }
    ],
    "elevation": 15,
    "tower": true,
    "name": "Philip S W Goldson Intl",
    "runways": [
      {
        "type": 100,
        "width": 45.72,
        "surfaceType": null,
        "numberStart": "07",
        "numberEnd": "25",
        "latStart": 17.5369,
        "lonStart": -88.318125,
        "latEnd": 17.541389,
        "lonEnd": -88.298278,
        "length": 0,
        "surfacetype": 1
      }
    ],
    "id": 20061
  }
]