[
  {
    "type": 1,
    "icao": "EGHE",
    "lat": 49.91333094,
    "lon": -6.2918183674999995,
    "communications": [
      {
        "type": 54,
        "frequency": 12487,
        "name": "Scillies Tower"
      },
      {
        "type": 55,
        "frequency": 12487,
        "name": "Scillies Approach"
      }
    ],
    "elevation": 116,
    "tower": true,
    "name": "Scilly Isles St Mary's",
    "runways": [
      {
        "type": 100,
        "width": 22.86,
        "surfaceType": null,
        "numberStart": "14",
        "numberEnd": "32",
        "latStart": 49.91532261,
        "lonStart": -6.29445696,
        "latEnd": 49.91123156,
        "lonEnd": -6.28902437,
        "length": 0,
        "surfacetype": 1
      },
      {
        "type": 100,
        "width": 17.98,
        "surfaceType": null,
        "numberStart": "09",
        "numberEnd": "27",
        "latStart": 49.91327008,
        "lonStart": -6.29538511,
        "latEnd": 49.91349951,
        "lonEnd": -6.28840703,
        "length": 0,
        "surfacetype": 1
      }
    ],
    "id": 1543
  },
  {
    "type": 17,
    "icao": "EGBR",
    "lat": 49.87162862,
    "lon": -6.44497902,
    "communications": [],
    "elevation": 75,
    "tower": false,
    "name": "[H] Bishop Rock Lighthouse",
    "runways": [
      {
        "type": 102,
        "width": 6.1,
        "surfaceType": 2,
        "numberStart": "H1",
        "numberEnd": null,
        "latStart": 49.87162862,
        "lonStart": -6.44497902,
        "latEnd": null,
        "lonEnd": null,
        "length": 6.1
      }
    ],
    "id": 16295
  },
  {
    "type": 17,
    "icao": "EGHT",
    "lat": 49.945636982500005,
    "lon": -6.332067755,
    "communications": [
      {
        "type": 54,
        "frequency": 11820,
        "name": "Tresco Radio"
      }
    ],
    "elevation": 20,
    "tower": true,
    "name": "[H] Tresco Heliport [H]",
    "runways": [
      {
        "type": 100,
        "width": 45.11,
        "surfaceType": null,
        "numberStart": "08",
        "numberEnd": "26",
        "latStart": 49.94507426,
        "lonStart": -6.33422839,
        "latEnd": 49.94598662,
        "lonEnd": -6.32927004,
        "length": 0,
        "surfacetype": 3
      },
      {
        "type": 102,
        "width": 20.1,
        "surfaceType": 3,
        "numberStart": "H1",
        "numberEnd": null,
        "latStart": 49.94522704,
        "lonStart": -6.33340135,
        "latEnd": null,
        "lonEnd": null,
        "length": 20.1
      },
      {
        "type": 102,
        "width": 20.1,
        "surfaceType": 3,
        "numberStart": "H2",
        "numberEnd": null,
        "latStart": 49.94626001,
        "lonStart": -6.33137124,
        "latEnd": null,
        "lonEnd": null,
        "length": 20.1
      }
    ],
    "id": 16330
  }
]