[
  {
    "type": 1,
    "icao": "CJA3",
    "lat": 49.21187525,
    "lon": -98.06194425000001,
    "communications": [
      {
        "type": 51,
        "frequency": 12300,
        "name": "CTAF/UNICOM"
      }
    ],
    "elevation": 950,
    "tower": false,
    "name": "MORDEN",
    "runways": [
      {
        "type": 100,
        "width": 22.86,
        "surfaceType": null,
        "numberStart": "10",
        "numberEnd": "28",
        "latStart": 49.211667,
        "lonStart": -98.066947,
        "latEnd": 49.208611,
        "lonEnd": -98.051108,
        "length": 0,
        "surfacetype": 1
      },
      {
        "type": 100,
        "width": 30.48,
        "surfaceType": null,
        "numberStart": "17",
        "numberEnd": "35",
        "latStart": 49.216667,
        "lonStart": -98.065003,
        "latEnd": 49.210556,
        "lonEnd": -98.064719,
        "length": 0,
        "surfacetype": 3
      }
    ],
    "id": 16250
  },
  {
    "type": 1,
    "icao": "CYPG",
    "lat": 49.906875,
    "lon": -98.27149275,
    "communications": [
      {
        "type": 50,
        "frequency": 12085,
        "name": "ATIS"
      },
      {
        "type": 51,
        "frequency": 12620,
        "name": "CTAF"
      },
      {
        "type": 53,
        "frequency": 12170,
        "name": "GND"
      },
      {
        "type": 54,
        "frequency": 12620,
        "name": "TWR"
      }
    ],
    "elevation": 885,
    "tower": true,
    "name": "SOUTHPORT",
    "runways": [
      {
        "type": 100,
        "width": 60.96,
        "surfaceType": null,
        "numberStart": "13R",
        "numberEnd": "31L",
        "latStart": 49.906667,
        "lonStart": -98.283889,
        "latEnd": 49.893333,
        "lonEnd": -98.261664,
        "length": 0,
        "surfacetype": 1
      },
      {
        "type": 100,
        "width": 45.72,
        "surfaceType": null,
        "numberStart": "13L",
        "numberEnd": "31R",
        "latStart": 49.910833,
        "lonStart": -98.279167,
        "latEnd": 49.905,
        "lonEnd": -98.269444,
        "length": 0,
        "surfacetype": 1
      },
      {
        "type": 100,
        "width": 45.72,
        "surfaceType": null,
        "numberStart": "01",
        "numberEnd": "19",
        "latStart": 49.903889,
        "lonStart": -98.269167,
        "latEnd": 49.911667,
        "lonEnd": -98.265,
        "length": 0,
        "surfacetype": 1
      },
      {
        "type": 100,
        "width": 45.72,
        "surfaceType": null,
        "numberStart": "08",
        "numberEnd": "26",
        "latStart": 49.911667,
        "lonStart": -98.277222,
        "latEnd": 49.911944,
        "lonEnd": -98.266389,
        "length": 0,
        "surfacetype": 1
      }
    ],
    "id": 22404
  }
]