[
  {
    "type": 1,
    "icao": "KZUN",
    "lat": 35.0832265,
    "lon": -108.791786,
    "communications": [
      {
        "type": 51,
        "frequency": 12290,
        "name": "CTAF"
      }
    ],
    "elevation": 6454,
    "tower": false,
    "name": "BLACK ROCK",
    "runways": [
      {
        "type": 100,
        "width": 15.24,
        "surfaceType": null,
        "numberStart": "06",
        "numberEnd": "24",
        "latStart": 35.081217,
        "lonStart": -108.799433,
        "latEnd": 35.085236,
        "lonEnd": -108.784139,
        "length": 0,
        "surfacetype": 1
      }
    ],
    "id": 1764
  },
  {
    "type": 1,
    "icao": "0E8",
    "lat": 35.7176585,
    "lon": -108.20159699999999,
    "communications": [
      {
        "type": 51,
        "frequency": 12280,
        "name": "CTAF/UNICOM"
      }
    ],
    "elevation": 6695,
    "tower": false,
    "name": "CROWNPOINT",
    "runways": [
      {
        "type": 100,
        "width": 18.29,
        "surfaceType": null,
        "numberStart": "18",
        "numberEnd": "36",
        "latStart": 35.725575,
        "lonStart": -108.200233,
        "latEnd": 35.709742,
        "lonEnd": -108.202961,
        "length": 0,
        "surfacetype": 1
      }
    ],
    "id": 4243
  },
  {
    "type": 1,
    "icao": "KGUP",
    "lat": 35.511058,
    "lon": -108.789303,
    "communications": [
      {
        "type": 50,
        "frequency": 11837,
        "name": "ASOS"
      },
      {
        "type": 51,
        "frequency": 12295,
        "name": "CTAF/UNICOM"
      }
    ],
    "elevation": 6472,
    "tower": false,
    "name": "Gallup Muni",
    "runways": [
      {
        "type": 100,
        "width": 30.48,
        "surfaceType": null,
        "numberStart": "06",
        "numberEnd": "24",
        "latStart": 35.508269,
        "lonStart": -108.801106,
        "latEnd": 35.513847,
        "lonEnd": -108.7775,
        "length": 0,
        "surfacetype": 1
      }
    ],
    "id": 10282
  },
  {
    "type": 1,
    "icao": "NM56",
    "lat": 35.165310270000006,
    "lon": -108.45896223,
    "communications": [],
    "elevation": 6980,
    "tower": false,
    "name": "Ramah Lake Airstrip",
    "runways": [
      {
        "type": 100,
        "width": 15.24,
        "surfaceType": null,
        "numberStart": "06",
        "numberEnd": "24",
        "latStart": 35.16314882,
        "lonStart": -108.46709961,
        "latEnd": 35.16747172,
        "lonEnd": -108.45082485,
        "length": 0,
        "surfacetype": 4
      }
    ],
    "id": 21147
  }
]