[
  {
    "type": 1,
    "icao": "VABJ",
    "lat": 23.287847,
    "lon": 46.478660999999995,
    "communications": [
      {
        "type": 54,
        "frequency": 12350,
        "name": "TWR"
      },
      {
        "type": 55,
        "frequency": 12350,
        "name": "APP"
      }
    ],
    "elevation": 268,
    "tower": true,
    "name": "BHUJ",
    "runways": [
      {
        "type": 100,
        "width": 45.72,
        "surfaceType": null,
        "numberStart": "05",
        "numberEnd": "23",
        "latStart": 23.279847,
        "lonStart": 69.661475,
        "latEnd": 23.295847,
        "lonEnd": 69.678897,
        "length": 0,
        "surfacetype": 1
      }
    ],
    "id": 1694
  },
  {
    "type": 1,
    "icao": "VAKE",
    "lat": 23.112718,
    "lon": 46.6058625,
    "communications": [
      {
        "type": 54,
        "frequency": 12230,
        "name": "TWR"
      }
    ],
    "elevation": 96,
    "tower": true,
    "name": "KANDLA",
    "runways": [
      {
        "type": 100,
        "width": 28.65,
        "surfaceType": null,
        "numberStart": "05",
        "numberEnd": "23",
        "latStart": 23.108303,
        "lonStart": 70.094592,
        "latEnd": 23.117133,
        "lonEnd": 70.105989,
        "length": 0,
        "surfacetype": 2
      }
    ],
    "id": 13221
  },
  {
    "type": 1,
    "icao": "VA1K",
    "lat": 23.222489,
    "lon": 46.054148500000004,
    "communications": [],
    "elevation": 135,
    "tower": false,
    "name": "RAEDHANPUR",
    "runways": [
      {
        "type": 100,
        "width": 45.72,
        "surfaceType": null,
        "numberStart": "06",
        "numberEnd": "24",
        "latStart": 23.216328,
        "lonStart": 68.879647,
        "latEnd": 23.22865,
        "lonEnd": 68.902872,
        "length": 0,
        "surfacetype": 1
      }
    ],
    "id": 20758
  }
]