[
  {
    "type": 1,
    "icao": "SBPR",
    "lat": -19.909166499999998,
    "lon": -43.990833585,
    "communications": [
      {
        "type": 50,
        "frequency": 12745,
        "name": "BELO HORIZONTE ATIS"
      },
      {
        "type": 54,
        "frequency": 12585,
        "name": "RDO"
      }
    ],
    "elevation": 3043,
    "tower": false,
    "name": "CARLOS PRATES",
    "runways": [
      {
        "type": 100,
        "width": 18,
        "surfaceType": null,
        "numberStart": "09",
        "numberEnd": "27",
        "latStart": -19.91080677,
        "lonStart": -43.99491765,
        "latEnd": -19.90752623,
        "lonEnd": -43.98674952,
        "length": 0,
        "surfacetype": 1
      }
    ],
    "id": 3682
  },
  {
    "type": 1,
    "icao": "SIVJ",
    "lat": -19.452777779999998,
    "lon": -43.899722215,
    "communications": [],
    "elevation": 2401,
    "tower": false,
    "name": "Cirrus Sociedade Aerodesportiva",
    "runways": [
      {
        "type": 100,
        "width": 39.93,
        "surfaceType": null,
        "numberStart": "13",
        "numberEnd": "31",
        "latStart": -19.45205032,
        "lonStart": -43.90198799,
        "latEnd": -19.45350524,
        "lonEnd": -43.89745644,
        "length": 0,
        "surfacetype": 5
      }
    ],
    "id": 5028
  },
  {
    "type": 1,
    "icao": "SNKD",
    "lat": -19.020277999999998,
    "lon": -43.433889,
    "communications": [],
    "elevation": 2195,
    "tower": true,
    "name": "Conceicao Do Mato Dentro",
    "runways": [
      {
        "type": 100,
        "width": 22.86,
        "surfaceType": null,
        "numberStart": "16",
        "numberEnd": "34",
        "latStart": -19.017056,
        "lonStart": -43.436939,
        "latEnd": -19.0235,
        "lonEnd": -43.430839,
        "length": 0,
        "surfacetype": 1
      }
    ],
    "id": 5245
  },
  {
    "type": 1,
    "icao": "SBLS",
    "lat": -19.6616115,
    "lon": -43.896401499999996,
    "communications": [
      {
        "type": 54,
        "frequency": 12280,
        "name": "RDO"
      }
    ],
    "elevation": 2795,
    "tower": true,
    "name": "LAGOA SANTA",
    "runways": [
      {
        "type": 100,
        "width": 29.87,
        "surfaceType": null,
        "numberStart": "13",
        "numberEnd": "31",
        "latStart": -19.659417,
        "lonStart": -43.904861,
        "latEnd": -19.663806,
        "lonEnd": -43.887942,
        "length": 0,
        "surfacetype": 1
      }
    ],
    "id": 14315
  },
  {
    "type": 1,
    "icao": "SBBH",
    "lat": -19.851179000000002,
    "lon": -43.9506265,
    "communications": [
      {
        "type": 50,
        "frequency": 12745,
        "name": "BELO HORIZONTE ATIS"
      },
      {
        "type": 52,
        "frequency": 12110,
        "name": "BELO HORIZONTE TRAFF"
      },
      {
        "type": 53,
        "frequency": 12160,
        "name": "GND"
      },
      {
        "type": 54,
        "frequency": 11800,
        "name": "BELO HORIZONTE TWR"
      },
      {
        "type": 55,
        "frequency": 12020,
        "name": "BELO HORIZONTE APP"
      },
      {
        "type": 55,
        "frequency": 12910,
        "name": "BELO HORIZONTE APP"
      },
      {
        "type": 55,
        "frequency": 12940,
        "name": "BELO HORIZONTE APP"
      },
      {
        "type": 55,
        "frequency": 11965,
        "name": "BELO HORIZONTE APP"
      }
    ],
    "elevation": 2589,
    "tower": true,
    "name": "Pampulha",
    "runways": [
      {
        "type": 100,
        "width": 45.11,
        "surfaceType": null,
        "numberStart": "13",
        "numberEnd": "31",
        "latStart": -19.847214,
        "lonStart": -43.961825,
        "latEnd": -19.855144,
        "lonEnd": -43.939428,
        "length": 0,
        "surfacetype": 1
      }
    ],
    "id": 19710
  },
  {
    "type": 1,
    "icao": "SNLG",
    "lat": -19.398611109999997,
    "lon": -43.74638889,
    "communications": [],
    "elevation": 2621,
    "tower": false,
    "name": "Serra do Cipo",
    "runways": [
      {
        "type": 100,
        "width": 20.12,
        "surfaceType": null,
        "numberStart": "06",
        "numberEnd": "24",
        "latStart": -19.40326069,
        "lonStart": -43.74998639,
        "latEnd": -19.39396153,
        "lonEnd": -43.74279139,
        "length": 0,
        "surfacetype": 5
      }
    ],
    "id": 23291
  },
  {
    "type": 1,
    "icao": "SBCF",
    "lat": -19.6337585,
    "lon": -43.968854,
    "communications": [
      {
        "type": 50,
        "frequency": 12745,
        "name": "BELO HORIZONTE ATIS"
      },
      {
        "type": 52,
        "frequency": 12100,
        "name": "CONFINS CLNC DEL"
      },
      {
        "type": 53,
        "frequency": 12190,
        "name": "GND"
      },
      {
        "type": 54,
        "frequency": 11820,
        "name": "CONFINS TWR"
      },
      {
        "type": 55,
        "frequency": 12020,
        "name": "BELO HORIZONTE APP"
      },
      {
        "type": 55,
        "frequency": 12910,
        "name": "BELO HORIZONTE APP"
      },
      {
        "type": 55,
        "frequency": 12940,
        "name": "BELO HORIZONTE APP"
      },
      {
        "type": 55,
        "frequency": 11965,
        "name": "BELO HORIZONTE APP"
      }
    ],
    "elevation": 2715,
    "tower": true,
    "name": "Tancredo Neves",
    "runways": [
      {
        "type": 100,
        "width": 45.11,
        "surfaceType": null,
        "numberStart": "16",
        "numberEnd": "34",
        "latStart": -19.623556,
        "lonStart": -43.978283,
        "latEnd": -19.643961,
        "lonEnd": -43.959425,
        "length": 0,
        "surfacetype": 1
      }
    ],
    "id": 25026
  },
  {
    "type": 17,
    "icao": "SNFM",
    "lat": -19.96583333,
    "lon": -43.83527778,
    "communications": [],
    "elevation": 886,
    "tower": false,
    "name": "[H] Anglogold Ashanti Mineracao",
    "runways": [
      {
        "type": 102,
        "width": 15.9,
        "surfaceType": 2,
        "numberStart": "H1",
        "numberEnd": null,
        "latStart": -19.96583333,
        "lonStart": -43.83527778,
        "latEnd": null,
        "lonEnd": null,
        "length": 15.9
      }
    ],
    "id": 28145
  },
  {
    "type": 17,
    "icao": "SNBH",
    "lat": -19.98194444,
    "lon": -43.94472222,
    "communications": [],
    "elevation": 1189,
    "tower": false,
    "name": "[H] Biocor",
    "runways": [
      {
        "type": 102,
        "width": 24.1,
        "surfaceType": 2,
        "numberStart": "H1",
        "numberEnd": null,
        "latStart": -19.98194444,
        "lonStart": -43.94472222,
        "latEnd": null,
        "lonEnd": null,
        "length": 24.1
      }
    ],
    "id": 28474
  },
  {
    "type": 17,
    "icao": "SIDI",
    "lat": -19.82944444,
    "lon": -43.63027778,
    "communications": [],
    "elevation": 3583,
    "tower": false,
    "name": "[H] Fazenda Cachoeira",
    "runways": [
      {
        "type": 102,
        "width": 21,
        "surfaceType": 3,
        "numberStart": "H1",
        "numberEnd": null,
        "latStart": -19.82944444,
        "lonStart": -43.63027778,
        "latEnd": null,
        "lonEnd": null,
        "length": 21
      }
    ],
    "id": 29665
  },
  {
    "type": 17,
    "icao": "SSQH",
    "lat": -19.92722222,
    "lon": -43.94888889,
    "communications": [],
    "elevation": 931,
    "tower": false,
    "name": "[H] Hospital Mater Dei",
    "runways": [
      {
        "type": 102,
        "width": 21,
        "surfaceType": 2,
        "numberStart": "H1",
        "numberEnd": null,
        "latStart": -19.92722222,
        "lonStart": -43.94888889,
        "latEnd": null,
        "lonEnd": null,
        "length": 21
      }
    ],
    "id": 30335
  },
  {
    "type": 17,
    "icao": "SJCX",
    "lat": -19.81833333,
    "lon": -43.9475,
    "communications": [],
    "elevation": 797,
    "tower": false,
    "name": "[H] Hospital Pronto Socorro - Venda Nova",
    "runways": [
      {
        "type": 102,
        "width": 21,
        "surfaceType": 2,
        "numberStart": "H1",
        "numberEnd": null,
        "latStart": -19.81833333,
        "lonStart": -43.9475,
        "latEnd": null,
        "lonEnd": null,
        "length": 21
      }
    ],
    "id": 30345
  },
  {
    "type": 17,
    "icao": "SIRK",
    "lat": -19.92583333,
    "lon": -43.93138889,
    "communications": [],
    "elevation": 2816,
    "tower": false,
    "name": "[H] Hospital Pronto Socorro Joao XXIII",
    "runways": [
      {
        "type": 102,
        "width": 21,
        "surfaceType": 2,
        "numberStart": "H1",
        "numberEnd": null,
        "latStart": -19.92583333,
        "lonStart": -43.93138889,
        "latEnd": null,
        "lonEnd": null,
        "length": 21
      }
    ],
    "id": 30346
  },
  {
    "type": 17,
    "icao": "SSAA",
    "lat": -19.92194444,
    "lon": -43.91972222,
    "communications": [],
    "elevation": 2851,
    "tower": false,
    "name": "[H] Hospital Unimed",
    "runways": [
      {
        "type": 102,
        "width": 19.5,
        "surfaceType": 2,
        "numberStart": "H1",
        "numberEnd": null,
        "latStart": -19.92194444,
        "lonStart": -43.91972222,
        "latEnd": null,
        "lonEnd": null,
        "length": 19.5
      }
    ],
    "id": 30360
  },
  {
    "type": 17,
    "icao": "SNNL",
    "lat": -19.98111111,
    "lon": -43.945,
    "communications": [],
    "elevation": 1195,
    "tower": false,
    "name": "[H] Hospital de Olhos de Minas Gerais",
    "runways": [
      {
        "type": 102,
        "width": 18,
        "surfaceType": 2,
        "numberStart": "H1",
        "numberEnd": null,
        "latStart": -19.98111111,
        "lonStart": -43.945,
        "latEnd": null,
        "lonEnd": null,
        "length": 18
      }
    ],
    "id": 30369
  },
  {
    "type": 17,
    "icao": "SIFG",
    "lat": -19.93527778,
    "lon": -43.92444444,
    "communications": [],
    "elevation": 1000,
    "tower": false,
    "name": "[H] Life Center",
    "runways": [
      {
        "type": 102,
        "width": 18,
        "surfaceType": 2,
        "numberStart": "H1",
        "numberEnd": null,
        "latStart": -19.93527778,
        "lonStart": -43.92444444,
        "latEnd": null,
        "lonEnd": null,
        "length": 18
      }
    ],
    "id": 30892
  },
  {
    "type": 17,
    "icao": "SSOZ",
    "lat": -19.86888889,
    "lon": -43.39472222,
    "communications": [],
    "elevation": 895,
    "tower": false,
    "name": "[H] Mina de Brucutu",
    "runways": [
      {
        "type": 102,
        "width": 19.5,
        "surfaceType": 2,
        "numberStart": "H1",
        "numberEnd": null,
        "latStart": -19.86888889,
        "lonStart": -43.39472222,
        "latEnd": null,
        "lonEnd": null,
        "length": 19.5
      }
    ],
    "id": 31380
  },
  {
    "type": 17,
    "icao": "SJOP",
    "lat": -19.65083333,
    "lon": -43.25305556,
    "communications": [],
    "elevation": 850,
    "tower": false,
    "name": "[H] Minas de Conceicao",
    "runways": [
      {
        "type": 102,
        "width": 18.3,
        "surfaceType": 2,
        "numberStart": "H1",
        "numberEnd": null,
        "latStart": -19.65083333,
        "lonStart": -43.25305556,
        "latEnd": null,
        "lonEnd": null,
        "length": 18.3
      }
    ],
    "id": 31382
  },
  {
    "type": 17,
    "icao": "SDIF",
    "lat": -19.78388889,
    "lon": -43.95194444,
    "communications": [],
    "elevation": 2746,
    "tower": false,
    "name": "[H] Palacio Tiradentes",
    "runways": [
      {
        "type": 102,
        "width": 21,
        "surfaceType": 2,
        "numberStart": "H1",
        "numberEnd": null,
        "latStart": -19.78388889,
        "lonStart": -43.95194444,
        "latEnd": null,
        "lonEnd": null,
        "length": 21
      }
    ],
    "id": 31858
  },
  {
    "type": 17,
    "icao": "SIEY",
    "lat": -19.95333333,
    "lon": -43.91222222,
    "communications": [],
    "elevation": 1166,
    "tower": false,
    "name": "[H] Palacio das Mangabeiras",
    "runways": [
      {
        "type": 102,
        "width": 21,
        "surfaceType": 2,
        "numberStart": "H1",
        "numberEnd": null,
        "latStart": -19.95333333,
        "lonStart": -43.91222222,
        "latEnd": null,
        "lonEnd": null,
        "length": 21
      }
    ],
    "id": 31859
  },
  {
    "type": 17,
    "icao": "SNRY",
    "lat": -19.9725,
    "lon": -43.93472222,
    "communications": [],
    "elevation": 1162,
    "tower": false,
    "name": "[H] Redpoint I",
    "runways": [
      {
        "type": 102,
        "width": 18,
        "surfaceType": 2,
        "numberStart": "H1",
        "numberEnd": null,
        "latStart": -19.9725,
        "lonStart": -43.93472222,
        "latEnd": null,
        "lonEnd": null,
        "length": 18
      }
    ],
    "id": 32292
  },
  {
    "type": 17,
    "icao": "SIHR",
    "lat": -19.9525,
    "lon": -43.9175,
    "communications": [],
    "elevation": 1098,
    "tower": false,
    "name": "[H] Roberta Lombardi",
    "runways": [
      {
        "type": 102,
        "width": 18,
        "surfaceType": 2,
        "numberStart": "H1",
        "numberEnd": null,
        "latStart": -19.9525,
        "lonStart": -43.9175,
        "latEnd": null,
        "lonEnd": null,
        "length": 18
      }
    ],
    "id": 32384
  },
  {
    "type": 17,
    "icao": "SNLS",
    "lat": -19.70472222,
    "lon": -43.84777778,
    "communications": [],
    "elevation": 814,
    "tower": false,
    "name": "[H] Sao Sebastiao",
    "runways": [
      {
        "type": 102,
        "width": 19.5,
        "surfaceType": 3,
        "numberStart": "H1",
        "numberEnd": null,
        "latStart": -19.70472222,
        "lonStart": -43.84777778,
        "latEnd": null,
        "lonEnd": null,
        "length": 19.5
      }
    ],
    "id": 32571
  },
  {
    "type": 17,
    "icao": "SNDZ",
    "lat": -19.84194444,
    "lon": -43.96611111,
    "communications": [],
    "elevation": 814,
    "tower": false,
    "name": "[H] Via Brasil",
    "runways": [
      {
        "type": 102,
        "width": 19.5,
        "surfaceType": 1,
        "numberStart": "H1",
        "numberEnd": null,
        "latStart": -19.84194444,
        "lonStart": -43.96611111,
        "latEnd": null,
        "lonEnd": null,
        "length": 19.5
      }
    ],
    "id": 33618
  },
  {
    "type": 17,
    "icao": "SIVB",
    "lat": -19.985,
    "lon": -43.96611111,
    "communications": [],
    "elevation": 982,
    "tower": false,
    "name": "[H] Vide Bula",
    "runways": [
      {
        "type": 102,
        "width": 21,
        "surfaceType": 2,
        "numberStart": "H1",
        "numberEnd": null,
        "latStart": -19.985,
        "lonStart": -43.96611111,
        "latEnd": null,
        "lonEnd": null,
        "length": 21
      }
    ],
    "id": 33629
  },
  {
    "type": 17,
    "icao": "SNCR",
    "lat": -19.96305556,
    "lon": -43.95555556,
    "communications": [],
    "elevation": 1042,
    "tower": false,
    "name": "[H] Vigano I",
    "runways": [
      {
        "type": 102,
        "width": 18,
        "surfaceType": 2,
        "numberStart": "H1",
        "numberEnd": null,
        "latStart": -19.96305556,
        "lonStart": -43.95555556,
        "latEnd": null,
        "lonEnd": null,
        "length": 18
      }
    ],
    "id": 33633
  }
]