[
  {
    "type": 1,
    "icao": "OBBI",
    "lat": 26.267843145,
    "lon": 50.6369646025,
    "communications": [
      {
        "type": 50,
        "frequency": 12720,
        "name": "ATIS"
      },
      {
        "type": 53,
        "frequency": 12185,
        "name": "GND"
      },
      {
        "type": 54,
        "frequency": 11850,
        "name": "TWR"
      },
      {
        "type": 55,
        "frequency": 12570,
        "name": "APP"
      }
    ],
    "elevation": 4,
    "tower": true,
    "name": "BAHRAIN INTL",
    "runways": [
      {
        "type": 100,
        "width": 60.05,
        "surfaceType": null,
        "numberStart": "12L",
        "numberEnd": "30R",
        "latStart": 26.28042728,
        "lonStart": 50.6169614,
        "latEnd": 26.26106141,
        "lonEnd": 50.650534,
        "length": 0,
        "surfacetype": 1
      },
      {
        "type": 100,
        "width": 45.11,
        "surfaceType": null,
        "numberStart": "12R",
        "numberEnd": "30L",
        "latStart": 26.2710962,
        "lonStart": 50.6295121,
        "latEnd": 26.25878769,
        "lonEnd": 50.65085091,
        "length": 0,
        "surfacetype": 1
      }
    ],
    "id": 4306
  },
  {
    "type": 1,
    "icao": "OEDR",
    "lat": 26.2625655,
    "lon": 50.15306325,
    "communications": [
      {
        "type": 52,
        "frequency": 12630,
        "name": "CLNC DEL"
      },
      {
        "type": 52,
        "frequency": 12180,
        "name": "CLNC DEL"
      },
      {
        "type": 53,
        "frequency": 12160,
        "name": "GND"
      },
      {
        "type": 54,
        "frequency": 11820,
        "name": "TWR"
      },
      {
        "type": 54,
        "frequency": 12430,
        "name": "TWR"
      },
      {
        "type": 55,
        "frequency": 12465,
        "name": "APP"
      },
      {
        "type": 55,
        "frequency": 12540,
        "name": "APP"
      }
    ],
    "elevation": 84,
    "tower": true,
    "name": "KING ABDULAZIZ AB",
    "runways": [
      {
        "type": 100,
        "width": 45.11,
        "surfaceType": null,
        "numberStart": "16R",
        "numberEnd": "34L",
        "latStart": 26.268603,
        "lonStart": 50.132614,
        "latEnd": 26.236692,
        "lonEnd": 50.142094,
        "length": 0,
        "surfacetype": 1
      },
      {
        "type": 100,
        "width": 45.11,
        "surfaceType": null,
        "numberStart": "16L",
        "numberEnd": "34R",
        "latStart": 26.288178,
        "lonStart": 50.164114,
        "latEnd": 26.256789,
        "lonEnd": 50.173431,
        "length": 0,
        "surfacetype": 1
      }
    ],
    "id": 23169
  },
  {
    "type": 1,
    "icao": "OERT",
    "lat": 26.723107,
    "lon": 50.030812499999996,
    "communications": [
      {
        "type": 51,
        "frequency": 12240,
        "name": "CTAF"
      }
    ],
    "elevation": 6,
    "tower": false,
    "name": "RAS TANURA",
    "runways": [
      {
        "type": 100,
        "width": 29.87,
        "surfaceType": null,
        "numberStart": "15",
        "numberEnd": "33",
        "latStart": 26.731683,
        "lonStart": 50.025792,
        "latEnd": 26.714531,
        "lonEnd": 50.035833,
        "length": 0,
        "surfacetype": 1
      }
    ],
    "id": 23194
  }
]