[
  {
    "type": 1,
    "icao": "ENAL",
    "lat": 62.55952489,
    "lon": 6.110244616666667,
    "communications": [
      {
        "type": 50,
        "frequency": 12865,
        "name": "ATIS"
      },
      {
        "type": 54,
        "frequency": 11985,
        "name": "TWR"
      },
      {
        "type": 54,
        "frequency": 11810,
        "name": "TWR"
      },
      {
        "type": 54,
        "frequency": 12210,
        "name": "TWR"
      }
    ],
    "elevation": 68,
    "tower": true,
    "name": "Alesund lufthavn - Vigra",
    "runways": [
      {
        "type": 100,
        "width": 45.11,
        "surfaceType": null,
        "numberStart": "06",
        "numberEnd": "24",
        "latStart": 62.555931,
        "lonStart": 6.089844,
        "latEnd": 62.564811,
        "lonEnd": 6.130486,
        "length": 0,
        "surfacetype": 1
      },
      {
        "type": 102,
        "width": 15,
        "surfaceType": 15,
        "numberStart": "H1",
        "numberEnd": null,
        "latStart": 62.55783267,
        "lonStart": 6.11040385,
        "latEnd": null,
        "lonEnd": null,
        "length": 15
      }
    ],
    "id": 1734
  },
  {
    "type": 1,
    "icao": "EN07",
    "lat": 62.834652500000004,
    "lon": 6.828131,
    "communications": [],
    "elevation": 45,
    "tower": false,
    "name": "GOSSA",
    "runways": [
      {
        "type": 100,
        "width": 11.89,
        "surfaceType": null,
        "numberStart": "08",
        "numberEnd": "26",
        "latStart": 62.834977,
        "lonStart": 6.833724,
        "latEnd": 62.834328,
        "lonEnd": 6.822538,
        "length": 0,
        "surfacetype": 5
      }
    ],
    "id": 16562
  },
  {
    "type": 1,
    "icao": "ENOV",
    "lat": 62.179996,
    "lon": 6.073612000000001,
    "communications": [],
    "elevation": 243,
    "tower": true,
    "name": "Orsta-Volda Hovden",
    "runways": [
      {
        "type": 100,
        "width": 29.87,
        "surfaceType": null,
        "numberStart": "07",
        "numberEnd": "25",
        "latStart": 62.17804848,
        "lonStart": 6.06638417,
        "latEnd": 62.18194352,
        "lonEnd": 6.08083983,
        "length": 0,
        "surfacetype": 1
      }
    ],
    "id": 16607
  }
]