[
  {
    "type": 1,
    "icao": "SARC",
    "lat": -27.44540546,
    "lon": -43.099916025,
    "communications": [
      {
        "type": 54,
        "frequency": 11830,
        "name": "TWR"
      },
      {
        "type": 53,
        "frequency": 12175,
        "name": "GND"
      }
    ],
    "elevation": 203,
    "tower": true,
    "name": "Corrientes",
    "runways": [
      {
        "type": 100,
        "width": 45.11,
        "surfaceType": null,
        "numberStart": "02",
        "numberEnd": "20",
        "latStart": -27.45476308,
        "lonStart": -58.76378421,
        "latEnd": -27.43604784,
        "lonEnd": -58.76082063,
        "length": 0,
        "surfacetype": 1
      }
    ],
    "id": 5356
  },
  {
    "type": 1,
    "icao": "SARE",
    "lat": -27.449986,
    "lon": -43.249714,
    "communications": [
      {
        "type": 54,
        "frequency": 11870,
        "name": "TWR/APP"
      },
      {
        "type": 54,
        "frequency": 11810,
        "name": "TWR/APP"
      }
    ],
    "elevation": 173,
    "tower": true,
    "name": "RESISTENCIA",
    "runways": [
      {
        "type": 100,
        "width": 44.81,
        "surfaceType": null,
        "numberStart": "03",
        "numberEnd": "21",
        "latStart": -27.461675,
        "lonStart": -59.061131,
        "latEnd": -27.438297,
        "lonEnd": -59.051119,
        "length": 0,
        "surfacetype": 1
      }
    ],
    "id": 20907
  },
  {
    "type": 1,
    "icao": "SAC0",
    "lat": -27.63111111,
    "lon": -43.40329,
    "communications": [],
    "elevation": 164,
    "tower": false,
    "name": "RESISTENCIA AEROCLUB",
    "runways": [
      {
        "type": 100,
        "width": 49.99,
        "surfaceType": null,
        "numberStart": "01",
        "numberEnd": "19",
        "latStart": -27.63627497,
        "lonStart": -59.18063275,
        "latEnd": -27.62594725,
        "lonEnd": -59.17881169,
        "length": 0,
        "surfacetype": 4
      }
    ],
    "id": 20908
  },
  {
    "type": 1,
    "icao": "SAD1",
    "lat": -27.586388890000002,
    "lon": -43.206504915,
    "communications": [],
    "elevation": 186,
    "tower": false,
    "name": "RIACHUELO NUEVA VALENCIA",
    "runways": [
      {
        "type": 100,
        "width": 24.99,
        "surfaceType": null,
        "numberStart": "15",
        "numberEnd": "33",
        "latStart": -27.5828958,
        "lonStart": -58.82312785,
        "latEnd": -27.58988198,
        "lonEnd": -58.81909437,
        "length": 0,
        "surfacetype": 4
      }
    ],
    "id": 20917
  }
]