[
  {
    "type": 17,
    "icao": "IA96",
    "lat": 43.08831027,
    "lon": -95.62389862,
    "communications": [],
    "elevation": 1520,
    "tower": false,
    "name": "[H] Baum-Harmon Memorial Hospital",
    "runways": [
      {
        "type": 102,
        "width": 18.3,
        "surfaceType": 2,
        "numberStart": "H1",
        "numberEnd": null,
        "latStart": 43.08831027,
        "lonStart": -95.62389862,
        "latEnd": null,
        "lonEnd": null,
        "length": 18.3
      }
    ],
    "id": 28369
  },
  {
    "type": 17,
    "icao": "5IA9",
    "lat": 43.18358361,
    "lon": -95.48972917,
    "communications": [],
    "elevation": 1474,
    "tower": false,
    "name": "[H] Community Memorial Health Center",
    "runways": [
      {
        "type": 102,
        "width": 7.3,
        "surfaceType": 2,
        "numberStart": "H1",
        "numberEnd": null,
        "latStart": 43.18358361,
        "lonStart": -95.48972917,
        "latEnd": null,
        "lonEnd": null,
        "length": 7.3
      }
    ],
    "id": 29088
  },
  {
    "type": 17,
    "icao": "IA99",
    "lat": 43.41746222,
    "lon": -95.12388389,
    "communications": [],
    "elevation": 1455,
    "tower": false,
    "name": "[H] Dickinson County Memorial Hospital",
    "runways": [
      {
        "type": 102,
        "width": 12.2,
        "surfaceType": 2,
        "numberStart": "H1",
        "numberEnd": null,
        "latStart": 43.41746222,
        "lonStart": -95.12388389,
        "latEnd": null,
        "lonEnd": null,
        "length": 12.2
      }
    ],
    "id": 29343
  },
  {
    "type": 17,
    "icao": "IA40",
    "lat": 43.41024638,
    "lon": -95.74223778,
    "communications": [],
    "elevation": 1537,
    "tower": false,
    "name": "[H] Osceola Community Hospital",
    "runways": [
      {
        "type": 102,
        "width": 7.6,
        "surfaceType": 2,
        "numberStart": "H1",
        "numberEnd": null,
        "latStart": 43.41024638,
        "lonStart": -95.74223778,
        "latEnd": null,
        "lonEnd": null,
        "length": 7.6
      }
    ],
    "id": 31775
  },
  {
    "type": 17,
    "icao": "1IA3",
    "lat": 43.15052388,
    "lon": -95.14221695,
    "communications": [],
    "elevation": 1316,
    "tower": false,
    "name": "[H] Spencer Municipal Hospital",
    "runways": [
      {
        "type": 102,
        "width": 18.3,
        "surfaceType": 1,
        "numberStart": "H1",
        "numberEnd": null,
        "latStart": 43.15052388,
        "lonStart": -95.14221695,
        "latEnd": null,
        "lonEnd": null,
        "length": 18.3
      }
    ],
    "id": 32832
  }
]