[
  {
    "type": 1,
    "icao": "SC15",
    "lat": 32.632127499999996,
    "lon": -80.50399306,
    "communications": [],
    "elevation": 20,
    "tower": false,
    "name": "Airy Hall",
    "runways": [
      {
        "type": 100,
        "width": 45.72,
        "surfaceType": null,
        "numberStart": "04",
        "numberEnd": "22",
        "latStart": 32.62864478,
        "lonStart": -80.50688878,
        "latEnd": 32.63561022,
        "lonEnd": -80.50109734,
        "length": 0,
        "surfacetype": 3
      }
    ],
    "id": 765
  },
  {
    "type": 1,
    "icao": "KARW",
    "lat": 32.412161499999996,
    "lon": -80.6343545,
    "communications": [
      {
        "type": 51,
        "frequency": 12270,
        "name": "CTAF/UNICOM"
      },
      {
        "type": 55,
        "frequency": 11845,
        "name": "APP/DEP"
      }
    ],
    "elevation": 9,
    "tower": false,
    "name": "BEAUFORT CO",
    "runways": [
      {
        "type": 100,
        "width": 22.86,
        "surfaceType": null,
        "numberStart": "07",
        "numberEnd": "25",
        "latStart": 32.409831,
        "lonStart": -80.639192,
        "latEnd": 32.414492,
        "lonEnd": -80.629517,
        "length": 0,
        "surfacetype": 1
      }
    ],
    "id": 1588
  },
  {
    "type": 1,
    "icao": "KNBC",
    "lat": 32.477911875000004,
    "lon": -80.72373075,
    "communications": [
      {
        "type": 53,
        "frequency": 12815,
        "name": "GND/CLNC DEL"
      },
      {
        "type": 54,
        "frequency": 11905,
        "name": "TWR"
      },
      {
        "type": 55,
        "frequency": 12370,
        "name": "APP/DEP"
      },
      {
        "type": 55,
        "frequency": 11845,
        "name": "APP/DEP"
      }
    ],
    "elevation": 37,
    "tower": true,
    "name": "BEAUFORT MCAS",
    "runways": [
      {
        "type": 100,
        "width": 60.96,
        "surfaceType": null,
        "numberStart": "05",
        "numberEnd": "23",
        "latStart": 32.470556,
        "lonStart": -80.730461,
        "latEnd": 32.495536,
        "lonEnd": -80.704058,
        "length": 0,
        "surfacetype": 1
      },
      {
        "type": 100,
        "width": 60.96,
        "surfaceType": null,
        "numberStart": "14",
        "numberEnd": "32",
        "latStart": 32.484597,
        "lonStart": -80.731383,
        "latEnd": 32.468994,
        "lonEnd": -80.713111,
        "length": 0,
        "surfacetype": 1
      },
      {
        "type": 100,
        "width": 45.72,
        "surfaceType": null,
        "numberStart": "10",
        "numberEnd": "28",
        "latStart": 32.475556,
        "lonStart": -80.735,
        "latEnd": 32.475556,
        "lonEnd": -80.714167,
        "length": 0,
        "surfacetype": 1
      },
      {
        "type": 100,
        "width": 45.72,
        "surfaceType": null,
        "numberStart": "18",
        "numberEnd": "36",
        "latStart": 32.481667,
        "lonStart": -80.730833,
        "latEnd": 32.470833,
        "lonEnd": -80.730833,
        "length": 0,
        "surfacetype": 1
      }
    ],
    "id": 1589
  },
  {
    "type": 1,
    "icao": "KCHS",
    "lat": 32.89807975,
    "lon": -80.04055625000001,
    "communications": [
      {
        "type": 50,
        "frequency": 12475,
        "name": "ATIS"
      },
      {
        "type": 51,
        "frequency": 12295,
        "name": "UNICOM"
      },
      {
        "type": 52,
        "frequency": 11800,
        "name": "CLNC DEL"
      },
      {
        "type": 52,
        "frequency": 12732,
        "name": "CLNC DEL"
      },
      {
        "type": 53,
        "frequency": 12190,
        "name": "GND"
      },
      {
        "type": 54,
        "frequency": 12600,
        "name": "TWR"
      },
      {
        "type": 55,
        "frequency": 13580,
        "name": "APP"
      },
      {
        "type": 55,
        "frequency": 12070,
        "name": "APP"
      },
      {
        "type": 55,
        "frequency": 11930,
        "name": "APP"
      },
      {
        "type": 56,
        "frequency": 12070,
        "name": "DEP"
      },
      {
        "type": 56,
        "frequency": 13580,
        "name": "DEP"
      }
    ],
    "elevation": 44,
    "tower": true,
    "name": "Charleston AFB Intl",
    "runways": [
      {
        "type": 100,
        "width": 45.72,
        "surfaceType": null,
        "numberStart": "15",
        "numberEnd": "33",
        "latStart": 32.913022,
        "lonStart": -80.048119,
        "latEnd": 32.892178,
        "lonEnd": -80.032328,
        "length": 0,
        "surfacetype": 2
      },
      {
        "type": 100,
        "width": 45.72,
        "surfaceType": null,
        "numberStart": "03",
        "numberEnd": "21",
        "latStart": 32.884794,
        "lonStart": -80.045603,
        "latEnd": 32.902325,
        "lonEnd": -80.036175,
        "length": 0,
        "surfacetype": 2
      }
    ],
    "id": 4808
  },
  {
    "type": 1,
    "icao": "KJZI",
    "lat": 32.700788162500004,
    "lon": -80.00251529500001,
    "communications": [
      {
        "type": 50,
        "frequency": 12377,
        "name": "AWOS 3"
      },
      {
        "type": 51,
        "frequency": 12280,
        "name": "CTAF/UNICOM"
      },
      {
        "type": 52,
        "frequency": 12715,
        "name": "CLNC DEL"
      },
      {
        "type": 55,
        "frequency": 12070,
        "name": "APP/DEP"
      }
    ],
    "elevation": 17,
    "tower": false,
    "name": "Charleston Executive",
    "runways": [
      {
        "type": 100,
        "width": 29.87,
        "surfaceType": null,
        "numberStart": "09",
        "numberEnd": "27",
        "latStart": 32.70486047,
        "lonStart": -80.01235412,
        "latEnd": 32.70505353,
        "lonEnd": -79.99491586,
        "length": 0,
        "surfacetype": 2
      },
      {
        "type": 100,
        "width": 46.02,
        "surfaceType": null,
        "numberStart": "04",
        "numberEnd": "22",
        "latStart": 32.69166369,
        "lonStart": -80.00523443,
        "latEnd": 32.70157496,
        "lonEnd": -79.99755677,
        "length": 0,
        "surfacetype": 2
      }
    ],
    "id": 4809
  },
  {
    "type": 1,
    "icao": "KHXD",
    "lat": 32.22439504,
    "lon": -80.697453155,
    "communications": [
      {
        "type": 50,
        "frequency": 12140,
        "name": "ATIS"
      },
      {
        "type": 51,
        "frequency": 12300,
        "name": "CTAF/UNICOM"
      },
      {
        "type": 52,
        "frequency": 12110,
        "name": "CLNC DEL"
      },
      {
        "type": 53,
        "frequency": 12110,
        "name": "GND"
      },
      {
        "type": 54,
        "frequency": 11897,
        "name": "TWR"
      },
      {
        "type": 55,
        "frequency": 12530,
        "name": "SAVANNAH APP/DEP"
      }
    ],
    "elevation": 19,
    "tower": true,
    "name": "Hilton Head",
    "runways": [
      {
        "type": 100,
        "width": 29.87,
        "surfaceType": null,
        "numberStart": "03",
        "numberEnd": "21",
        "latStart": 32.21904564,
        "lonStart": -80.70053524,
        "latEnd": 32.22974444,
        "lonEnd": -80.69437107,
        "length": 0,
        "surfacetype": 1
      }
    ],
    "id": 11868
  },
  {
    "type": 1,
    "icao": "KRBW",
    "lat": 32.920998166666664,
    "lon": -80.640636,
    "communications": [
      {
        "type": 50,
        "frequency": 11872,
        "name": "AWOS 3"
      },
      {
        "type": 51,
        "frequency": 12280,
        "name": "CTAF/UNICOM"
      },
      {
        "type": 55,
        "frequency": 12070,
        "name": "CHARLESTON APP/DEP"
      }
    ],
    "elevation": 101,
    "tower": false,
    "name": "LOWCOUNTRY RGNL",
    "runways": [
      {
        "type": 100,
        "width": 30.48,
        "surfaceType": null,
        "numberStart": "05",
        "numberEnd": "23",
        "latStart": 32.915722,
        "lonStart": -80.645344,
        "latEnd": 32.927578,
        "lonEnd": -80.631744,
        "length": 0,
        "surfacetype": 1
      },
      {
        "type": 100,
        "width": 30.48,
        "surfaceType": null,
        "numberStart": "17",
        "numberEnd": "35",
        "latStart": 32.927994,
        "lonStart": -80.64505,
        "latEnd": 32.912806,
        "lonEnd": -80.640431,
        "length": 0,
        "surfacetype": 1
      },
      {
        "type": 100,
        "width": 45.72,
        "surfaceType": null,
        "numberStart": "09",
        "numberEnd": "27",
        "latStart": 32.920761,
        "lonStart": -80.649433,
        "latEnd": 32.921128,
        "lonEnd": -80.631814,
        "length": 0,
        "surfacetype": 1
      }
    ],
    "id": 14641
  },
  {
    "type": 1,
    "icao": "SC05",
    "lat": 32.491299999999995,
    "lon": -80.61510528,
    "communications": [],
    "elevation": 10,
    "tower": false,
    "name": "Laurel Hill Plantation",
    "runways": [
      {
        "type": 100,
        "width": 30.48,
        "surfaceType": null,
        "numberStart": "03",
        "numberEnd": "21",
        "latStart": 32.48834155,
        "lonStart": -80.61681598,
        "latEnd": 32.49425845,
        "lonEnd": -80.61339458,
        "length": 0,
        "surfacetype": 3
      }
    ],
    "id": 15016
  },
  {
    "type": 1,
    "icao": "SC74",
    "lat": 32.46185722,
    "lon": -80.60093889000001,
    "communications": [],
    "elevation": 12,
    "tower": false,
    "name": "Marsh Point",
    "runways": [
      {
        "type": 100,
        "width": 22.86,
        "surfaceType": null,
        "numberStart": "18",
        "numberEnd": "36",
        "latStart": 32.46418307,
        "lonStart": -80.60113165,
        "latEnd": 32.45953137,
        "lonEnd": -80.60074613,
        "length": 0,
        "surfacetype": 3
      }
    ],
    "id": 16728
  },
  {
    "type": 1,
    "icao": "SC06",
    "lat": 32.63212527,
    "lon": -80.09231667,
    "communications": [],
    "elevation": 15,
    "tower": false,
    "name": "Pluff Mud Field",
    "runways": [
      {
        "type": 100,
        "width": 22.86,
        "surfaceType": null,
        "numberStart": "18",
        "numberEnd": "36",
        "latStart": 32.6337648,
        "lonStart": -80.092487,
        "latEnd": 32.63048574,
        "lonEnd": -80.09214634,
        "length": 0,
        "surfacetype": 4
      }
    ],
    "id": 20275
  },
  {
    "type": 1,
    "icao": "3J1",
    "lat": 32.492686,
    "lon": -80.9923305,
    "communications": [
      {
        "type": 51,
        "frequency": 12270,
        "name": "CTAF/UNICOM"
      }
    ],
    "elevation": 79,
    "tower": false,
    "name": "RIDGELAND",
    "runways": [
      {
        "type": 100,
        "width": 21.34,
        "surfaceType": null,
        "numberStart": "04",
        "numberEnd": "22",
        "latStart": 32.489483,
        "lonStart": -80.994514,
        "latEnd": 32.495889,
        "lonEnd": -80.990147,
        "length": 0,
        "surfacetype": 1
      }
    ],
    "id": 20935
  },
  {
    "type": 1,
    "icao": "SC51",
    "lat": 32.70462305,
    "lon": -80.25315417,
    "communications": [],
    "elevation": 15,
    "tower": false,
    "name": "Too Goo Doo Farms",
    "runways": [
      {
        "type": 100,
        "width": 24.38,
        "surfaceType": null,
        "numberStart": "15",
        "numberEnd": "33",
        "latStart": 32.70754404,
        "lonStart": -80.25558481,
        "latEnd": 32.70170206,
        "lonEnd": -80.25072353,
        "length": 0,
        "surfacetype": 3
      }
    ],
    "id": 25458
  },
  {
    "type": 1,
    "icao": "SC50",
    "lat": 32.69740111,
    "lon": -80.22593112,
    "communications": [],
    "elevation": 8,
    "tower": false,
    "name": "Yonges Island",
    "runways": [
      {
        "type": 100,
        "width": 22.86,
        "surfaceType": null,
        "numberStart": "18",
        "numberEnd": "36",
        "latStart": 32.70054353,
        "lonStart": -80.22625782,
        "latEnd": 32.69425869,
        "lonEnd": -80.22560442,
        "length": 0,
        "surfacetype": 3
      }
    ],
    "id": 27785
  },
  {
    "type": 17,
    "icao": "SC02",
    "lat": 32.41685972,
    "lon": -80.68732862,
    "communications": [],
    "elevation": 20,
    "tower": false,
    "name": "[H] Beaufort County Memorial Hospital",
    "runways": [
      {
        "type": 102,
        "width": 14.6,
        "surfaceType": 1,
        "numberStart": "H1",
        "numberEnd": null,
        "latStart": 32.41685972,
        "lonStart": -80.68732862,
        "latEnd": null,
        "lonEnd": null,
        "length": 18.6
      }
    ],
    "id": 28395
  },
  {
    "type": 17,
    "icao": "SC68",
    "lat": 32.32186305,
    "lon": -80.49121834,
    "communications": [],
    "elevation": 6,
    "tower": false,
    "name": "[H] Fripp Island Emergency",
    "runways": [
      {
        "type": 102,
        "width": 15.2,
        "surfaceType": 3,
        "numberStart": "H1",
        "numberEnd": null,
        "latStart": 32.32186305,
        "lonStart": -80.49121834,
        "latEnd": null,
        "lonEnd": null,
        "length": 15.2
      }
    ],
    "id": 29835
  }
]