[
  {
    "type": 1,
    "icao": "SAMQ",
    "lat": -32.86422514,
    "lon": -68.87220873,
    "communications": [
      {
        "type": 54,
        "frequency": 12660,
        "name": "MENDOZA CTR"
      }
    ],
    "elevation": 2646,
    "tower": true,
    "name": "Aeroparque Mendoza",
    "runways": [
      {
        "type": 100,
        "width": 29.87,
        "surfaceType": null,
        "numberStart": "18",
        "numberEnd": "36",
        "latStart": -32.85745457,
        "lonStart": -68.87098289,
        "latEnd": -32.87267681,
        "lonEnd": -68.87280035,
        "length": 0,
        "surfacetype": 1
      },
      {
        "type": 102,
        "width": 22.9,
        "surfaceType": 2,
        "numberStart": "H1",
        "numberEnd": null,
        "latStart": -32.86254404,
        "lonStart": -68.87284295,
        "latEnd": null,
        "lonEnd": null,
        "length": 22.9
      }
    ],
    "id": 652
  },
  {
    "type": 1,
    "icao": "SAME",
    "lat": -32.83358547,
    "lon": -68.79402570333333,
    "communications": [
      {
        "type": 54,
        "frequency": 11990,
        "name": "TWR"
      },
      {
        "type": 53,
        "frequency": 12195,
        "name": "GND"
      },
      {
        "type": 50,
        "frequency": 11490,
        "name": "ATIS"
      }
    ],
    "elevation": 2310,
    "tower": true,
    "name": "El Plumerillo",
    "runways": [
      {
        "type": 100,
        "width": 53.95,
        "surfaceType": null,
        "numberStart": "18",
        "numberEnd": "36",
        "latStart": -32.81877799,
        "lonStart": -68.7911082,
        "latEnd": -32.84494701,
        "lonEnd": -68.79324776,
        "length": 0,
        "surfacetype": 2
      },
      {
        "type": 102,
        "width": 24.4,
        "surfaceType": 2,
        "numberStart": "H1",
        "numberEnd": null,
        "latStart": -32.83703141,
        "lonStart": -68.79772115,
        "latEnd": null,
        "lonEnd": null,
        "length": 24.4
      }
    ],
    "id": 7052
  },
  {
    "type": 1,
    "icao": "SA16",
    "lat": -32.9628135,
    "lon": -68.8737055,
    "communications": [],
    "elevation": 2953,
    "tower": false,
    "name": "LA PUNTILLA",
    "runways": [
      {
        "type": 100,
        "width": 20.12,
        "surfaceType": null,
        "numberStart": "04",
        "numberEnd": "22",
        "latStart": -32.966233,
        "lonStart": -68.878544,
        "latEnd": -32.959394,
        "lonEnd": -68.868867,
        "length": 0,
        "surfacetype": 1
      }
    ],
    "id": 14288
  },
  {
    "type": 1,
    "icao": "SA8L",
    "lat": -32.721666665,
    "lon": -68.63333333,
    "communications": [],
    "elevation": 1869,
    "tower": false,
    "name": "LAVALLE LANZILOTTA",
    "runways": [
      {
        "type": 100,
        "width": 14.94,
        "surfaceType": null,
        "numberStart": "10",
        "numberEnd": "28",
        "latStart": -32.72151102,
        "lonStart": -68.63421604,
        "latEnd": -32.72182231,
        "lonEnd": -68.63245062,
        "length": 0,
        "surfacetype": 4
      }
    ],
    "id": 14427
  }
]