[
  {
    "type": 1,
    "icao": "XYPIC",
    "lat": -38.501255405,
    "lon": 145.23296076,
    "communications": [],
    "elevation": 41,
    "tower": false,
    "name": "Phillip Island GP Circuit",
    "runways": [
      {
        "type": 102,
        "width": 35.1,
        "surfaceType": 2,
        "numberStart": "H2",
        "numberEnd": null,
        "latStart": -38.49981574,
        "lonStart": 145.23248507,
        "latEnd": null,
        "lonEnd": null,
        "length": 33.4
      },
      {
        "type": 102,
        "width": 23.7,
        "surfaceType": 2,
        "numberStart": "H1",
        "numberEnd": null,
        "latStart": -38.50269507,
        "lonStart": 145.23343645,
        "latEnd": null,
        "lonEnd": null,
        "length": 23.5
      }
    ],
    "id": 5558
  },
  {
    "type": 1,
    "icao": "YTDN",
    "lat": -38.215562687500004,
    "lon": 145.4255483025,
    "communications": [
      {
        "type": 54,
        "frequency": 12420,
        "name": "Tower"
      }
    ],
    "elevation": 9,
    "tower": false,
    "name": "Tooradin",
    "runways": [
      {
        "type": 100,
        "width": 24.08,
        "surfaceType": null,
        "numberStart": "04",
        "numberEnd": "22",
        "latStart": -38.21810462,
        "lonStart": 145.41874275,
        "latEnd": -38.21325084,
        "lonEnd": 145.42773143,
        "length": 0,
        "surfacetype": 1
      },
      {
        "type": 100,
        "width": 15,
        "surfaceType": null,
        "numberStart": "11",
        "numberEnd": "29",
        "latStart": -38.21480719,
        "lonStart": 145.4260844,
        "latEnd": -38.2160881,
        "lonEnd": 145.42963463,
        "length": 0,
        "surfacetype": 3
      }
    ],
    "id": 5611
  },
  {
    "type": 17,
    "icao": "YCWS",
    "lat": -38.4501629,
    "lon": 145.24995609,
    "communications": [],
    "elevation": 34,
    "tower": false,
    "name": "[H] COWES",
    "runways": [
      {
        "type": 102,
        "width": 14.9,
        "surfaceType": 3,
        "numberStart": "H2",
        "numberEnd": null,
        "latStart": -38.4501629,
        "lonStart": 145.24995609,
        "latEnd": null,
        "lonEnd": null,
        "length": 14.9
      }
    ],
    "id": 33092
  },
  {
    "type": 17,
    "icao": "YFND",
    "lat": -38.3683,
    "lon": 145.188876,
    "communications": [],
    "elevation": 24,
    "tower": false,
    "name": "[H] FLINDERS NAVAL DEPOT",
    "runways": [
      {
        "type": 102,
        "width": 14.9,
        "surfaceType": 3,
        "numberStart": "H31",
        "numberEnd": null,
        "latStart": -38.3683,
        "lonStart": 145.188876,
        "latEnd": null,
        "lonEnd": null,
        "length": 14.9
      }
    ],
    "id": 33279
  },
  {
    "type": 17,
    "icao": "YKOR",
    "lat": -38.42746733,
    "lon": 145.81805981,
    "communications": [],
    "elevation": 692,
    "tower": false,
    "name": "[H] KORUMBURRA",
    "runways": [
      {
        "type": 102,
        "width": 18,
        "surfaceType": 3,
        "numberStart": "H10",
        "numberEnd": null,
        "latStart": -38.42746733,
        "lonStart": 145.81805981,
        "latEnd": null,
        "lonEnd": null,
        "length": 18
      }
    ],
    "id": 33612
  },
  {
    "type": 1,
    "icao": "YLEG",
    "lat": -38.495538925000005,
    "lon": 145.861055585,
    "communications": [
      {
        "type": 51,
        "frequency": 12670,
        "name": "CTAF"
      }
    ],
    "elevation": 263,
    "tower": false,
    "name": "Leongatha",
    "runways": [
      {
        "type": 100,
        "width": 18.06,
        "surfaceType": null,
        "numberStart": "04",
        "numberEnd": "22",
        "latStart": -38.49913492,
        "lonStart": 145.85700996,
        "latEnd": -38.49269071,
        "lonEnd": 145.86565325,
        "length": 0,
        "surfacetype": 1
      },
      {
        "type": 100,
        "width": 17.07,
        "surfaceType": null,
        "numberStart": "18",
        "numberEnd": "36",
        "latStart": -38.49103973,
        "lonStart": 145.86152034,
        "latEnd": -38.49929034,
        "lonEnd": 145.86003879,
        "length": 0,
        "surfacetype": 4
      }
    ],
    "id": 33669
  },
  {
    "type": 1,
    "icao": "YNNG",
    "lat": -38.06789939,
    "lon": 145.57787118,
    "communications": [],
    "elevation": 148,
    "tower": false,
    "name": "NAR NAR GOON",
    "runways": [
      {
        "type": 100,
        "width": 13.11,
        "surfaceType": null,
        "numberStart": "10",
        "numberEnd": "28",
        "latStart": -38.06676678,
        "lonStart": 145.57390336,
        "latEnd": -38.069032,
        "lonEnd": 145.581839,
        "length": 0,
        "surfacetype": 3
      }
    ],
    "id": 34047
  },
  {
    "type": 1,
    "icao": "YPID",
    "lat": -38.5248410425,
    "lon": 145.32515055750002,
    "communications": [
      {
        "type": 51,
        "frequency": 12055,
        "name": "ACTIVATE LIGHTS ONLY MULT"
      },
      {
        "type": 51,
        "frequency": 12000,
        "name": "MELBOURNE CENTRE MULT"
      },
      {
        "type": 51,
        "frequency": 11910,
        "name": "PHILLIP IS MULT"
      }
    ],
    "elevation": 43,
    "tower": false,
    "name": "Phillip Island",
    "runways": [
      {
        "type": 100,
        "width": 17.98,
        "surfaceType": null,
        "numberStart": "04",
        "numberEnd": "22",
        "latStart": -38.5280775,
        "lonStart": 145.32189478,
        "latEnd": -38.521212,
        "lonEnd": 145.332842,
        "length": 0,
        "surfacetype": 5
      },
      {
        "type": 100,
        "width": 14.94,
        "surfaceType": null,
        "numberStart": "18",
        "numberEnd": "36",
        "latStart": -38.52770504,
        "lonStart": 145.32253319,
        "latEnd": -38.52236963,
        "lonEnd": 145.32333226,
        "length": 0,
        "surfacetype": 4
      }
    ],
    "id": 34192
  },
  {
    "type": 17,
    "icao": "YRDH",
    "lat": -38.36897,
    "lon": 145.011902,
    "communications": [],
    "elevation": 100,
    "tower": false,
    "name": "[H] Red Hill South",
    "runways": [
      {
        "type": 102,
        "width": 50,
        "surfaceType": 3,
        "numberStart": "H1",
        "numberEnd": null,
        "latStart": -38.36897,
        "lonStart": 145.011902,
        "latEnd": null,
        "lonEnd": null,
        "length": 50
      }
    ],
    "id": 34294
  },
  {
    "type": 1,
    "icao": "YTYA",
    "lat": -38.265191648333335,
    "lon": 145.17868036833332,
    "communications": [
      {
        "type": 51,
        "frequency": 12670,
        "name": "CTAF"
      }
    ],
    "elevation": 88,
    "tower": false,
    "name": "Tyabb",
    "runways": [
      {
        "type": 100,
        "width": 11.89,
        "surfaceType": null,
        "numberStart": "17",
        "numberEnd": "35",
        "latStart": -38.2718201,
        "lonStart": 145.17950148,
        "latEnd": -38.26166601,
        "lonEnd": 145.17968207,
        "length": 0,
        "surfacetype": 1
      },
      {
        "type": 100,
        "width": 79.86,
        "surfaceType": null,
        "numberStart": "8",
        "numberEnd": "26",
        "latStart": -38.26536182,
        "lonStart": 145.17100007,
        "latEnd": -38.26533477,
        "lonEnd": 145.17911941,
        "length": 0,
        "surfacetype": 3
      },
      {
        "type": 102,
        "width": 7.92,
        "surfaceType": 1,
        "numberStart": "H1",
        "numberEnd": null,
        "latStart": -38.26355261,
        "lonStart": 145.18139144,
        "latEnd": null,
        "lonEnd": null,
        "length": 7.92
      },
      {
        "type": 102,
        "width": 7.92,
        "surfaceType": 1,
        "numberStart": "H2",
        "numberEnd": null,
        "latStart": -38.26341458,
        "lonStart": 145.18138774,
        "latEnd": null,
        "lonEnd": null,
        "length": 7.92
      }
    ],
    "id": 34619
  },
  {
    "type": 17,
    "icao": "YWAR",
    "lat": -38.168346,
    "lon": 145.934212,
    "communications": [],
    "elevation": 360,
    "tower": false,
    "name": "[H] WARRAGUL",
    "runways": [
      {
        "type": 102,
        "width": 18,
        "surfaceType": 15,
        "numberStart": "H13",
        "numberEnd": null,
        "latStart": -38.168346,
        "lonStart": 145.934212,
        "latEnd": null,
        "lonEnd": null,
        "length": 18
      }
    ],
    "id": 34664
  },
  {
    "type": 17,
    "icao": "YWOG",
    "lat": -38.60061471,
    "lon": 145.59793254,
    "communications": [],
    "elevation": 107,
    "tower": false,
    "name": "[H] WONTHAGGI TOWNSHIP",
    "runways": [
      {
        "type": 102,
        "width": 50,
        "surfaceType": 15,
        "numberStart": "H25",
        "numberEnd": null,
        "latStart": -38.60061471,
        "lonStart": 145.59793254,
        "latEnd": null,
        "lonEnd": null,
        "length": 50
      }
    ],
    "id": 34766
  }
]