[
  {
    "type": 17,
    "icao": "YCWS",
    "lat": -38.4501629,
    "lon": 145.24995609,
    "communications": [],
    "elevation": 34,
    "tower": false,
    "name": "[H] COWES",
    "runways": [
      {
        "type": 102,
        "width": 14.9,
        "surfaceType": 3,
        "numberStart": "H2",
        "numberEnd": null,
        "latStart": -38.4501629,
        "lonStart": 145.24995609,
        "latEnd": null,
        "lonEnd": null,
        "length": 14.9
      }
    ],
    "id": 28695
  },
  {
    "type": 17,
    "icao": "YFND",
    "lat": -38.3683,
    "lon": 145.188876,
    "communications": [],
    "elevation": 24,
    "tower": false,
    "name": "[H] FLINDERS NAVAL DEPOT",
    "runways": [
      {
        "type": 102,
        "width": 14.9,
        "surfaceType": 3,
        "numberStart": "H31",
        "numberEnd": null,
        "latStart": -38.3683,
        "lonStart": 145.188876,
        "latEnd": null,
        "lonEnd": null,
        "length": 14.9
      }
    ],
    "id": 29623
  },
  {
    "type": 17,
    "icao": "YKOR",
    "lat": -38.42746733,
    "lon": 145.81805981,
    "communications": [],
    "elevation": 692,
    "tower": false,
    "name": "[H] KORUMBURRA",
    "runways": [
      {
        "type": 102,
        "width": 18,
        "surfaceType": 3,
        "numberStart": "H10",
        "numberEnd": null,
        "latStart": -38.42746733,
        "lonStart": 145.81805981,
        "latEnd": null,
        "lonEnd": null,
        "length": 18
      }
    ],
    "id": 30668
  },
  {
    "type": 17,
    "icao": "YRDH",
    "lat": -38.36897,
    "lon": 145.011902,
    "communications": [],
    "elevation": 100,
    "tower": false,
    "name": "[H] Red Hill South",
    "runways": [
      {
        "type": 102,
        "width": 50,
        "surfaceType": 3,
        "numberStart": "H1",
        "numberEnd": null,
        "latStart": -38.36897,
        "lonStart": 145.011902,
        "latEnd": null,
        "lonEnd": null,
        "length": 50
      }
    ],
    "id": 32281
  },
  {
    "type": 17,
    "icao": "YWAR",
    "lat": -38.168346,
    "lon": 145.934212,
    "communications": [],
    "elevation": 360,
    "tower": false,
    "name": "[H] WARRAGUL",
    "runways": [
      {
        "type": 102,
        "width": 18,
        "surfaceType": 15,
        "numberStart": "H13",
        "numberEnd": null,
        "latStart": -38.168346,
        "lonStart": 145.934212,
        "latEnd": null,
        "lonEnd": null,
        "length": 18
      }
    ],
    "id": 33669
  },
  {
    "type": 17,
    "icao": "YWOG",
    "lat": -38.60061471,
    "lon": 145.59793254,
    "communications": [],
    "elevation": 107,
    "tower": false,
    "name": "[H] WONTHAGGI TOWNSHIP",
    "runways": [
      {
        "type": 102,
        "width": 50,
        "surfaceType": 15,
        "numberStart": "H25",
        "numberEnd": null,
        "latStart": -38.60061471,
        "lonStart": 145.59793254,
        "latEnd": null,
        "lonEnd": null,
        "length": 50
      }
    ],
    "id": 33685
  }
]