[
  {
    "type": 1,
    "icao": "EFKA",
    "lat": 63.1270775,
    "lon": 23.051441500000003,
    "communications": [
      {
        "type": 54,
        "frequency": 11970,
        "name": "TWR"
      },
      {
        "type": 54,
        "frequency": 12280,
        "name": "TWR"
      },
      {
        "type": 55,
        "frequency": 13010,
        "name": "APP"
      },
      {
        "type": 55,
        "frequency": 11970,
        "name": "APP"
      },
      {
        "type": 55,
        "frequency": 12660,
        "name": "APP"
      },
      {
        "type": 55,
        "frequency": 12815,
        "name": "ARRIVAL"
      },
      {
        "type": 55,
        "frequency": 11970,
        "name": "ARRIVAL"
      }
    ],
    "elevation": 151,
    "tower": true,
    "name": "Kauhava",
    "runways": [
      {
        "type": 100,
        "width": 60.05,
        "surfaceType": null,
        "numberStart": "17",
        "numberEnd": "35",
        "latStart": 63.139172,
        "lonStart": 23.049997,
        "latEnd": 63.114983,
        "lonEnd": 23.052886,
        "length": 0,
        "surfacetype": 1
      }
    ],
    "id": 16187
  },
  {
    "type": 1,
    "icao": "EFKK",
    "lat": 63.720639500000004,
    "lon": 23.13971325,
    "communications": [
      {
        "type": 50,
        "frequency": 12502,
        "name": "ATIS"
      },
      {
        "type": 54,
        "frequency": 11970,
        "name": "TWR"
      },
      {
        "type": 54,
        "frequency": 12010,
        "name": "TWR"
      }
    ],
    "elevation": 83,
    "tower": true,
    "name": "Kruunupyy",
    "runways": [
      {
        "type": 100,
        "width": 60.05,
        "surfaceType": null,
        "numberStart": "01",
        "numberEnd": "19",
        "latStart": 63.707847,
        "lonStart": 23.138158,
        "latEnd": 63.729886,
        "lonEnd": 23.1475,
        "length": 0,
        "surfacetype": 1
      },
      {
        "type": 100,
        "width": 20.12,
        "surfaceType": null,
        "numberStart": "11",
        "numberEnd": "29",
        "latStart": 63.723639,
        "lonStart": 23.130081,
        "latEnd": 63.721186,
        "lonEnd": 23.143114,
        "length": 0,
        "surfacetype": 1
      }
    ],
    "id": 16191
  }
]