[
  {
    "type": 17,
    "icao": "ED2A",
    "lat": 53.75311748,
    "lon": 9.68486252,
    "communications": [],
    "elevation": 19,
    "tower": false,
    "name": "[H] Elmshorn Regioklinik Helipad",
    "runways": [
      {
        "type": 102,
        "width": 14.3,
        "surfaceType": 15,
        "numberStart": "H1",
        "numberEnd": null,
        "latStart": 53.75311748,
        "lonStart": 9.68486252,
        "latEnd": null,
        "lonEnd": null,
        "length": 14.5
      }
    ],
    "id": 969
  },
  {
    "type": 17,
    "icao": "ED2C",
    "lat": 53.9432286,
    "lon": 9.50585637,
    "communications": [],
    "elevation": 111,
    "tower": false,
    "name": "[H] Itzehoe Klinikum",
    "runways": [
      {
        "type": 102,
        "width": 31.1,
        "surfaceType": 15,
        "numberStart": "H55",
        "numberEnd": null,
        "latStart": 53.9432286,
        "lonStart": 9.50585637,
        "latEnd": null,
        "lonEnd": null,
        "length": 31.1
      }
    ],
    "id": 971
  },
  {
    "type": 1,
    "icao": "EDDH",
    "lat": 53.62945536125,
    "lon": 9.99009001875,
    "communications": [
      {
        "type": 50,
        "frequency": 12312,
        "name": "Hamburg ATIS"
      },
      {
        "type": 53,
        "frequency": 12180,
        "name": "Hamburg Ground"
      },
      {
        "type": 54,
        "frequency": 12685,
        "name": "Hamburg Tower"
      },
      {
        "type": 55,
        "frequency": 11820,
        "name": "Hamburg Director"
      },
      {
        "type": 56,
        "frequency": 13425,
        "name": "Bremen Radar"
      }
    ],
    "elevation": 53,
    "tower": true,
    "name": "Hamburg - Fuhlsbuettel",
    "runways": [
      {
        "type": 100,
        "width": 46.02,
        "surfaceType": null,
        "numberStart": "05",
        "numberEnd": "23",
        "latStart": 53.61823179,
        "lonStart": 9.9637106,
        "latEnd": 53.63690839,
        "lonEnd": 10.0015102,
        "length": 0,
        "surfacetype": 1
      },
      {
        "type": 100,
        "width": 46.02,
        "surfaceType": null,
        "numberStart": "15",
        "numberEnd": "33",
        "latStart": 53.6544132,
        "lonStart": 9.9752118,
        "latEnd": 53.62510683,
        "lonEnd": 10.00050753,
        "length": 0,
        "surfacetype": 1
      },
      {
        "type": 102,
        "width": 31.4,
        "surfaceType": 1,
        "numberStart": "H1",
        "numberEnd": null,
        "latStart": 53.62556028,
        "lonStart": 9.98460706,
        "latEnd": null,
        "lonEnd": null,
        "length": 31.4
      },
      {
        "type": 102,
        "width": 29,
        "surfaceType": 1,
        "numberStart": "H2",
        "numberEnd": null,
        "latStart": 53.62692979,
        "lonStart": 10.00126195,
        "latEnd": null,
        "lonEnd": null,
        "length": 28
      },
      {
        "type": 102,
        "width": 7,
        "surfaceType": 1,
        "numberStart": "H3",
        "numberEnd": null,
        "latStart": 53.62435115,
        "lonStart": 9.99692418,
        "latEnd": null,
        "lonEnd": null,
        "length": 7
      },
      {
        "type": 102,
        "width": 7,
        "surfaceType": 1,
        "numberStart": "H4",
        "numberEnd": null,
        "latStart": 53.62414146,
        "lonStart": 9.99698683,
        "latEnd": null,
        "lonEnd": null,
        "length": 7
      }
    ],
    "id": 1056
  },
  {
    "type": 1,
    "icao": "EDHE",
    "lat": 53.64794771666667,
    "lon": 9.705961330000001,
    "communications": [
      {
        "type": 50,
        "frequency": 12510,
        "name": "AWOS 3"
      },
      {
        "type": 54,
        "frequency": 12270,
        "name": "TWR"
      }
    ],
    "elevation": 21,
    "tower": true,
    "name": "Uetersen",
    "runways": [
      {
        "type": 100,
        "width": 55,
        "surfaceType": null,
        "numberStart": "09",
        "numberEnd": "27",
        "latStart": 53.646914,
        "lonStart": 9.69510918,
        "latEnd": 53.646215,
        "lonEnd": 9.711922,
        "length": 0,
        "surfacetype": 3
      },
      {
        "type": 102,
        "width": 14.8,
        "surfaceType": 1,
        "numberStart": "H22",
        "numberEnd": null,
        "latStart": 53.65071415,
        "lonStart": 9.71085281,
        "latEnd": null,
        "lonEnd": null,
        "length": 14.3
      }
    ],
    "id": 1130
  },
  {
    "type": 1,
    "icao": "EDHF",
    "lat": 53.99210650857143,
    "lon": 9.575291712857142,
    "communications": [
      {
        "type": 54,
        "frequency": 12337,
        "name": "Hungriger Wolf Info"
      }
    ],
    "elevation": 51,
    "tower": true,
    "name": "Itzehoe Hungriger Wolf",
    "runways": [
      {
        "type": 100,
        "width": 29.87,
        "surfaceType": null,
        "numberStart": "03",
        "numberEnd": "21",
        "latStart": 53.99248645,
        "lonStart": 9.5767925,
        "latEnd": 53.99651355,
        "lonEnd": 9.58020799,
        "length": 0,
        "surfacetype": 2
      },
      {
        "type": 100,
        "width": 29.87,
        "surfaceType": null,
        "numberStart": "02",
        "numberEnd": "20",
        "latStart": 53.98801341,
        "lonStart": 9.57300352,
        "latEnd": 53.99204018,
        "lonEnd": 9.57641886,
        "length": 0,
        "surfacetype": 3
      },
      {
        "type": 100,
        "width": 29.87,
        "surfaceType": null,
        "numberStart": "09",
        "numberEnd": "27",
        "latStart": 53.99127735,
        "lonStart": 9.56725849,
        "latEnd": 53.99122175,
        "lonEnd": 9.57809557,
        "length": 0,
        "surfacetype": 3
      },
      {
        "type": 102,
        "width": 50,
        "surfaceType": 2,
        "numberStart": "H",
        "numberEnd": null,
        "latStart": 53.99319287,
        "lonStart": 9.57526506,
        "latEnd": null,
        "lonEnd": null,
        "length": 50
      }
    ],
    "id": 1131
  },
  {
    "type": 1,
    "icao": "EDHI",
    "lat": 53.533993190000004,
    "lon": 9.832848875,
    "communications": [
      {
        "type": 50,
        "frequency": 12312,
        "name": "Finkenwerder ATIS"
      },
      {
        "type": 54,
        "frequency": 12510,
        "name": "BREMEN INFO"
      },
      {
        "type": 54,
        "frequency": 12325,
        "name": "Finkenwerder Tower"
      },
      {
        "type": 55,
        "frequency": 12422,
        "name": "BREMEN RADAR"
      },
      {
        "type": 55,
        "frequency": 13425,
        "name": "BREMEN RADAR"
      }
    ],
    "elevation": 20,
    "tower": true,
    "name": "Hamburg Finkenwerder",
    "runways": [
      {
        "type": 100,
        "width": 45.11,
        "surfaceType": null,
        "numberStart": "05",
        "numberEnd": "23",
        "latStart": 53.52489537,
        "lonStart": 9.81343861,
        "latEnd": 53.54309101,
        "lonEnd": 9.85225914,
        "length": 0,
        "surfacetype": 1
      }
    ],
    "id": 1133
  },
  {
    "type": 1,
    "icao": "EDHO",
    "lat": 53.700088,
    "lon": 9.7415755,
    "communications": [
      {
        "type": 54,
        "frequency": 12260,
        "name": "Ahrenlohe INFO"
      }
    ],
    "elevation": 33,
    "tower": true,
    "name": "Ahrenlohe",
    "runways": [
      {
        "type": 100,
        "width": 14.94,
        "surfaceType": null,
        "numberStart": "05",
        "numberEnd": "23",
        "latStart": 53.69858,
        "lonStart": 9.737809,
        "latEnd": 53.701596,
        "lonEnd": 9.745342,
        "length": 0,
        "surfacetype": 1
      }
    ],
    "id": 1138
  },
  {
    "type": 1,
    "icao": "EDHS",
    "lat": 53.561310926666664,
    "lon": 9.497245299999998,
    "communications": [
      {
        "type": 54,
        "frequency": 12300,
        "name": "Stade Info"
      }
    ],
    "elevation": 62,
    "tower": true,
    "name": "Stade",
    "runways": [
      {
        "type": 100,
        "width": 17,
        "surfaceType": null,
        "numberStart": "10",
        "numberEnd": "28",
        "latStart": 53.562124,
        "lonStart": 9.494439,
        "latEnd": 53.559858,
        "lonEnd": 9.504912,
        "length": 0,
        "surfacetype": 1
      },
      {
        "type": 102,
        "width": 10.7,
        "surfaceType": 1,
        "numberStart": "H8",
        "numberEnd": null,
        "latStart": 53.56195078,
        "lonStart": 9.4923849,
        "latEnd": null,
        "lonEnd": null,
        "length": 11.3
      }
    ],
    "id": 1140
  },
  {
    "type": 1,
    "icao": "EDHU",
    "lat": 53.207699,
    "lon": 9.573631,
    "communications": [
      {
        "type": 51,
        "frequency": 12365,
        "name": "Lauenbrueck Info"
      }
    ],
    "elevation": 98,
    "tower": true,
    "name": "Lauenbrueck",
    "runways": [
      {
        "type": 100,
        "width": 40,
        "surfaceType": null,
        "numberStart": "12",
        "numberEnd": "30",
        "latStart": 53.208659,
        "lonStart": 9.569444,
        "latEnd": 53.206739,
        "lonEnd": 9.577818,
        "length": 0,
        "surfacetype": 3
      }
    ],
    "id": 1141
  },
  {
    "type": 1,
    "icao": "EDWK",
    "lat": 53.33276295,
    "lon": 9.02870473,
    "communications": [
      {
        "type": 54,
        "frequency": 11892,
        "name": "Karlshoefen Info"
      }
    ],
    "elevation": 20,
    "tower": false,
    "name": "Karlshoefen",
    "runways": [
      {
        "type": 100,
        "width": 14.94,
        "surfaceType": null,
        "numberStart": "12",
        "numberEnd": "30",
        "latStart": 53.33404842,
        "lonStart": 9.02397815,
        "latEnd": 53.33147748,
        "lonEnd": 9.03343131,
        "length": 0,
        "surfacetype": 1
      }
    ],
    "id": 1398
  },
  {
    "type": 1,
    "icao": "EDWM",
    "lat": 53.053861,
    "lon": 9.2085925,
    "communications": [
      {
        "type": 51,
        "frequency": 12260,
        "name": "Weser-Wuemme Info"
      }
    ],
    "elevation": 59,
    "tower": true,
    "name": "Weser-Wuemme",
    "runways": [
      {
        "type": 100,
        "width": 29.87,
        "surfaceType": null,
        "numberStart": "18",
        "numberEnd": "36",
        "latStart": 53.057328,
        "lonStart": 9.208245,
        "latEnd": 53.050394,
        "lonEnd": 9.20894,
        "length": 0,
        "surfacetype": 3
      }
    ],
    "id": 1400
  },
  {
    "type": 1,
    "icao": "EDXM",
    "lat": 53.9782705,
    "lon": 9.1453705,
    "communications": [
      {
        "type": 54,
        "frequency": 12250,
        "name": "St. Michel INFO"
      }
    ],
    "elevation": 124,
    "tower": true,
    "name": "Sankt Michaelisdonn",
    "runways": [
      {
        "type": 100,
        "width": 17.98,
        "surfaceType": null,
        "numberStart": "08",
        "numberEnd": "26",
        "latStart": 53.977794,
        "lonStart": 9.140109,
        "latEnd": 53.978747,
        "lonEnd": 9.150632,
        "length": 0,
        "surfacetype": 1
      }
    ],
    "id": 1433
  },
  {
    "type": 1,
    "icao": "EDXQ",
    "lat": 53.129007068,
    "lon": 9.350381026,
    "communications": [
      {
        "type": 54,
        "frequency": 12205,
        "name": "Wuemme Info"
      }
    ],
    "elevation": 97,
    "tower": true,
    "name": "Rotenburg Wuemme",
    "runways": [
      {
        "type": 100,
        "width": 29.87,
        "surfaceType": null,
        "numberStart": "08",
        "numberEnd": "26",
        "latStart": 53.127686,
        "lonStart": 9.342739,
        "latEnd": 53.129031,
        "lonEnd": 9.35448,
        "length": 0,
        "surfacetype": 1
      },
      {
        "type": 100,
        "width": 30,
        "surfaceType": null,
        "numberStart": "07",
        "numberEnd": "25",
        "latStart": 53.12838389,
        "lonStart": 9.34363612,
        "latEnd": 53.12955199,
        "lonEnd": 9.35404389,
        "length": 0,
        "surfacetype": 3
      },
      {
        "type": 102,
        "width": 44.8,
        "surfaceType": 2,
        "numberStart": "H1",
        "numberEnd": null,
        "latStart": 53.13038246,
        "lonStart": 9.35700612,
        "latEnd": null,
        "lonEnd": null,
        "length": 44.4
      }
    ],
    "id": 1437
  },
  {
    "type": 1,
    "icao": "EDXS",
    "lat": 53.335389230000004,
    "lon": 9.259955000000001,
    "communications": [
      {
        "type": 54,
        "frequency": 11965,
        "name": "Seedorf Info"
      }
    ],
    "elevation": 71,
    "tower": true,
    "name": "Seedorf",
    "runways": [
      {
        "type": 100,
        "width": 29.87,
        "surfaceType": null,
        "numberStart": "06",
        "numberEnd": "24",
        "latStart": 53.33436446,
        "lonStart": 9.257094,
        "latEnd": 53.336414,
        "lonEnd": 9.262816,
        "length": 0,
        "surfacetype": 3
      }
    ],
    "id": 1439
  }
]