[
  {
    "type": 1,
    "icao": "NSTU",
    "lat": -14.3301302025,
    "lon": -170.7103223125,
    "communications": [
      {
        "type": 50,
        "frequency": 12792,
        "name": "AWOS"
      },
      {
        "type": 51,
        "frequency": 12290,
        "name": "CTAF"
      },
      {
        "type": 51,
        "frequency": 11830,
        "name": "UNICOM"
      },
      {
        "type": 55,
        "frequency": 12690,
        "name": "FALEOLO APP/DEP"
      }
    ],
    "elevation": 0,
    "tower": true,
    "name": "Pago Pago",
    "runways": [
      {
        "type": 100,
        "width": 46.02,
        "surfaceType": null,
        "numberStart": "05",
        "numberEnd": "23",
        "latStart": -14.34052764,
        "lonStart": -170.72526723,
        "latEnd": -14.32681586,
        "lonEnd": -170.70075467,
        "length": 0,
        "surfacetype": 1
      },
      {
        "type": 100,
        "width": 29.87,
        "surfaceType": null,
        "numberStart": "08",
        "numberEnd": "26",
        "latStart": -14.32670585,
        "lonStart": -170.71301728,
        "latEnd": -14.32647146,
        "lonEnd": -170.70225007,
        "length": 0,
        "surfacetype": 1
      }
    ],
    "id": 4194
  }
]