[
  {
    "type": 1,
    "icao": "PHLU",
    "lat": 21.21106753,
    "lon": -67.88212326,
    "communications": [
      {
        "type": 51,
        "frequency": 12290,
        "name": "CTAF"
      }
    ],
    "elevation": 23,
    "tower": false,
    "name": "Kalaupapa",
    "runways": [
      {
        "type": 100,
        "width": 22.86,
        "surfaceType": null,
        "numberStart": "05",
        "numberEnd": "23",
        "latStart": 21.20927782,
        "lonStart": -156.97710376,
        "latEnd": 21.21285724,
        "lonEnd": -156.97009651,
        "length": 0,
        "surfacetype": 1
      }
    ],
    "id": 13551
  },
  {
    "type": 1,
    "icao": "PHMK",
    "lat": 21.152925575,
    "lon": -67.97353033750001,
    "communications": [
      {
        "type": 50,
        "frequency": 12820,
        "name": "ATIS"
      },
      {
        "type": 51,
        "frequency": 12570,
        "name": "CTAF"
      },
      {
        "type": 53,
        "frequency": 12190,
        "name": "GND"
      },
      {
        "type": 54,
        "frequency": 12570,
        "name": "TWR"
      }
    ],
    "elevation": 454,
    "tower": true,
    "name": "MOLOKAI",
    "runways": [
      {
        "type": 100,
        "width": 30.48,
        "surfaceType": null,
        "numberStart": "05",
        "numberEnd": "23",
        "latStart": 21.14961634,
        "lonStart": -157.10111033,
        "latEnd": 21.15574766,
        "lonEnd": -157.08962632,
        "length": 0,
        "surfacetype": 1
      },
      {
        "type": 100,
        "width": 30.48,
        "surfaceType": null,
        "numberStart": "17",
        "numberEnd": "35",
        "latStart": 21.1574573,
        "lonStart": -157.09763968,
        "latEnd": 21.148881,
        "lonEnd": -157.09762367,
        "length": 0,
        "surfacetype": 1
      }
    ],
    "id": 16178
  },
  {
    "type": 16,
    "icao": "QPAP",
    "lat": 21.21974,
    "lon": -67.88411448,
    "communications": [],
    "elevation": 0,
    "tower": false,
    "name": "[S] Kalaupapa Harbor",
    "runways": [
      {
        "type": 101,
        "width": 914.4,
        "surfaceType": null,
        "numberStart": "18",
        "numberEnd": "36",
        "latStart": 21.22522596,
        "lonStart": -156.982483,
        "latEnd": 21.21425404,
        "lonEnd": -156.982483,
        "length": 0
      }
    ],
    "id": 34195
  }
]