[
  {
    "type": 17,
    "icao": "62L",
    "lat": 34.10334249,
    "lon": -118.28257556,
    "communications": [],
    "elevation": 420,
    "tower": false,
    "name": "[H] ABC TV",
    "runways": [
      {
        "type": 102,
        "width": 19.8,
        "surfaceType": 1,
        "numberStart": "H1",
        "numberEnd": null,
        "latStart": 34.10334249,
        "lonStart": -118.28257556,
        "latEnd": null,
        "lonEnd": null,
        "length": 19.8
      }
    ],
    "id": 27968
  },
  {
    "type": 17,
    "icao": "CL10",
    "lat": 34.04167416,
    "lon": -118.85314723,
    "communications": [],
    "elevation": 625,
    "tower": false,
    "name": "[H] Anacapa View Estates",
    "runways": [
      {
        "type": 102,
        "width": 19.8,
        "surfaceType": 3,
        "numberStart": "H1",
        "numberEnd": null,
        "latStart": 34.04167416,
        "lonStart": -118.85314723,
        "latEnd": null,
        "lonEnd": null,
        "length": 19.8
      }
    ],
    "id": 28134
  },
  {
    "type": 17,
    "icao": "CL40",
    "lat": 34.64748694,
    "lon": -118.14562834,
    "communications": [],
    "elevation": 2520,
    "tower": false,
    "name": "[H] Antelope Valley Service Center",
    "runways": [
      {
        "type": 102,
        "width": 6.1,
        "surfaceType": 1,
        "numberStart": "H1",
        "numberEnd": null,
        "latStart": 34.64748694,
        "lonStart": -118.14562834,
        "latEnd": null,
        "lonEnd": null,
        "length": 6.1
      }
    ],
    "id": 28151
  },
  {
    "type": 17,
    "icao": "51L",
    "lat": 34.05140083,
    "lon": -118.25701834,
    "communications": [],
    "elevation": 979,
    "tower": false,
    "name": "[H] Arco Plaza",
    "runways": [
      {
        "type": 102,
        "width": 18.3,
        "surfaceType": 1,
        "numberStart": "H1",
        "numberEnd": null,
        "latStart": 34.05140083,
        "lonStart": -118.25701834,
        "latEnd": null,
        "lonEnd": null,
        "length": 24.4
      }
    ],
    "id": 28170
  },
  {
    "type": 17,
    "icao": "62CA",
    "lat": 34.06223361,
    "lon": -118.25090723,
    "communications": [],
    "elevation": 438,
    "tower": false,
    "name": "[H] B of As Data Center",
    "runways": [
      {
        "type": 102,
        "width": 19.8,
        "surfaceType": 2,
        "numberStart": "H1",
        "numberEnd": null,
        "latStart": 34.06223361,
        "lonStart": -118.25090723,
        "latEnd": null,
        "lonEnd": null,
        "length": 19.8
      }
    ],
    "id": 28257
  },
  {
    "type": 17,
    "icao": "CL19",
    "lat": 34.15556277,
    "lon": -118.25646417,
    "communications": [],
    "elevation": 560,
    "tower": false,
    "name": "[H] Bank of America Glendale",
    "runways": [
      {
        "type": 102,
        "width": 19.8,
        "surfaceType": 2,
        "numberStart": "H1",
        "numberEnd": null,
        "latStart": 34.15556277,
        "lonStart": -118.25646417,
        "latEnd": null,
        "lonEnd": null,
        "length": 19.8
      }
    ],
    "id": 28315
  },
  {
    "type": 17,
    "icao": "84CA",
    "lat": 34.07389833,
    "lon": -118.37730001,
    "communications": [],
    "elevation": 276,
    "tower": false,
    "name": "[H] Beverly Center",
    "runways": [
      {
        "type": 102,
        "width": 15.2,
        "surfaceType": 2,
        "numberStart": "H1",
        "numberEnd": null,
        "latStart": 34.07389833,
        "lonStart": -118.37730001,
        "latEnd": null,
        "lonEnd": null,
        "length": 15.2
      }
    ],
    "id": 28455
  },
  {
    "type": 17,
    "icao": "CL08",
    "lat": 34.04917861,
    "lon": -118.25340723,
    "communications": [],
    "elevation": 441,
    "tower": false,
    "name": "[H] Biltmore Hotel",
    "runways": [
      {
        "type": 102,
        "width": 8.5,
        "surfaceType": 2,
        "numberStart": "H1",
        "numberEnd": null,
        "latStart": 34.04917861,
        "lonStart": -118.25340723,
        "latEnd": null,
        "lonEnd": null,
        "length": 15.5
      }
    ],
    "id": 28473
  },
  {
    "type": 17,
    "icao": "9CA5",
    "lat": 34.04029027,
    "lon": -118.25618528,
    "communications": [],
    "elevation": 434,
    "tower": false,
    "name": "[H] California Mart",
    "runways": [
      {
        "type": 102,
        "width": 26.5,
        "surfaceType": 2,
        "numberStart": "H1",
        "numberEnd": null,
        "latStart": 34.04029027,
        "lonStart": -118.25618528,
        "latEnd": null,
        "lonEnd": null,
        "length": 56.4
      }
    ],
    "id": 28715
  },
  {
    "type": 17,
    "icao": "1CA5",
    "lat": 34.12389694,
    "lon": -118.15062639,
    "communications": [],
    "elevation": 808,
    "tower": false,
    "name": "[H] California Title Building",
    "runways": [
      {
        "type": 102,
        "width": 11,
        "surfaceType": 2,
        "numberStart": "H1",
        "numberEnd": null,
        "latStart": 34.12389694,
        "lonStart": -118.15062639,
        "latEnd": null,
        "lonEnd": null,
        "length": 11
      }
    ],
    "id": 28716
  },
  {
    "type": 17,
    "icao": "CL59",
    "lat": 34.43832833,
    "lon": -118.28757806,
    "communications": [],
    "elevation": 2220,
    "tower": false,
    "name": "[H] Camp 11",
    "runways": [
      {
        "type": 102,
        "width": 6.1,
        "surfaceType": 2,
        "numberStart": "H1",
        "numberEnd": null,
        "latStart": 34.43832833,
        "lonStart": -118.28757806,
        "latEnd": null,
        "lonEnd": null,
        "length": 6.1
      }
    ],
    "id": 28725
  },
  {
    "type": 17,
    "icao": "CL78",
    "lat": 34.56610083,
    "lon": -118.47674945,
    "communications": [],
    "elevation": 1870,
    "tower": false,
    "name": "[H] Camp 14",
    "runways": [
      {
        "type": 102,
        "width": 9.1,
        "surfaceType": 2,
        "numberStart": "H1",
        "numberEnd": null,
        "latStart": 34.56610083,
        "lonStart": -118.47674945,
        "latEnd": null,
        "lonEnd": null,
        "length": 9.1
      }
    ],
    "id": 28726
  },
  {
    "type": 17,
    "icao": "CL81",
    "lat": 34.28944555,
    "lon": -118.28813251,
    "communications": [],
    "elevation": 1520,
    "tower": false,
    "name": "[H] Camp 15",
    "runways": [
      {
        "type": 102,
        "width": 30.5,
        "surfaceType": 3,
        "numberStart": "H1",
        "numberEnd": null,
        "latStart": 34.28944555,
        "lonStart": -118.28813251,
        "latEnd": null,
        "lonEnd": null,
        "length": 30.5
      }
    ],
    "id": 28727
  },
  {
    "type": 17,
    "icao": "CL66",
    "lat": 34.19722722,
    "lon": -118.17396167,
    "communications": [],
    "elevation": 1120,
    "tower": false,
    "name": "[H] Camp 2",
    "runways": [
      {
        "type": 102,
        "width": 6.1,
        "surfaceType": 2,
        "numberStart": "H1",
        "numberEnd": null,
        "latStart": 34.19722722,
        "lonStart": -118.17396167,
        "latEnd": null,
        "lonEnd": null,
        "length": 6.1
      }
    ],
    "id": 28728
  },
  {
    "type": 17,
    "icao": "CL72",
    "lat": 34.06195166,
    "lon": -118.64702917,
    "communications": [],
    "elevation": 1523,
    "tower": false,
    "name": "[H] Camp 8",
    "runways": [
      {
        "type": 102,
        "width": 6.1,
        "surfaceType": 2,
        "numberStart": "H1",
        "numberEnd": null,
        "latStart": 34.06195166,
        "lonStart": -118.64702917,
        "latEnd": null,
        "lonEnd": null,
        "length": 18.3
      }
    ],
    "id": 28729
  },
  {
    "type": 17,
    "icao": "CL63",
    "lat": 34.51722222,
    "lon": -118.59944445,
    "communications": [],
    "elevation": 1520,
    "tower": false,
    "name": "[H] Castaic Dam",
    "runways": [
      {
        "type": 102,
        "width": 18.3,
        "surfaceType": 1,
        "numberStart": "H1",
        "numberEnd": null,
        "latStart": 34.51722222,
        "lonStart": -118.59944445,
        "latEnd": null,
        "lonEnd": null,
        "length": 18.3
      }
    ],
    "id": 28809
  },
  {
    "type": 17,
    "icao": "CA46",
    "lat": 34.0833425,
    "lon": -118.37591112,
    "communications": [],
    "elevation": 165,
    "tower": false,
    "name": "[H] Cedars-Sinai Medical Center",
    "runways": [
      {
        "type": 102,
        "width": 19.8,
        "surfaceType": 1,
        "numberStart": "H1",
        "numberEnd": null,
        "latStart": 34.0833425,
        "lonStart": -118.37591112,
        "latEnd": null,
        "lonEnd": null,
        "length": 19.8
      }
    ],
    "id": 28826
  },
  {
    "type": 17,
    "icao": "70L",
    "lat": 34.06084277,
    "lon": -118.41757917,
    "communications": [],
    "elevation": 473,
    "tower": false,
    "name": "[H] Century City",
    "runways": [
      {
        "type": 102,
        "width": 15.2,
        "surfaceType": 2,
        "numberStart": "H1",
        "numberEnd": null,
        "latStart": 34.06084277,
        "lonStart": -118.41757917,
        "latEnd": null,
        "lonEnd": null,
        "length": 30.5
      }
    ],
    "id": 28862
  },
  {
    "type": 17,
    "icao": "3CL5",
    "lat": 34.03723472,
    "lon": -118.25812973,
    "communications": [],
    "elevation": 412,
    "tower": false,
    "name": "[H] Chase Plaza",
    "runways": [
      {
        "type": 102,
        "width": 15.2,
        "surfaceType": 1,
        "numberStart": "H1",
        "numberEnd": null,
        "latStart": 34.03723472,
        "lonStart": -118.25812973,
        "latEnd": null,
        "lonEnd": null,
        "length": 15.2
      }
    ],
    "id": 28899
  },
  {
    "type": 17,
    "icao": "65L",
    "lat": 34.09612055,
    "lon": -118.29035278,
    "communications": [],
    "elevation": 500,
    "tower": false,
    "name": "[H] Childrens Hospital Los Angeles",
    "runways": [
      {
        "type": 102,
        "width": 15.2,
        "surfaceType": 2,
        "numberStart": "H1",
        "numberEnd": null,
        "latStart": 34.09612055,
        "lonStart": -118.29035278,
        "latEnd": null,
        "lonEnd": null,
        "length": 15.2
      }
    ],
    "id": 28933
  },
  {
    "type": 17,
    "icao": "59L",
    "lat": 34.05417833,
    "lon": -118.24257389,
    "communications": [],
    "elevation": 358,
    "tower": false,
    "name": "[H] City Hall",
    "runways": [
      {
        "type": 102,
        "width": 15.2,
        "surfaceType": 2,
        "numberStart": "H1",
        "numberEnd": null,
        "latStart": 34.05417833,
        "lonStart": -118.24257389,
        "latEnd": null,
        "lonEnd": null,
        "length": 15.2
      }
    ],
    "id": 28971
  },
  {
    "type": 17,
    "icao": "4CA1",
    "lat": 34.04778972,
    "lon": -118.25451834,
    "communications": [],
    "elevation": 453,
    "tower": false,
    "name": "[H] City National Bank",
    "runways": [
      {
        "type": 102,
        "width": 18.3,
        "surfaceType": 2,
        "numberStart": "H1",
        "numberEnd": null,
        "latStart": 34.04778972,
        "lonStart": -118.25451834,
        "latEnd": null,
        "lonEnd": null,
        "length": 18.3
      }
    ],
    "id": 28975
  },
  {
    "type": 17,
    "icao": "14L",
    "lat": 34.25694722,
    "lon": -118.53147528,
    "communications": [],
    "elevation": 1012,
    "tower": false,
    "name": "[H] Devonshire Area",
    "runways": [
      {
        "type": 102,
        "width": 12.2,
        "surfaceType": 2,
        "numberStart": "H1",
        "numberEnd": null,
        "latStart": 34.25694722,
        "lonStart": -118.53147528,
        "latEnd": null,
        "lonEnd": null,
        "length": 15.2
      }
    ],
    "id": 29335
  },
  {
    "type": 17,
    "icao": "CL31",
    "lat": 34.05195638,
    "lon": -118.24479612,
    "communications": [],
    "elevation": 340,
    "tower": false,
    "name": "[H] District 07 Helistop",
    "runways": [
      {
        "type": 102,
        "width": 19.8,
        "surfaceType": 2,
        "numberStart": "H1",
        "numberEnd": null,
        "latStart": 34.05195638,
        "lonStart": -118.24479612,
        "latEnd": null,
        "lonEnd": null,
        "length": 19.8
      }
    ],
    "id": 29365
  },
  {
    "type": 17,
    "icao": "6CA4",
    "lat": 34.24667055,
    "lon": -118.83537223,
    "communications": [],
    "elevation": 916,
    "tower": false,
    "name": "[H] East Valley Sheriffs Station",
    "runways": [
      {
        "type": 102,
        "width": 13.7,
        "surfaceType": 2,
        "numberStart": "H1",
        "numberEnd": null,
        "latStart": 34.24667055,
        "lonStart": -118.83537223,
        "latEnd": null,
        "lonEnd": null,
        "length": 13.7
      }
    ],
    "id": 29459
  },
  {
    "type": 17,
    "icao": "60L",
    "lat": 34.12667388,
    "lon": -118.40702389,
    "communications": [],
    "elevation": 1125,
    "tower": false,
    "name": "[H] Engine Co Nr 108",
    "runways": [
      {
        "type": 102,
        "width": 15.2,
        "surfaceType": 1,
        "numberStart": "H1",
        "numberEnd": null,
        "latStart": 34.12667388,
        "lonStart": -118.40702389,
        "latEnd": null,
        "lonEnd": null,
        "length": 15.2
      }
    ],
    "id": 29553
  },
  {
    "type": 17,
    "icao": "61L",
    "lat": 34.13083972,
    "lon": -118.49063778,
    "communications": [],
    "elevation": 1375,
    "tower": false,
    "name": "[H] Engine Co Nr 109",
    "runways": [
      {
        "type": 102,
        "width": 30.5,
        "surfaceType": 1,
        "numberStart": "H1",
        "numberEnd": null,
        "latStart": 34.13083972,
        "lonStart": -118.49063778,
        "latEnd": null,
        "lonEnd": null,
        "length": 30.5
      }
    ],
    "id": 29554
  },
  {
    "type": 17,
    "icao": "98CA",
    "lat": 34.04473194,
    "lon": -118.44480139,
    "communications": [],
    "elevation": 245,
    "tower": false,
    "name": "[H] Everest & Jennings Helistop Nr 1",
    "runways": [
      {
        "type": 102,
        "width": 19.8,
        "surfaceType": 1,
        "numberStart": "H1",
        "numberEnd": null,
        "latStart": 34.04473194,
        "lonStart": -118.44480139,
        "latEnd": null,
        "lonEnd": null,
        "length": 19.8
      }
    ],
    "id": 29598
  },
  {
    "type": 17,
    "icao": "CL32",
    "lat": 34.05362277,
    "lon": -118.26451862,
    "communications": [],
    "elevation": 430,
    "tower": false,
    "name": "[H] FIB Administration & Operations Buildi",
    "runways": [
      {
        "type": 102,
        "width": 16.1,
        "surfaceType": 2,
        "numberStart": "H1",
        "numberEnd": null,
        "latStart": 34.05362277,
        "lonStart": -118.26451862,
        "latEnd": null,
        "lonEnd": null,
        "length": 19.8
      }
    ],
    "id": 29619
  },
  {
    "type": 17,
    "icao": "CL34",
    "lat": 34.26861388,
    "lon": -118.71786834,
    "communications": [],
    "elevation": 974,
    "tower": false,
    "name": "[H] First Interstate Bank",
    "runways": [
      {
        "type": 102,
        "width": 12.2,
        "surfaceType": 1,
        "numberStart": "H1",
        "numberEnd": null,
        "latStart": 34.26861388,
        "lonStart": -118.71786834,
        "latEnd": null,
        "lonEnd": null,
        "length": 12.2
      }
    ],
    "id": 29736
  },
  {
    "type": 17,
    "icao": "0CL4",
    "lat": 34.15722916,
    "lon": -118.25451917,
    "communications": [],
    "elevation": 770,
    "tower": false,
    "name": "[H] Glen Fed",
    "runways": [
      {
        "type": 102,
        "width": 15.2,
        "surfaceType": 2,
        "numberStart": "H1",
        "numberEnd": null,
        "latStart": 34.15722916,
        "lonStart": -118.25451917,
        "latEnd": null,
        "lonEnd": null,
        "length": 15.2
      }
    ],
    "id": 29938
  },
  {
    "type": 17,
    "icao": "CL06",
    "lat": 34.15167388,
    "lon": -118.23007445,
    "communications": [],
    "elevation": 715,
    "tower": false,
    "name": "[H] Glendale Adventist Medical Center GAMC",
    "runways": [
      {
        "type": 102,
        "width": 12.8,
        "surfaceType": 2,
        "numberStart": "H1",
        "numberEnd": null,
        "latStart": 34.15167388,
        "lonStart": -118.23007445,
        "latEnd": null,
        "lonEnd": null,
        "length": 12.8
      }
    ],
    "id": 29941
  },
  {
    "type": 17,
    "icao": "0CL7",
    "lat": 34.05445611,
    "lon": -118.26507473,
    "communications": [],
    "elevation": 473,
    "tower": false,
    "name": "[H] Good Samritan",
    "runways": [
      {
        "type": 102,
        "width": 19.8,
        "surfaceType": 2,
        "numberStart": "H1",
        "numberEnd": null,
        "latStart": 34.05445611,
        "lonStart": -118.26507473,
        "latEnd": null,
        "lonEnd": null,
        "length": 19.8
      }
    ],
    "id": 29967
  },
  {
    "type": 17,
    "icao": "CL26",
    "lat": 34.23861444,
    "lon": -118.56564223,
    "communications": [],
    "elevation": 1018,
    "tower": false,
    "name": "[H] Great Western Helistop",
    "runways": [
      {
        "type": 102,
        "width": 15.9,
        "surfaceType": 2,
        "numberStart": "H1",
        "numberEnd": null,
        "latStart": 34.23861444,
        "lonStart": -118.56564223,
        "latEnd": null,
        "lonEnd": null,
        "length": 15.9
      }
    ],
    "id": 30010
  },
  {
    "type": 17,
    "icao": "19CA",
    "lat": 34.39860805,
    "lon": -118.55258639,
    "communications": [],
    "elevation": 1200,
    "tower": false,
    "name": "[H] Henry Mayo Newhall Memorial Hospital",
    "runways": [
      {
        "type": 102,
        "width": 25.9,
        "surfaceType": 2,
        "numberStart": "H1",
        "numberEnd": null,
        "latStart": 34.39860805,
        "lonStart": -118.55258639,
        "latEnd": null,
        "lonEnd": null,
        "length": 25.9
      }
    ],
    "id": 30218
  },
  {
    "type": 17,
    "icao": "3CA8",
    "lat": 34.27972388,
    "lon": -118.46147306,
    "communications": [],
    "elevation": 1029,
    "tower": false,
    "name": "[H] Holy Cross Medical Center",
    "runways": [
      {
        "type": 102,
        "width": 39.9,
        "surfaceType": 1,
        "numberStart": "H1",
        "numberEnd": null,
        "latStart": 34.27972388,
        "lonStart": -118.46147306,
        "latEnd": null,
        "lonEnd": null,
        "length": 43.3
      },
      {
        "type": 102,
        "width": 19.8,
        "surfaceType": 1,
        "numberStart": "H2",
        "numberEnd": null,
        "latStart": 34.27972388,
        "lonStart": -118.46147306,
        "latEnd": null,
        "lonEnd": null,
        "length": 19.8
      }
    ],
    "id": 30278
  },
  {
    "type": 17,
    "icao": "6CA0",
    "lat": 34.05112305,
    "lon": -118.24257389,
    "communications": [],
    "elevation": 490,
    "tower": false,
    "name": "[H] Hotel New Otani Los Angeles",
    "runways": [
      {
        "type": 102,
        "width": 15.2,
        "surfaceType": 1,
        "numberStart": "H1",
        "numberEnd": null,
        "latStart": 34.05112305,
        "lonStart": -118.24257389,
        "latEnd": null,
        "lonEnd": null,
        "length": 15.2
      }
    ],
    "id": 30381
  },
  {
    "type": 17,
    "icao": "6L6",
    "lat": 34.23750361,
    "lon": -118.62592167,
    "communications": [],
    "elevation": 845,
    "tower": false,
    "name": "[H] Hughes Canoga Park",
    "runways": [
      {
        "type": 102,
        "width": 24.4,
        "surfaceType": 1,
        "numberStart": "H1",
        "numberEnd": null,
        "latStart": 34.23750361,
        "lonStart": -118.62592167,
        "latEnd": null,
        "lonEnd": null,
        "length": 24.4
      }
    ],
    "id": 30409
  },
  {
    "type": 17,
    "icao": "L55",
    "lat": 34.04445166,
    "lon": -118.693975,
    "communications": [],
    "elevation": 455,
    "tower": false,
    "name": "[H] Hughes Malibu",
    "runways": [
      {
        "type": 102,
        "width": 42.7,
        "surfaceType": 1,
        "numberStart": "H1",
        "numberEnd": null,
        "latStart": 34.04445166,
        "lonStart": -118.693975,
        "latEnd": null,
        "lonEnd": null,
        "length": 45.7
      }
    ],
    "id": 30411
  },
  {
    "type": 17,
    "icao": "CL14",
    "lat": 34.13361888,
    "lon": -118.15368251,
    "communications": [],
    "elevation": 854,
    "tower": false,
    "name": "[H] Huntington Memorial-Pasadena",
    "runways": [
      {
        "type": 102,
        "width": 15.2,
        "surfaceType": 2,
        "numberStart": "H1",
        "numberEnd": null,
        "latStart": 34.13361888,
        "lonStart": -118.15368251,
        "latEnd": null,
        "lonEnd": null,
        "length": 15.2
      }
    ],
    "id": 30430
  },
  {
    "type": 17,
    "icao": "CL49",
    "lat": 34.04640083,
    "lon": -118.26257445,
    "communications": [],
    "elevation": 541,
    "tower": false,
    "name": "[H] International Tower",
    "runways": [
      {
        "type": 102,
        "width": 18.9,
        "surfaceType": 2,
        "numberStart": "H1",
        "numberEnd": null,
        "latStart": 34.04640083,
        "lonStart": -118.26257445,
        "latEnd": null,
        "lonEnd": null,
        "length": 19.8
      }
    ],
    "id": 30532
  },
  {
    "type": 17,
    "icao": "3CA6",
    "lat": 34.06251027,
    "lon": -118.35229917,
    "communications": [],
    "elevation": 559,
    "tower": false,
    "name": "[H] J.H. Snyder Co. Iii",
    "runways": [
      {
        "type": 102,
        "width": 19.8,
        "surfaceType": 2,
        "numberStart": "H1",
        "numberEnd": null,
        "latStart": 34.06251027,
        "lonStart": -118.35229917,
        "latEnd": null,
        "lonEnd": null,
        "length": 19.8
      }
    ],
    "id": 30560
  },
  {
    "type": 17,
    "icao": "58CA",
    "lat": 34.05445611,
    "lon": -118.22923945,
    "communications": [],
    "elevation": 353,
    "tower": false,
    "name": "[H] Jay Stephen Hooper Memorial",
    "runways": [
      {
        "type": 102,
        "width": 64,
        "surfaceType": 2,
        "numberStart": "H1",
        "numberEnd": null,
        "latStart": 34.05445611,
        "lonStart": -118.22923945,
        "latEnd": null,
        "lonEnd": null,
        "length": 182.9
      }
    ],
    "id": 30597
  },
  {
    "type": 17,
    "icao": "2CA6",
    "lat": 34.04917861,
    "lon": -118.25924028,
    "communications": [],
    "elevation": 627,
    "tower": false,
    "name": "[H] K & T 660 Figueroa Partners",
    "runways": [
      {
        "type": 102,
        "width": 15.2,
        "surfaceType": 2,
        "numberStart": "H1",
        "numberEnd": null,
        "latStart": 34.04917861,
        "lonStart": -118.25924028,
        "latEnd": null,
        "lonEnd": null,
        "length": 15.2
      }
    ],
    "id": 30660
  },
  {
    "type": 17,
    "icao": "47L",
    "lat": 34.06028916,
    "lon": -118.23035056,
    "communications": [],
    "elevation": 352,
    "tower": false,
    "name": "[H] L A Co Mens Detention Cntr-Main Jail",
    "runways": [
      {
        "type": 102,
        "width": 15.2,
        "surfaceType": 2,
        "numberStart": "H1",
        "numberEnd": null,
        "latStart": 34.06028916,
        "lonStart": -118.23035056,
        "latEnd": null,
        "lonEnd": null,
        "length": 15.2
      }
    ],
    "id": 30775
  },
  {
    "type": 17,
    "icao": "4CA0",
    "lat": 34.04334555,
    "lon": -118.24701806,
    "communications": [],
    "elevation": 300,
    "tower": false,
    "name": "[H] Lapd Hooper",
    "runways": [
      {
        "type": 102,
        "width": 32,
        "surfaceType": 2,
        "numberStart": "H1",
        "numberEnd": null,
        "latStart": 34.04334555,
        "lonStart": -118.24701806,
        "latEnd": null,
        "lonEnd": null,
        "length": 62.5
      }
    ],
    "id": 30841
  },
  {
    "type": 17,
    "icao": "64L",
    "lat": 34.16861611,
    "lon": -118.59453028,
    "communications": [],
    "elevation": 875,
    "tower": false,
    "name": "[H] Litton Industries",
    "runways": [
      {
        "type": 102,
        "width": 91.4,
        "surfaceType": 3,
        "numberStart": "H1",
        "numberEnd": null,
        "latStart": 34.16861611,
        "lonStart": -118.59453028,
        "latEnd": null,
        "lonEnd": null,
        "length": 91.4
      }
    ],
    "id": 30915
  },
  {
    "type": 17,
    "icao": "1CA9",
    "lat": 34.08334,
    "lon": -118.86759362,
    "communications": [],
    "elevation": 1358,
    "tower": false,
    "name": "[H] Los Angeles County Fire Department",
    "runways": [
      {
        "type": 102,
        "width": 18.3,
        "surfaceType": 2,
        "numberStart": "H1",
        "numberEnd": null,
        "latStart": 34.08334,
        "lonStart": -118.86759362,
        "latEnd": null,
        "lonEnd": null,
        "length": 45.7
      }
    ],
    "id": 30940
  },
  {
    "type": 17,
    "icao": "80L",
    "lat": 34.38166416,
    "lon": -118.41452612,
    "communications": [],
    "elevation": 1805,
    "tower": false,
    "name": "[H] Los Angeles County Fire Station Nr 123",
    "runways": [
      {
        "type": 102,
        "width": 15.2,
        "surfaceType": 1,
        "numberStart": "H1",
        "numberEnd": null,
        "latStart": 34.38166416,
        "lonStart": -118.41452612,
        "latEnd": null,
        "lonEnd": null,
        "length": 15.2
      }
    ],
    "id": 30941
  },
  {
    "type": 17,
    "icao": "52L",
    "lat": 34.03778944,
    "lon": -118.15368195,
    "communications": [],
    "elevation": 298,
    "tower": false,
    "name": "[H] Los Angeles County Sheriffs Department",
    "runways": [
      {
        "type": 102,
        "width": 18.3,
        "surfaceType": 1,
        "numberStart": "H1",
        "numberEnd": null,
        "latStart": 34.03778944,
        "lonStart": -118.15368195,
        "latEnd": null,
        "lonEnd": null,
        "length": 18.3
      }
    ],
    "id": 30942
  },
  {
    "type": 17,
    "icao": "CL89",
    "lat": 34.23889222,
    "lon": -118.56925306,
    "communications": [],
    "elevation": 857,
    "tower": false,
    "name": "[H] Los Angeles Times - Northridge",
    "runways": [
      {
        "type": 102,
        "width": 15.2,
        "surfaceType": 2,
        "numberStart": "H1",
        "numberEnd": null,
        "latStart": 34.23889222,
        "lonStart": -118.56925306,
        "latEnd": null,
        "lonEnd": null,
        "length": 15.2
      }
    ],
    "id": 30943
  },
  {
    "type": 17,
    "icao": "56CA",
    "lat": 34.0505675,
    "lon": -118.246185,
    "communications": [],
    "elevation": 345,
    "tower": false,
    "name": "[H] Los Angeles Times-La",
    "runways": [
      {
        "type": 102,
        "width": 22.9,
        "surfaceType": 2,
        "numberStart": "H1",
        "numberEnd": null,
        "latStart": 34.0505675,
        "lonStart": -118.246185,
        "latEnd": null,
        "lonEnd": null,
        "length": 21.3
      }
    ],
    "id": 30944
  },
  {
    "type": 17,
    "icao": "CL82",
    "lat": 34.20764361,
    "lon": -118.88245751,
    "communications": [],
    "elevation": 758,
    "tower": false,
    "name": "[H] Los Robles Regional Medical Center",
    "runways": [
      {
        "type": 102,
        "width": 15.2,
        "surfaceType": 2,
        "numberStart": "H1",
        "numberEnd": null,
        "latStart": 34.20764361,
        "lonStart": -118.88245751,
        "latEnd": null,
        "lonEnd": null,
        "length": 15.2
      }
    ],
    "id": 30945
  },
  {
    "type": 17,
    "icao": "05CA",
    "lat": 34.13777777,
    "lon": -118.71444445,
    "communications": [],
    "elevation": 888,
    "tower": false,
    "name": "[H] Lost Hills Sheriffs Station",
    "runways": [
      {
        "type": 102,
        "width": 23.8,
        "surfaceType": 2,
        "numberStart": "H1",
        "numberEnd": null,
        "latStart": 34.13777777,
        "lonStart": -118.71444445,
        "latEnd": null,
        "lonEnd": null,
        "length": 23.8
      }
    ],
    "id": 30947
  },
  {
    "type": 17,
    "icao": "74L",
    "lat": 34.03722972,
    "lon": -118.68814084,
    "communications": [],
    "elevation": 27,
    "tower": false,
    "name": "[H] Malibu Administrative Center",
    "runways": [
      {
        "type": 102,
        "width": 9.1,
        "surfaceType": 2,
        "numberStart": "H1",
        "numberEnd": null,
        "latStart": 34.03722972,
        "lonStart": -118.68814084,
        "latEnd": null,
        "lonEnd": null,
        "length": 12.2
      }
    ],
    "id": 31054
  },
  {
    "type": 17,
    "icao": "8CA1",
    "lat": 34.30500055,
    "lon": -118.46452806,
    "communications": [],
    "elevation": 1214,
    "tower": false,
    "name": "[H] Merle Norman Cosmetics - Sylmar",
    "runways": [
      {
        "type": 102,
        "width": 30.5,
        "surfaceType": 3,
        "numberStart": "H1",
        "numberEnd": null,
        "latStart": 34.30500055,
        "lonStart": -118.46452806,
        "latEnd": null,
        "lonEnd": null,
        "length": 30.5
      }
    ],
    "id": 31292
  },
  {
    "type": 17,
    "icao": "24CA",
    "lat": 34.20472694,
    "lon": -118.17090556,
    "communications": [],
    "elevation": 1520,
    "tower": false,
    "name": "[H] Mesa",
    "runways": [
      {
        "type": 102,
        "width": 15.2,
        "surfaceType": 1,
        "numberStart": "H1",
        "numberEnd": null,
        "latStart": 34.20472694,
        "lonStart": -118.17090556,
        "latEnd": null,
        "lonEnd": null,
        "length": 15.2
      }
    ],
    "id": 31300
  },
  {
    "type": 17,
    "icao": "4L1",
    "lat": 34.13334027,
    "lon": -118.04256751,
    "communications": [],
    "elevation": 438,
    "tower": false,
    "name": "[H] Methodist Hospital",
    "runways": [
      {
        "type": 102,
        "width": 15.2,
        "surfaceType": 1,
        "numberStart": "H1",
        "numberEnd": null,
        "latStart": 34.13334027,
        "lonStart": -118.04256751,
        "latEnd": null,
        "lonEnd": null,
        "length": 15.2
      }
    ],
    "id": 31307
  },
  {
    "type": 17,
    "icao": "5L9",
    "lat": 34.15361777,
    "lon": -118.33146667,
    "communications": [],
    "elevation": 503,
    "tower": false,
    "name": "[H] Nbc-Tv",
    "runways": [
      {
        "type": 102,
        "width": 30.5,
        "surfaceType": 1,
        "numberStart": "H1",
        "numberEnd": null,
        "latStart": 34.15361777,
        "lonStart": -118.33146667,
        "latEnd": null,
        "lonEnd": null,
        "length": 30.5
      }
    ],
    "id": 31576
  },
  {
    "type": 17,
    "icao": "CA86",
    "lat": 34.22014277,
    "lon": -118.53314084,
    "communications": [],
    "elevation": 862,
    "tower": false,
    "name": "[H] Northridge Hospital",
    "runways": [
      {
        "type": 102,
        "width": 9.1,
        "surfaceType": 1,
        "numberStart": "H1",
        "numberEnd": null,
        "latStart": 34.22014277,
        "lonStart": -118.53314084,
        "latEnd": null,
        "lonEnd": null,
        "length": 9.1
      }
    ],
    "id": 31667
  },
  {
    "type": 17,
    "icao": "58L",
    "lat": 34.05889805,
    "lon": -118.44369084,
    "communications": [],
    "elevation": 507,
    "tower": false,
    "name": "[H] Occidental Petroleum",
    "runways": [
      {
        "type": 102,
        "width": 11,
        "surfaceType": 2,
        "numberStart": "H1",
        "numberEnd": null,
        "latStart": 34.05889805,
        "lonStart": -118.44369084,
        "latEnd": null,
        "lonEnd": null,
        "length": 13.1
      }
    ],
    "id": 31718
  },
  {
    "type": 17,
    "icao": "57L",
    "lat": 34.06195527,
    "lon": -118.29118639,
    "communications": [],
    "elevation": 439,
    "tower": false,
    "name": "[H] Operating Engineers Pension Trust Bldg",
    "runways": [
      {
        "type": 102,
        "width": 12.2,
        "surfaceType": 2,
        "numberStart": "H1",
        "numberEnd": null,
        "latStart": 34.06195527,
        "lonStart": -118.29118639,
        "latEnd": null,
        "lonEnd": null,
        "length": 12.2
      }
    ],
    "id": 31758
  },
  {
    "type": 17,
    "icao": "53L",
    "lat": 34.04445666,
    "lon": -118.24924001,
    "communications": [],
    "elevation": 450,
    "tower": false,
    "name": "[H] Pacific Electric Building",
    "runways": [
      {
        "type": 102,
        "width": 6.1,
        "surfaceType": 1,
        "numberStart": "H1",
        "numberEnd": null,
        "latStart": 34.04445666,
        "lonStart": -118.24924001,
        "latEnd": null,
        "lonEnd": null,
        "length": 8.5
      }
    ],
    "id": 31852
  },
  {
    "type": 17,
    "icao": "45L",
    "lat": 34.05223388,
    "lon": -118.24118501,
    "communications": [],
    "elevation": 450,
    "tower": false,
    "name": "[H] Parker Center",
    "runways": [
      {
        "type": 102,
        "width": 12.2,
        "surfaceType": 1,
        "numberStart": "H1",
        "numberEnd": null,
        "latStart": 34.05223388,
        "lonStart": -118.24118501,
        "latEnd": null,
        "lonEnd": null,
        "length": 15.2
      }
    ],
    "id": 31897
  },
  {
    "type": 17,
    "icao": "2CA7",
    "lat": 34.17556055,
    "lon": -118.59508639,
    "communications": [],
    "elevation": 847,
    "tower": false,
    "name": "[H] Prudential Helistop",
    "runways": [
      {
        "type": 102,
        "width": 18.3,
        "surfaceType": 1,
        "numberStart": "H1",
        "numberEnd": null,
        "latStart": 34.17556055,
        "lonStart": -118.59508639,
        "latEnd": null,
        "lonEnd": null,
        "length": 18.3
      }
    ],
    "id": 32177
  },
  {
    "type": 17,
    "icao": "69L",
    "lat": 34.23361472,
    "lon": -118.58703139,
    "communications": [],
    "elevation": 898,
    "tower": false,
    "name": "[H] R I Ai Canoga Park B 2 Helistop",
    "runways": [
      {
        "type": 102,
        "width": 12.2,
        "surfaceType": 2,
        "numberStart": "H1",
        "numberEnd": null,
        "latStart": 34.23361472,
        "lonStart": -118.58703139,
        "latEnd": null,
        "lonEnd": null,
        "length": 12.2
      }
    ],
    "id": 32214
  },
  {
    "type": 17,
    "icao": "6L7",
    "lat": 34.23472583,
    "lon": -118.58536445,
    "communications": [],
    "elevation": 875,
    "tower": false,
    "name": "[H] R I Ai Canoga Pk G L Helistop",
    "runways": [
      {
        "type": 102,
        "width": 16.8,
        "surfaceType": 1,
        "numberStart": "H1",
        "numberEnd": null,
        "latStart": 34.23472583,
        "lonStart": -118.58536445,
        "latEnd": null,
        "lonEnd": null,
        "length": 16.8
      }
    ],
    "id": 32215
  },
  {
    "type": 17,
    "icao": "72L",
    "lat": 34.18833805,
    "lon": -118.60091973,
    "communications": [],
    "elevation": 798,
    "tower": false,
    "name": "[H] R I Rd Canoga Park G L",
    "runways": [
      {
        "type": 102,
        "width": 24.4,
        "surfaceType": 1,
        "numberStart": "H1",
        "numberEnd": null,
        "latStart": 34.18833805,
        "lonStart": -118.60091973,
        "latEnd": null,
        "lonEnd": null,
        "length": 62.8
      }
    ],
    "id": 32217
  },
  {
    "type": 17,
    "icao": "1CA0",
    "lat": 34.23778138,
    "lon": -118.69620139,
    "communications": [],
    "elevation": 1798,
    "tower": false,
    "name": "[H] R I Santa Susana Helistop",
    "runways": [
      {
        "type": 102,
        "width": 37.8,
        "surfaceType": 1,
        "numberStart": "H1",
        "numberEnd": null,
        "latStart": 34.23778138,
        "lonStart": -118.69620139,
        "latEnd": null,
        "lonEnd": null,
        "length": 44.5
      }
    ],
    "id": 32218
  },
  {
    "type": 17,
    "icao": "1CA8",
    "lat": 34.19722694,
    "lon": -118.90870834,
    "communications": [],
    "elevation": 773,
    "tower": false,
    "name": "[H] R I Science Center Helistop",
    "runways": [
      {
        "type": 102,
        "width": 12.2,
        "surfaceType": 3,
        "numberStart": "H1",
        "numberEnd": null,
        "latStart": 34.19722694,
        "lonStart": -118.90870834,
        "latEnd": null,
        "lonEnd": null,
        "length": 12.2
      }
    ],
    "id": 32219
  },
  {
    "type": 17,
    "icao": "3CL7",
    "lat": 34.03612111,
    "lon": -118.44202362,
    "communications": [],
    "elevation": 200,
    "tower": false,
    "name": "[H] Raleigh Enterprises",
    "runways": [
      {
        "type": 102,
        "width": 15.2,
        "surfaceType": 2,
        "numberStart": "H1",
        "numberEnd": null,
        "latStart": 34.03612111,
        "lonStart": -118.44202362,
        "latEnd": null,
        "lonEnd": null,
        "length": 15.2
      }
    ],
    "id": 32254
  },
  {
    "type": 17,
    "icao": "CL75",
    "lat": 34.05223277,
    "lon": -118.08062362,
    "communications": [],
    "elevation": 312,
    "tower": false,
    "name": "[H] Robert D Cloud",
    "runways": [
      {
        "type": 102,
        "width": 9.8,
        "surfaceType": 1,
        "numberStart": "H1",
        "numberEnd": null,
        "latStart": 34.05223277,
        "lonStart": -118.08062362,
        "latEnd": null,
        "lonEnd": null,
        "length": 9.8
      }
    ],
    "id": 32380
  },
  {
    "type": 17,
    "icao": "9CA9",
    "lat": 34.08084305,
    "lon": -118.14923695,
    "communications": [],
    "elevation": 459,
    "tower": false,
    "name": "[H] Santa Fe International Corp",
    "runways": [
      {
        "type": 102,
        "width": 22.9,
        "surfaceType": 2,
        "numberStart": "H1",
        "numberEnd": null,
        "latStart": 34.08084305,
        "lonStart": -118.14923695,
        "latEnd": null,
        "lonEnd": null,
        "length": 22.9
      }
    ],
    "id": 32559
  },
  {
    "type": 17,
    "icao": "CA08",
    "lat": 34.08389861,
    "lon": -118.144515,
    "communications": [],
    "elevation": 475,
    "tower": false,
    "name": "[H] Sce Energy Control Center",
    "runways": [
      {
        "type": 102,
        "width": 10.7,
        "surfaceType": 1,
        "numberStart": "H1",
        "numberEnd": null,
        "latStart": 34.08389861,
        "lonStart": -118.144515,
        "latEnd": null,
        "lonEnd": null,
        "length": 10.7
      }
    ],
    "id": 32583
  },
  {
    "type": 17,
    "icao": "82CA",
    "lat": 34.27944694,
    "lon": -118.902875,
    "communications": [],
    "elevation": 470,
    "tower": false,
    "name": "[H] Sce Moorpark Substation",
    "runways": [
      {
        "type": 102,
        "width": 6.1,
        "surfaceType": 1,
        "numberStart": "H1",
        "numberEnd": null,
        "latStart": 34.27944694,
        "lonStart": -118.902875,
        "latEnd": null,
        "lonEnd": null,
        "length": 6.1
      }
    ],
    "id": 32584
  },
  {
    "type": 17,
    "icao": "82L",
    "lat": 34.43860638,
    "lon": -118.57925306,
    "communications": [],
    "elevation": 1073,
    "tower": false,
    "name": "[H] Sce Pardee Substation Helistop",
    "runways": [
      {
        "type": 102,
        "width": 6.1,
        "surfaceType": 2,
        "numberStart": "H1",
        "numberEnd": null,
        "latStart": 34.43860638,
        "lonStart": -118.57925306,
        "latEnd": null,
        "lonEnd": null,
        "length": 6.1
      }
    ],
    "id": 32588
  },
  {
    "type": 17,
    "icao": "6CA2",
    "lat": 34.05112166,
    "lon": -118.08173473,
    "communications": [],
    "elevation": 229,
    "tower": false,
    "name": "[H] Sce Rosemead",
    "runways": [
      {
        "type": 102,
        "width": 19.8,
        "surfaceType": 2,
        "numberStart": "H1",
        "numberEnd": null,
        "latStart": 34.05112166,
        "lonStart": -118.08173473,
        "latEnd": null,
        "lonEnd": null,
        "length": 19.8
      }
    ],
    "id": 32591
  },
  {
    "type": 17,
    "icao": "1CL9",
    "lat": 34.00098611,
    "lon": -118.21284945,
    "communications": [],
    "elevation": 229,
    "tower": false,
    "name": "[H] Sfi-Vernon",
    "runways": [
      {
        "type": 102,
        "width": 19.8,
        "surfaceType": 2,
        "numberStart": "H1",
        "numberEnd": null,
        "latStart": 34.00098611,
        "lonStart": -118.21284945,
        "latEnd": null,
        "lonEnd": null,
        "length": 19.8
      }
    ],
    "id": 32653
  },
  {
    "type": 17,
    "icao": "37L",
    "lat": 34.699985,
    "lon": -118.05923667,
    "communications": [],
    "elevation": 2367,
    "tower": false,
    "name": "[H] Sheriffs",
    "runways": [
      {
        "type": 102,
        "width": 29,
        "surfaceType": 2,
        "numberStart": "H1",
        "numberEnd": null,
        "latStart": 34.699985,
        "lonStart": -118.05923667,
        "latEnd": null,
        "lonEnd": null,
        "length": 30.5
      }
    ],
    "id": 32685
  },
  {
    "type": 17,
    "icao": "55L",
    "lat": 34.05862277,
    "lon": -118.24562917,
    "communications": [],
    "elevation": 378,
    "tower": false,
    "name": "[H] Sheriffs Headquarters-Temple & Grand",
    "runways": [
      {
        "type": 102,
        "width": 15.2,
        "surfaceType": 1,
        "numberStart": "H1",
        "numberEnd": null,
        "latStart": 34.05862277,
        "lonStart": -118.24562917,
        "latEnd": null,
        "lonEnd": null,
        "length": 15.2
      }
    ],
    "id": 32688
  },
  {
    "type": 17,
    "icao": "CL22",
    "lat": 34.41610722,
    "lon": -118.55175223,
    "communications": [],
    "elevation": 1200,
    "tower": false,
    "name": "[H] Sheriffs Station",
    "runways": [
      {
        "type": 102,
        "width": 15.2,
        "surfaceType": 2,
        "numberStart": "H1",
        "numberEnd": null,
        "latStart": 34.41610722,
        "lonStart": -118.55175223,
        "latEnd": null,
        "lonEnd": null,
        "length": 15.2
      }
    ],
    "id": 32690
  },
  {
    "type": 17,
    "icao": "81L",
    "lat": 34.46666083,
    "lon": -118.59536445,
    "communications": [],
    "elevation": 1200,
    "tower": false,
    "name": "[H] Sheriffs Wayside",
    "runways": [
      {
        "type": 102,
        "width": 30.5,
        "surfaceType": 3,
        "numberStart": "H1",
        "numberEnd": null,
        "latStart": 34.46666083,
        "lonStart": -118.59536445,
        "latEnd": null,
        "lonEnd": null,
        "length": 30.5
      }
    ],
    "id": 32691
  },
  {
    "type": 17,
    "icao": "CL80",
    "lat": 34.16000583,
    "lon": -118.44952584,
    "communications": [],
    "elevation": 695,
    "tower": false,
    "name": "[H] Sherman Oaks Community Hospital",
    "runways": [
      {
        "type": 102,
        "width": 14.6,
        "surfaceType": 2,
        "numberStart": "H1",
        "numberEnd": null,
        "latStart": 34.16000583,
        "lonStart": -118.44952584,
        "latEnd": null,
        "lonEnd": null,
        "length": 15.9
      }
    ],
    "id": 32695
  },
  {
    "type": 17,
    "icao": "CA95",
    "lat": 34.15556222,
    "lon": -118.32896639,
    "communications": [],
    "elevation": 566,
    "tower": false,
    "name": "[H] St Joseph Medical Center",
    "runways": [
      {
        "type": 102,
        "width": 15.2,
        "surfaceType": 2,
        "numberStart": "H1",
        "numberEnd": null,
        "latStart": 34.15556222,
        "lonStart": -118.32896639,
        "latEnd": null,
        "lonEnd": null,
        "length": 15.2
      }
    ],
    "id": 32926
  },
  {
    "type": 17,
    "icao": "CL12",
    "lat": 34.06389999,
    "lon": -118.27257501,
    "communications": [],
    "elevation": 462,
    "tower": false,
    "name": "[H] St Vincent Professional Office Buildin",
    "runways": [
      {
        "type": 102,
        "width": 21.3,
        "surfaceType": 1,
        "numberStart": "H1",
        "numberEnd": null,
        "latStart": 34.06389999,
        "lonStart": -118.27257501,
        "latEnd": null,
        "lonEnd": null,
        "length": 21.3
      }
    ],
    "id": 33023
  },
  {
    "type": 17,
    "icao": "CL62",
    "lat": 34.15028305,
    "lon": -118.69814362,
    "communications": [],
    "elevation": 850,
    "tower": false,
    "name": "[H] Station 125",
    "runways": [
      {
        "type": 102,
        "width": 15.2,
        "surfaceType": 4,
        "numberStart": "H1",
        "numberEnd": null,
        "latStart": 34.15028305,
        "lonStart": -118.69814362,
        "latEnd": null,
        "lonEnd": null,
        "length": 15.2
      }
    ],
    "id": 33057
  },
  {
    "type": 17,
    "icao": "56L",
    "lat": 34.07778833,
    "lon": -118.25951862,
    "communications": [],
    "elevation": 556,
    "tower": false,
    "name": "[H] Sunset-Glendale",
    "runways": [
      {
        "type": 102,
        "width": 21.3,
        "surfaceType": 2,
        "numberStart": "H1",
        "numberEnd": null,
        "latStart": 34.07778833,
        "lonStart": -118.25951862,
        "latEnd": null,
        "lonEnd": null,
        "length": 30.5
      }
    ],
    "id": 33137
  },
  {
    "type": 17,
    "icao": "3CL4",
    "lat": 34.17278388,
    "lon": -118.17090278,
    "communications": [],
    "elevation": 958,
    "tower": false,
    "name": "[H] Super Bowl",
    "runways": [
      {
        "type": 102,
        "width": 30.5,
        "surfaceType": 3,
        "numberStart": "H1",
        "numberEnd": null,
        "latStart": 34.17278388,
        "lonStart": -118.17090278,
        "latEnd": null,
        "lonEnd": null,
        "length": 30.5
      }
    ],
    "id": 33141
  },
  {
    "type": 17,
    "icao": "54L",
    "lat": 34.05806722,
    "lon": -118.23562862,
    "communications": [],
    "elevation": 354,
    "tower": false,
    "name": "[H] Terminal Annex",
    "runways": [
      {
        "type": 102,
        "width": 40.8,
        "surfaceType": 1,
        "numberStart": "H1",
        "numberEnd": null,
        "latStart": 34.05806722,
        "lonStart": -118.23562862,
        "latEnd": null,
        "lonEnd": null,
        "length": 123.4
      }
    ],
    "id": 33250
  },
  {
    "type": 17,
    "icao": "50L",
    "lat": 34.05278972,
    "lon": -118.25590723,
    "communications": [],
    "elevation": 679,
    "tower": false,
    "name": "[H] The Westin Bonaventure Hotel",
    "runways": [
      {
        "type": 102,
        "width": 15.2,
        "surfaceType": 2,
        "numberStart": "H1",
        "numberEnd": null,
        "latStart": 34.05278972,
        "lonStart": -118.25590723,
        "latEnd": null,
        "lonEnd": null,
        "length": 15.2
      }
    ],
    "id": 33307
  },
  {
    "type": 17,
    "icao": "70CA",
    "lat": 34.06250916,
    "lon": -118.43257945,
    "communications": [],
    "elevation": 470,
    "tower": false,
    "name": "[H] The Wilshire Thayer",
    "runways": [
      {
        "type": 102,
        "width": 15.2,
        "surfaceType": 2,
        "numberStart": "H1",
        "numberEnd": null,
        "latStart": 34.06250916,
        "lonStart": -118.43257945,
        "latEnd": null,
        "lonEnd": null,
        "length": 15.2
      }
    ],
    "id": 33308
  },
  {
    "type": 17,
    "icao": "63L",
    "lat": 34.03973444,
    "lon": -118.22840639,
    "communications": [],
    "elevation": 679,
    "tower": false,
    "name": "[H] Transamerica Center",
    "runways": [
      {
        "type": 102,
        "width": 11,
        "surfaceType": 2,
        "numberStart": "H1",
        "numberEnd": null,
        "latStart": 34.03973444,
        "lonStart": -118.22840639,
        "latEnd": null,
        "lonEnd": null,
        "length": 11
      }
    ],
    "id": 33368
  },
  {
    "type": 17,
    "icao": "79L",
    "lat": 34.15806111,
    "lon": -118.91787389,
    "communications": [],
    "elevation": 1162,
    "tower": false,
    "name": "[H] Twi Ii",
    "runways": [
      {
        "type": 102,
        "width": 30.5,
        "surfaceType": 1,
        "numberStart": "H1",
        "numberEnd": null,
        "latStart": 34.15806111,
        "lonStart": -118.91787389,
        "latEnd": null,
        "lonEnd": null,
        "length": 30.5
      }
    ],
    "id": 33429
  },
  {
    "type": 17,
    "icao": "6CA9",
    "lat": 34.06500888,
    "lon": -118.44257973,
    "communications": [],
    "elevation": 423,
    "tower": false,
    "name": "[H] UCLA",
    "runways": [
      {
        "type": 102,
        "width": 19.8,
        "surfaceType": 2,
        "numberStart": "H1",
        "numberEnd": null,
        "latStart": 34.06500888,
        "lonStart": -118.44257973,
        "latEnd": null,
        "lonEnd": null,
        "length": 25
      }
    ],
    "id": 33442
  },
  {
    "type": 17,
    "icao": "49L",
    "lat": 34.06973277,
    "lon": -118.29229751,
    "communications": [],
    "elevation": 367,
    "tower": false,
    "name": "[H] United Ca Bank Data Processing Ops",
    "runways": [
      {
        "type": 102,
        "width": 11.9,
        "surfaceType": 2,
        "numberStart": "H1",
        "numberEnd": null,
        "latStart": 34.06973277,
        "lonStart": -118.29229751,
        "latEnd": null,
        "lonEnd": null,
        "length": 12.8
      }
    ],
    "id": 33490
  },
  {
    "type": 17,
    "icao": "CL00",
    "lat": 34.05390055,
    "lon": -118.20173917,
    "communications": [],
    "elevation": 476,
    "tower": false,
    "name": "[H] Usc University Hospital",
    "runways": [
      {
        "type": 102,
        "width": 16.8,
        "surfaceType": 1,
        "numberStart": "H1",
        "numberEnd": null,
        "latStart": 34.05390055,
        "lonStart": -118.20173917,
        "latEnd": null,
        "lonEnd": null,
        "length": 16.8
      }
    ],
    "id": 33533
  },
  {
    "type": 17,
    "icao": "0CA2",
    "lat": 34.04889833,
    "lon": -118.45563501,
    "communications": [],
    "elevation": 250,
    "tower": false,
    "name": "[H] V A Med Ctr West L.A.",
    "runways": [
      {
        "type": 102,
        "width": 121.9,
        "surfaceType": 3,
        "numberStart": "H1",
        "numberEnd": null,
        "latStart": 34.04889833,
        "lonStart": -118.45563501,
        "latEnd": null,
        "lonEnd": null,
        "length": 182.9
      }
    ],
    "id": 33546
  },
  {
    "type": 17,
    "icao": "43L",
    "lat": 34.18333833,
    "lon": -118.44758223,
    "communications": [],
    "elevation": 850,
    "tower": false,
    "name": "[H] Van Nuys County Court",
    "runways": [
      {
        "type": 102,
        "width": 15.2,
        "surfaceType": 2,
        "numberStart": "H1",
        "numberEnd": null,
        "latStart": 34.18333833,
        "lonStart": -118.44758223,
        "latEnd": null,
        "lonEnd": null,
        "length": 15.2
      }
    ],
    "id": 33589
  },
  {
    "type": 17,
    "icao": "08L",
    "lat": 34.20417138,
    "lon": -118.21757417,
    "communications": [],
    "elevation": 1398,
    "tower": false,
    "name": "[H] Verdugo Hills Hospital",
    "runways": [
      {
        "type": 102,
        "width": 24.1,
        "surfaceType": 2,
        "numberStart": "H1",
        "numberEnd": null,
        "latStart": 34.20417138,
        "lonStart": -118.21757417,
        "latEnd": null,
        "lonEnd": null,
        "length": 24.1
      }
    ],
    "id": 33606
  },
  {
    "type": 17,
    "icao": "2L8",
    "lat": 34.48610472,
    "lon": -118.11590556,
    "communications": [],
    "elevation": 3244,
    "tower": false,
    "name": "[H] Vincent Substation",
    "runways": [
      {
        "type": 102,
        "width": 6.1,
        "surfaceType": 2,
        "numberStart": "H1",
        "numberEnd": null,
        "latStart": 34.48610472,
        "lonStart": -118.11590556,
        "latEnd": null,
        "lonEnd": null,
        "length": 6.1
      }
    ],
    "id": 33642
  },
  {
    "type": 17,
    "icao": "96CA",
    "lat": 34.17889388,
    "lon": -118.59925251,
    "communications": [],
    "elevation": 1131,
    "tower": false,
    "name": "[H] Warner Center Plaza One",
    "runways": [
      {
        "type": 102,
        "width": 10.7,
        "surfaceType": 2,
        "numberStart": "H1",
        "numberEnd": null,
        "latStart": 34.17889388,
        "lonStart": -118.59925251,
        "latEnd": null,
        "lonEnd": null,
        "length": 10.7
      }
    ],
    "id": 33724
  },
  {
    "type": 17,
    "icao": "CL20",
    "lat": 34.04167888,
    "lon": -118.27174056,
    "communications": [],
    "elevation": 258,
    "tower": false,
    "name": "[H] Wells Fargo-Cv",
    "runways": [
      {
        "type": 102,
        "width": 9.1,
        "surfaceType": 2,
        "numberStart": "H1",
        "numberEnd": null,
        "latStart": 34.04167888,
        "lonStart": -118.27174056,
        "latEnd": null,
        "lonEnd": null,
        "length": 9.1
      }
    ],
    "id": 33774
  },
  {
    "type": 17,
    "icao": "CL27",
    "lat": 34.07084305,
    "lon": -118.07173445,
    "communications": [],
    "elevation": 261,
    "tower": false,
    "name": "[H] Wells Fargo-El Monte",
    "runways": [
      {
        "type": 102,
        "width": 12.2,
        "surfaceType": 2,
        "numberStart": "H1",
        "numberEnd": null,
        "latStart": 34.07084305,
        "lonStart": -118.07173445,
        "latEnd": null,
        "lonEnd": null,
        "length": 12.2
      }
    ],
    "id": 33775
  },
  {
    "type": 17,
    "icao": "68L",
    "lat": 34.19389333,
    "lon": -118.54730751,
    "communications": [],
    "elevation": 734,
    "tower": false,
    "name": "[H] West Valley Area",
    "runways": [
      {
        "type": 102,
        "width": 19.8,
        "surfaceType": 1,
        "numberStart": "H1",
        "numberEnd": null,
        "latStart": 34.19389333,
        "lonStart": -118.54730751,
        "latEnd": null,
        "lonEnd": null,
        "length": 21.3
      }
    ],
    "id": 33802
  },
  {
    "type": 17,
    "icao": "7CA4",
    "lat": 34.14167222,
    "lon": -118.81759251,
    "communications": [],
    "elevation": 915,
    "tower": false,
    "name": "[H] Westlake Medical Center",
    "runways": [
      {
        "type": 102,
        "width": 12.2,
        "surfaceType": 2,
        "numberStart": "H1",
        "numberEnd": null,
        "latStart": 34.14167222,
        "lonStart": -118.81759251,
        "latEnd": null,
        "lonEnd": null,
        "length": 18.3
      }
    ],
    "id": 33818
  },
  {
    "type": 17,
    "icao": "CL54",
    "lat": 34.03306555,
    "lon": -118.45257945,
    "communications": [],
    "elevation": 325,
    "tower": false,
    "name": "[H] Westside Towers",
    "runways": [
      {
        "type": 102,
        "width": 19.8,
        "surfaceType": 2,
        "numberStart": "H1",
        "numberEnd": null,
        "latStart": 34.03306555,
        "lonStart": -118.45257945,
        "latEnd": null,
        "lonEnd": null,
        "length": 19.8
      }
    ],
    "id": 33823
  },
  {
    "type": 17,
    "icao": "CL50",
    "lat": 34.04778722,
    "lon": -118.44507973,
    "communications": [],
    "elevation": 319,
    "tower": false,
    "name": "[H] Westwood Gateway",
    "runways": [
      {
        "type": 102,
        "width": 15.2,
        "surfaceType": 2,
        "numberStart": "H1",
        "numberEnd": null,
        "latStart": 34.04778722,
        "lonStart": -118.44507973,
        "latEnd": null,
        "lonEnd": null,
        "length": 15.2
      }
    ],
    "id": 33825
  },
  {
    "type": 17,
    "icao": "6CL3",
    "lat": 34.38027555,
    "lon": -118.8687075,
    "communications": [],
    "elevation": 720,
    "tower": false,
    "name": "[H] William Shells Co",
    "runways": [
      {
        "type": 102,
        "width": 12.2,
        "surfaceType": 2,
        "numberStart": "H1",
        "numberEnd": null,
        "latStart": 34.38027555,
        "lonStart": -118.8687075,
        "latEnd": null,
        "lonEnd": null,
        "length": 12.2
      }
    ],
    "id": 33855
  },
  {
    "type": 17,
    "icao": "44L",
    "lat": 34.04695527,
    "lon": -118.34257667,
    "communications": [],
    "elevation": 148,
    "tower": false,
    "name": "[H] Wilshire Area",
    "runways": [
      {
        "type": 102,
        "width": 12.2,
        "surfaceType": 2,
        "numberStart": "H1",
        "numberEnd": null,
        "latStart": 34.04695527,
        "lonStart": -118.34257667,
        "latEnd": null,
        "lonEnd": null,
        "length": 15.2
      }
    ],
    "id": 33865
  }
]