[
  {
    "type": 17,
    "icao": "3CL4",
    "lat": 34.18335818,
    "lon": -118.17116973,
    "communications": [],
    "elevation": 1077,
    "tower": false,
    "name": "[H] Super Bowl",
    "runways": [
      {
        "type": 102,
        "width": 15.1,
        "surfaceType": 15,
        "numberStart": "H1",
        "numberEnd": null,
        "latStart": 34.18335818,
        "lonStart": -118.17116973,
        "latEnd": null,
        "lonEnd": null,
        "length": 21.5
      }
    ],
    "id": 115
  },
  {
    "type": 1,
    "icao": "33CA",
    "lat": 34.905582206000005,
    "lon": -118.30371569800002,
    "communications": [],
    "elevation": 2689,
    "tower": false,
    "name": "Lloyds Landing",
    "runways": [
      {
        "type": 100,
        "width": 27.43,
        "surfaceType": null,
        "numberStart": "06",
        "numberEnd": "24",
        "latStart": 34.90446543,
        "lonStart": -118.305332,
        "latEnd": 34.90649657,
        "lonEnd": -118.29799457,
        "length": 0,
        "surfacetype": 4
      },
      {
        "type": 100,
        "width": 18.29,
        "surfaceType": null,
        "numberStart": "11",
        "numberEnd": "29",
        "latStart": 34.90682277,
        "lonStart": -118.30809925,
        "latEnd": 34.90464637,
        "lonEnd": -118.30454969,
        "length": 0,
        "surfacetype": 4
      },
      {
        "type": 102,
        "width": 26.1,
        "surfaceType": 3,
        "numberStart": "H1",
        "numberEnd": null,
        "latStart": 34.90547989,
        "lonStart": -118.30260298,
        "latEnd": null,
        "lonEnd": null,
        "length": 28.2
      }
    ],
    "id": 372
  },
  {
    "type": 1,
    "icao": "CL46",
    "lat": 34.767769345000005,
    "lon": -118.73234119,
    "communications": [
      {
        "type": 51,
        "frequency": 12290,
        "name": "CTAF"
      }
    ],
    "elevation": 3370,
    "tower": false,
    "name": "Quail Lake Sky Park",
    "runways": [
      {
        "type": 100,
        "width": 14,
        "surfaceType": null,
        "numberStart": "08",
        "numberEnd": "26",
        "latStart": 34.76854437,
        "lonStart": -118.73791716,
        "latEnd": 34.76699432,
        "lonEnd": -118.72676522,
        "length": 0,
        "surfacetype": 1
      }
    ],
    "id": 682
  },
  {
    "type": 1,
    "icao": "KBUR",
    "lat": 34.205234001818184,
    "lon": -118.36024602454542,
    "communications": [
      {
        "type": 50,
        "frequency": 13450,
        "name": "ATIS"
      },
      {
        "type": 50,
        "frequency": 13512,
        "name": "ATIS"
      },
      {
        "type": 51,
        "frequency": 12295,
        "name": "UNICOM"
      },
      {
        "type": 52,
        "frequency": 11800,
        "name": "CLNC DEL"
      },
      {
        "type": 53,
        "frequency": 12390,
        "name": "GND"
      },
      {
        "type": 54,
        "frequency": 11870,
        "name": "TWR"
      },
      {
        "type": 54,
        "frequency": 13232,
        "name": "TWR"
      },
      {
        "type": 55,
        "frequency": 12040,
        "name": "SOCAL APP/DEP"
      },
      {
        "type": 55,
        "frequency": 12460,
        "name": "SOCAL APP/DEP"
      },
      {
        "type": 55,
        "frequency": 13420,
        "name": "SOCAL APP/DEP"
      },
      {
        "type": 55,
        "frequency": 13505,
        "name": "SOCAL APP/DEP"
      }
    ],
    "elevation": 777,
    "tower": true,
    "name": "Bob Hope airport Burbank",
    "runways": [
      {
        "type": 100,
        "width": 46.02,
        "surfaceType": null,
        "numberStart": "08",
        "numberEnd": "26",
        "latStart": 34.19791068,
        "lonStart": -118.36926588,
        "latEnd": 34.19765217,
        "lonEnd": -118.34993515,
        "length": 0,
        "surfacetype": 1
      },
      {
        "type": 100,
        "width": 46.02,
        "surfaceType": null,
        "numberStart": "15",
        "numberEnd": "33",
        "latStart": 34.21246779,
        "lonStart": -118.36050472,
        "latEnd": 34.19387016,
        "lonEnd": -118.35536399,
        "length": 0,
        "surfacetype": 1
      },
      {
        "type": 102,
        "width": 12.8,
        "surfaceType": 1,
        "numberStart": "H1",
        "numberEnd": null,
        "latStart": 34.20811751,
        "lonStart": -118.36094197,
        "latEnd": null,
        "lonEnd": null,
        "length": 12.9
      },
      {
        "type": 102,
        "width": 12.8,
        "surfaceType": 1,
        "numberStart": "H2",
        "numberEnd": null,
        "latStart": 34.2081184,
        "lonStart": -118.36111749,
        "latEnd": null,
        "lonEnd": null,
        "length": 12.9
      },
      {
        "type": 102,
        "width": 12.8,
        "surfaceType": 1,
        "numberStart": "H3",
        "numberEnd": null,
        "latStart": 34.20811984,
        "lonStart": -118.36130895,
        "latEnd": null,
        "lonEnd": null,
        "length": 12.9
      },
      {
        "type": 102,
        "width": 12.8,
        "surfaceType": 1,
        "numberStart": "H4",
        "numberEnd": null,
        "latStart": 34.20782353,
        "lonStart": -118.36080319,
        "latEnd": null,
        "lonEnd": null,
        "length": 12.3
      },
      {
        "type": 102,
        "width": 12.8,
        "surfaceType": 1,
        "numberStart": "H5",
        "numberEnd": null,
        "latStart": 34.20782713,
        "lonStart": -118.36097088,
        "latEnd": null,
        "lonEnd": null,
        "length": 12.4
      },
      {
        "type": 102,
        "width": 12.8,
        "surfaceType": 1,
        "numberStart": "H6",
        "numberEnd": null,
        "latStart": 34.20783128,
        "lonStart": -118.3611536,
        "latEnd": null,
        "lonEnd": null,
        "length": 12.5
      },
      {
        "type": 102,
        "width": 12.8,
        "surfaceType": 1,
        "numberStart": "H7",
        "numberEnd": null,
        "latStart": 34.20783553,
        "lonStart": -118.36134045,
        "latEnd": null,
        "lonEnd": null,
        "length": 12.7
      }
    ],
    "id": 2452
  },
  {
    "type": 1,
    "icao": "KEMT",
    "lat": 34.085220145,
    "lon": -118.03455785,
    "communications": [
      {
        "type": 50,
        "frequency": 11875,
        "name": "AWOS-3PT"
      },
      {
        "type": 51,
        "frequency": 12120,
        "name": "CTAF"
      },
      {
        "type": 50,
        "frequency": 11875,
        "name": "ATIS"
      },
      {
        "type": 51,
        "frequency": 12295,
        "name": "UNICOM"
      },
      {
        "type": 54,
        "frequency": 12120,
        "name": "TOWER"
      },
      {
        "type": 53,
        "frequency": 12590,
        "name": "GND CON"
      },
      {
        "type": 55,
        "frequency": 12550,
        "name": "SOCAL APP CON"
      },
      {
        "type": 56,
        "frequency": 12550,
        "name": "SOCAL DEP CON"
      }
    ],
    "elevation": 295,
    "tower": true,
    "name": "El Monte",
    "runways": [
      {
        "type": 100,
        "width": 22.86,
        "surfaceType": null,
        "numberStart": "01",
        "numberEnd": "19",
        "latStart": 34.08105395,
        "lonStart": -118.0376732,
        "latEnd": 34.09095862,
        "lonEnd": -118.03201238,
        "length": 0,
        "surfacetype": 1
      },
      {
        "type": 102,
        "width": 7.1,
        "surfaceType": 1,
        "numberStart": "H1",
        "numberEnd": null,
        "latStart": 34.08501914,
        "lonStart": -118.03444088,
        "latEnd": null,
        "lonEnd": null,
        "length": 7.1
      },
      {
        "type": 102,
        "width": 7.4,
        "surfaceType": 1,
        "numberStart": "H2",
        "numberEnd": null,
        "latStart": 34.08493099,
        "lonStart": -118.03422115,
        "latEnd": null,
        "lonEnd": null,
        "length": 7.7
      },
      {
        "type": 102,
        "width": 7.4,
        "surfaceType": 1,
        "numberStart": "H3",
        "numberEnd": null,
        "latStart": 34.08472414,
        "lonStart": -118.03461038,
        "latEnd": null,
        "lonEnd": null,
        "length": 7.7
      },
      {
        "type": 102,
        "width": 7.4,
        "surfaceType": 1,
        "numberStart": "H4",
        "numberEnd": null,
        "latStart": 34.08463403,
        "lonStart": -118.03438911,
        "latEnd": null,
        "lonEnd": null,
        "length": 7.7
      }
    ],
    "id": 2624
  },
  {
    "type": 1,
    "icao": "KSMO",
    "lat": 34.015826419999996,
    "lon": -118.451313285,
    "communications": [
      {
        "type": 51,
        "frequency": 12010,
        "name": "CTAF"
      },
      {
        "type": 50,
        "frequency": 12295,
        "name": "UNICOM"
      },
      {
        "type": 50,
        "frequency": 11915,
        "name": "ATIS"
      },
      {
        "type": 53,
        "frequency": 12190,
        "name": "GROUND"
      },
      {
        "type": 54,
        "frequency": 12010,
        "name": "TOWER"
      },
      {
        "type": 56,
        "frequency": 12520,
        "name": "DEPARTURE"
      },
      {
        "type": 55,
        "frequency": 12430,
        "name": "APPROACH (101-245)"
      },
      {
        "type": 55,
        "frequency": 12490,
        "name": "APPROACH (069-100)"
      },
      {
        "type": 55,
        "frequency": 12520,
        "name": "APPROACH (246-341)"
      },
      {
        "type": 55,
        "frequency": 12850,
        "name": "APPROACH (342-068)"
      }
    ],
    "elevation": 177,
    "tower": true,
    "name": "Santa Monica",
    "runways": [
      {
        "type": 100,
        "width": 45.72,
        "surfaceType": null,
        "numberStart": "03",
        "numberEnd": "21",
        "latStart": 34.01095505,
        "lonStart": -118.45707433,
        "latEnd": 34.02069779,
        "lonEnd": -118.44555224,
        "length": 0,
        "surfacetype": 1
      }
    ],
    "id": 3280
  },
  {
    "type": 1,
    "icao": "KVNY",
    "lat": 34.21438191423076,
    "lon": -118.49395663769229,
    "communications": [
      {
        "type": 50,
        "frequency": 11845,
        "name": "ATIS"
      },
      {
        "type": 51,
        "frequency": 11930,
        "name": "CTAF"
      },
      {
        "type": 51,
        "frequency": 12295,
        "name": "UNICOM"
      },
      {
        "type": 52,
        "frequency": 12660,
        "name": "DEL"
      },
      {
        "type": 53,
        "frequency": 12170,
        "name": "GND"
      },
      {
        "type": 54,
        "frequency": 12020,
        "name": "TWR (16L/34R)"
      },
      {
        "type": 54,
        "frequency": 11930,
        "name": "TWR (16R/34L)"
      },
      {
        "type": 54,
        "frequency": 11900,
        "name": "TWR (HELI)"
      },
      {
        "type": 55,
        "frequency": 12460,
        "name": "SOCAL APP/DEP (SE)"
      },
      {
        "type": 55,
        "frequency": 13420,
        "name": "SOCAL APP/DEP (SW)"
      },
      {
        "type": 55,
        "frequency": 13505,
        "name": "SOCAL APP/DEP (E)"
      },
      {
        "type": 56,
        "frequency": 12040,
        "name": "SOCAL APP/DEP (N)"
      }
    ],
    "elevation": 800,
    "tower": true,
    "name": "Van Nuys",
    "runways": [
      {
        "type": 100,
        "width": 46.02,
        "surfaceType": null,
        "numberStart": "16R",
        "numberEnd": "34L",
        "latStart": 34.21891224,
        "lonStart": -118.49121878,
        "latEnd": 34.19699707,
        "lonEnd": -118.48914453,
        "length": 0,
        "surfacetype": 1
      },
      {
        "type": 100,
        "width": 22.86,
        "surfaceType": null,
        "numberStart": "16L",
        "numberEnd": "34R",
        "latStart": 34.21899314,
        "lonStart": -118.48998061,
        "latEnd": 34.20799666,
        "lonEnd": -118.48894415,
        "length": 0,
        "surfacetype": 1
      },
      {
        "type": 102,
        "width": 6.1,
        "surfaceType": 15,
        "numberStart": "H4",
        "numberEnd": null,
        "latStart": 34.19718152,
        "lonStart": -118.49053046,
        "latEnd": null,
        "lonEnd": null,
        "length": 5.9
      },
      {
        "type": 102,
        "width": 21.1,
        "surfaceType": 15,
        "numberStart": "H5",
        "numberEnd": null,
        "latStart": 34.21568981,
        "lonStart": -118.48794595,
        "latEnd": null,
        "lonEnd": null,
        "length": 18.3
      },
      {
        "type": 102,
        "width": 4,
        "surfaceType": 2,
        "numberStart": "H12",
        "numberEnd": null,
        "latStart": 34.21742468,
        "lonStart": -118.49725066,
        "latEnd": null,
        "lonEnd": null,
        "length": 4
      },
      {
        "type": 102,
        "width": 4,
        "surfaceType": 2,
        "numberStart": "H13",
        "numberEnd": null,
        "latStart": 34.21754174,
        "lonStart": -118.49728016,
        "latEnd": null,
        "lonEnd": null,
        "length": 4
      },
      {
        "type": 102,
        "width": 4,
        "surfaceType": 2,
        "numberStart": "H14",
        "numberEnd": null,
        "latStart": 34.21766552,
        "lonStart": -118.49731703,
        "latEnd": null,
        "lonEnd": null,
        "length": 4
      },
      {
        "type": 102,
        "width": 4,
        "surfaceType": 2,
        "numberStart": "H15",
        "numberEnd": null,
        "latStart": 34.21778442,
        "lonStart": -118.49734726,
        "latEnd": null,
        "lonEnd": null,
        "length": 4
      },
      {
        "type": 102,
        "width": 15.8,
        "surfaceType": 2,
        "numberStart": "H6",
        "numberEnd": null,
        "latStart": 34.2164774,
        "lonStart": -118.49592679,
        "latEnd": null,
        "lonEnd": null,
        "length": 15.8
      },
      {
        "type": 102,
        "width": 15.8,
        "surfaceType": 2,
        "numberStart": "H11",
        "numberEnd": null,
        "latStart": 34.21598768,
        "lonStart": -118.49530913,
        "latEnd": null,
        "lonEnd": null,
        "length": 15.8
      },
      {
        "type": 102,
        "width": 15.8,
        "surfaceType": 2,
        "numberStart": "H7",
        "numberEnd": null,
        "latStart": 34.21616213,
        "lonStart": -118.49531035,
        "latEnd": null,
        "lonEnd": null,
        "length": 15.8
      },
      {
        "type": 102,
        "width": 15.8,
        "surfaceType": 2,
        "numberStart": "H9",
        "numberEnd": null,
        "latStart": 34.21633609,
        "lonStart": -118.49531035,
        "latEnd": null,
        "lonEnd": null,
        "length": 15.8
      },
      {
        "type": 102,
        "width": 15.8,
        "surfaceType": 2,
        "numberStart": "H10",
        "numberEnd": null,
        "latStart": 34.21633659,
        "lonStart": -118.49503657,
        "latEnd": null,
        "lonEnd": null,
        "length": 15.8
      },
      {
        "type": 102,
        "width": 15.8,
        "surfaceType": 2,
        "numberStart": "H1",
        "numberEnd": null,
        "latStart": 34.21644275,
        "lonStart": -118.49297903,
        "latEnd": null,
        "lonEnd": null,
        "length": 15.8
      },
      {
        "type": 102,
        "width": 15.8,
        "surfaceType": 2,
        "numberStart": "H2",
        "numberEnd": null,
        "latStart": 34.21654475,
        "lonStart": -118.49346291,
        "latEnd": null,
        "lonEnd": null,
        "length": 15.8
      },
      {
        "type": 102,
        "width": 15.8,
        "surfaceType": 2,
        "numberStart": "H3",
        "numberEnd": null,
        "latStart": 34.21660853,
        "lonStart": -118.49395222,
        "latEnd": null,
        "lonEnd": null,
        "length": 15.8
      },
      {
        "type": 102,
        "width": 15.8,
        "surfaceType": 2,
        "numberStart": "H16",
        "numberEnd": null,
        "latStart": 34.21667231,
        "lonStart": -118.49444279,
        "latEnd": null,
        "lonEnd": null,
        "length": 15.8
      },
      {
        "type": 102,
        "width": 15.8,
        "surfaceType": 2,
        "numberStart": "H17",
        "numberEnd": null,
        "latStart": 34.21676327,
        "lonStart": -118.49492704,
        "latEnd": null,
        "lonEnd": null,
        "length": 15.8
      },
      {
        "type": 102,
        "width": 15.8,
        "surfaceType": 2,
        "numberStart": "H18",
        "numberEnd": null,
        "latStart": 34.21640033,
        "lonStart": -118.49714944,
        "latEnd": null,
        "lonEnd": null,
        "length": 15.8
      },
      {
        "type": 102,
        "width": 15.8,
        "surfaceType": 2,
        "numberStart": "H19",
        "numberEnd": null,
        "latStart": 34.21668489,
        "lonStart": -118.49678895,
        "latEnd": null,
        "lonEnd": null,
        "length": 15.8
      },
      {
        "type": 102,
        "width": 15.8,
        "surfaceType": 2,
        "numberStart": "H20",
        "numberEnd": null,
        "latStart": 34.21680232,
        "lonStart": -118.49541616,
        "latEnd": null,
        "lonEnd": null,
        "length": 15.8
      },
      {
        "type": 102,
        "width": 15.8,
        "surfaceType": 2,
        "numberStart": "H21",
        "numberEnd": null,
        "latStart": 34.21692879,
        "lonStart": -118.49639932,
        "latEnd": null,
        "lonEnd": null,
        "length": 15.8
      },
      {
        "type": 102,
        "width": 15.8,
        "surfaceType": 2,
        "numberStart": "H22",
        "numberEnd": null,
        "latStart": 34.21686555,
        "lonStart": -118.49590774,
        "latEnd": null,
        "lonEnd": null,
        "length": 15.8
      },
      {
        "type": 102,
        "width": 11.9,
        "surfaceType": 1,
        "numberStart": "H23",
        "numberEnd": null,
        "latStart": 34.19972959,
        "lonStart": -118.4875942,
        "latEnd": null,
        "lonEnd": null,
        "length": 11.9
      }
    ],
    "id": 3388
  },
  {
    "type": 1,
    "icao": "KWHP",
    "lat": 34.25906191,
    "lon": -118.41127991,
    "communications": [
      {
        "type": 51,
        "frequency": 12295,
        "name": "CTAF"
      },
      {
        "type": 53,
        "frequency": 12500,
        "name": "Whiteman ground"
      },
      {
        "type": 54,
        "frequency": 13500,
        "name": "Whiteman tower"
      },
      {
        "type": 55,
        "frequency": 12040,
        "name": "SOCAL APP/DEP"
      },
      {
        "type": 55,
        "frequency": 13420,
        "name": "SOCAL APP/DEP"
      },
      {
        "type": 50,
        "frequency": 13210,
        "name": "Whiteman ATIS"
      }
    ],
    "elevation": 1000,
    "tower": true,
    "name": "Whiteman",
    "runways": [
      {
        "type": 100,
        "width": 22.86,
        "surfaceType": null,
        "numberStart": "12",
        "numberEnd": "30",
        "latStart": 34.26353878,
        "lonStart": -118.41795029,
        "latEnd": 34.25502793,
        "lonEnd": -118.40895079,
        "length": 0,
        "surfacetype": 1
      },
      {
        "type": 102,
        "width": 29.9,
        "surfaceType": 1,
        "numberStart": "H1",
        "numberEnd": null,
        "latStart": 34.25861902,
        "lonStart": -118.40693865,
        "latEnd": null,
        "lonEnd": null,
        "length": 29.9
      }
    ],
    "id": 3398
  },
  {
    "type": 1,
    "icao": "KWJF",
    "lat": 34.74105528,
    "lon": -118.21862949,
    "communications": [
      {
        "type": 50,
        "frequency": 12630,
        "name": "ATIS"
      },
      {
        "type": 50,
        "frequency": 13387,
        "name": "AWOS"
      },
      {
        "type": 51,
        "frequency": 12030,
        "name": "CTAF"
      },
      {
        "type": 51,
        "frequency": 12295,
        "name": "UNICOM"
      },
      {
        "type": 53,
        "frequency": 12170,
        "name": "GND"
      },
      {
        "type": 54,
        "frequency": 12030,
        "name": "TWR"
      },
      {
        "type": 55,
        "frequency": 12610,
        "name": "JOSHUA APP/DEP"
      }
    ],
    "elevation": 2351,
    "tower": true,
    "name": "General Wm J Fox Airfield",
    "runways": [
      {
        "type": 100,
        "width": 46.02,
        "surfaceType": null,
        "numberStart": "06",
        "numberEnd": "24",
        "latStart": 34.73800978,
        "lonStart": -118.23002799,
        "latEnd": 34.74410078,
        "lonEnd": -118.20723099,
        "length": 0,
        "surfacetype": 1
      }
    ],
    "id": 3399
  },
  {
    "type": 1,
    "icao": "L00",
    "lat": 34.870449269999995,
    "lon": -118.20552985,
    "communications": [
      {
        "type": 51,
        "frequency": 12290,
        "name": "CTAF"
      }
    ],
    "elevation": 2415,
    "tower": false,
    "name": "ROSAMOND SKYPARK",
    "runways": [
      {
        "type": 100,
        "width": 15.24,
        "surfaceType": null,
        "numberStart": "08",
        "numberEnd": "26",
        "latStart": 34.87046323,
        "lonStart": -118.21148351,
        "latEnd": 34.87043531,
        "lonEnd": -118.19957619,
        "length": 0,
        "surfacetype": 1
      }
    ],
    "id": 3420
  },
  {
    "type": 1,
    "icao": "L70",
    "lat": 34.503656265000004,
    "lon": -118.31288873,
    "communications": [
      {
        "type": 51,
        "frequency": 12280,
        "name": "CTAF"
      }
    ],
    "elevation": 2660,
    "tower": false,
    "name": "AGUA DULCE AIRPARK",
    "runways": [
      {
        "type": 100,
        "width": 15.24,
        "surfaceType": null,
        "numberStart": "04",
        "numberEnd": "22",
        "latStart": 34.4997978,
        "lonStart": -118.31910473,
        "latEnd": 34.50751473,
        "lonEnd": -118.30667273,
        "length": 0,
        "surfacetype": 1
      }
    ],
    "id": 3446
  },
  {
    "type": 17,
    "icao": "0CA2",
    "lat": 34.04889833,
    "lon": -118.45563501,
    "communications": [],
    "elevation": 250,
    "tower": false,
    "name": "[H] V A Med Ctr West L.A.",
    "runways": [
      {
        "type": 102,
        "width": 121.9,
        "surfaceType": 3,
        "numberStart": "H1",
        "numberEnd": null,
        "latStart": 34.04889833,
        "lonStart": -118.45563501,
        "latEnd": null,
        "lonEnd": null,
        "length": 182.9
      }
    ],
    "id": 5733
  },
  {
    "type": 17,
    "icao": "0CL4",
    "lat": 34.15722916,
    "lon": -118.25451917,
    "communications": [],
    "elevation": 770,
    "tower": false,
    "name": "[H] Glen Fed",
    "runways": [
      {
        "type": 102,
        "width": 15.2,
        "surfaceType": 2,
        "numberStart": "H1",
        "numberEnd": null,
        "latStart": 34.15722916,
        "lonStart": -118.25451917,
        "latEnd": null,
        "lonEnd": null,
        "length": 15.2
      }
    ],
    "id": 5743
  },
  {
    "type": 1,
    "icao": "0CL6",
    "lat": 34.69470666,
    "lon": -118.28313195000001,
    "communications": [],
    "elevation": 2410,
    "tower": false,
    "name": "Bohunks Airpark",
    "runways": [
      {
        "type": 100,
        "width": 21.34,
        "surfaceType": null,
        "numberStart": "09",
        "numberEnd": "27",
        "latStart": 34.69533707,
        "lonStart": -118.28620716,
        "latEnd": 34.69407625,
        "lonEnd": -118.28005674,
        "length": 0,
        "surfacetype": 4
      }
    ],
    "id": 5745
  },
  {
    "type": 17,
    "icao": "0CL7",
    "lat": 34.05445611,
    "lon": -118.26507473,
    "communications": [],
    "elevation": 473,
    "tower": false,
    "name": "[H] Good Samritan",
    "runways": [
      {
        "type": 102,
        "width": 19.8,
        "surfaceType": 2,
        "numberStart": "H1",
        "numberEnd": null,
        "latStart": 34.05445611,
        "lonStart": -118.26507473,
        "latEnd": null,
        "lonEnd": null,
        "length": 19.8
      }
    ],
    "id": 5746
  },
  {
    "type": 17,
    "icao": "1CA0",
    "lat": 34.23778138,
    "lon": -118.69620139,
    "communications": [],
    "elevation": 1798,
    "tower": false,
    "name": "[H] R I Santa Susana Helistop",
    "runways": [
      {
        "type": 102,
        "width": 37.8,
        "surfaceType": 1,
        "numberStart": "H1",
        "numberEnd": null,
        "latStart": 34.23778138,
        "lonStart": -118.69620139,
        "latEnd": null,
        "lonEnd": null,
        "length": 44.5
      }
    ],
    "id": 6322
  },
  {
    "type": 17,
    "icao": "1CA5",
    "lat": 34.12389694,
    "lon": -118.15062639,
    "communications": [],
    "elevation": 808,
    "tower": false,
    "name": "[H] California Title Building",
    "runways": [
      {
        "type": 102,
        "width": 11,
        "surfaceType": 2,
        "numberStart": "H1",
        "numberEnd": null,
        "latStart": 34.12389694,
        "lonStart": -118.15062639,
        "latEnd": null,
        "lonEnd": null,
        "length": 11
      }
    ],
    "id": 6327
  },
  {
    "type": 17,
    "icao": "1CA8",
    "lat": 34.19722694,
    "lon": -118.90870834,
    "communications": [],
    "elevation": 773,
    "tower": false,
    "name": "[H] R I Science Center Helistop",
    "runways": [
      {
        "type": 102,
        "width": 12.2,
        "surfaceType": 3,
        "numberStart": "H1",
        "numberEnd": null,
        "latStart": 34.19722694,
        "lonStart": -118.90870834,
        "latEnd": null,
        "lonEnd": null,
        "length": 12.2
      }
    ],
    "id": 6329
  },
  {
    "type": 17,
    "icao": "1CA9",
    "lat": 34.08334,
    "lon": -118.86759362,
    "communications": [],
    "elevation": 1358,
    "tower": false,
    "name": "[H] Los Angeles County Fire Department",
    "runways": [
      {
        "type": 102,
        "width": 18.3,
        "surfaceType": 2,
        "numberStart": "H1",
        "numberEnd": null,
        "latStart": 34.08334,
        "lonStart": -118.86759362,
        "latEnd": null,
        "lonEnd": null,
        "length": 45.7
      }
    ],
    "id": 6330
  },
  {
    "type": 1,
    "icao": "1CL1",
    "lat": 34.79414694,
    "lon": -118.27757695,
    "communications": [],
    "elevation": 2433,
    "tower": false,
    "name": "Little Buttes Antique Airfield",
    "runways": [
      {
        "type": 100,
        "width": 24.38,
        "surfaceType": null,
        "numberStart": "06",
        "numberEnd": "24",
        "latStart": 34.79305064,
        "lonStart": -118.28223259,
        "latEnd": 34.79524324,
        "lonEnd": -118.27292131,
        "length": 0,
        "surfacetype": 3
      }
    ],
    "id": 6333
  },
  {
    "type": 1,
    "icao": "1CL2",
    "lat": 34.942474440000005,
    "lon": -118.16979723,
    "communications": [],
    "elevation": 2610,
    "tower": false,
    "name": "Pontious",
    "runways": [
      {
        "type": 100,
        "width": 15.24,
        "surfaceType": null,
        "numberStart": "03",
        "numberEnd": "21",
        "latStart": 34.94059996,
        "lonStart": -118.17200548,
        "latEnd": 34.94434892,
        "lonEnd": -118.16758898,
        "length": 0,
        "surfacetype": 4
      },
      {
        "type": 100,
        "width": 15.24,
        "surfaceType": null,
        "numberStart": "07",
        "numberEnd": "25",
        "latStart": 34.94228807,
        "lonStart": -118.17196035,
        "latEnd": 34.94266081,
        "lonEnd": -118.16763411,
        "length": 0,
        "surfacetype": 4
      }
    ],
    "id": 6334
  },
  {
    "type": 17,
    "icao": "1CL9",
    "lat": 34.00098611,
    "lon": -118.21284945,
    "communications": [],
    "elevation": 229,
    "tower": false,
    "name": "[H] Sfi-Vernon",
    "runways": [
      {
        "type": 102,
        "width": 19.8,
        "surfaceType": 2,
        "numberStart": "H1",
        "numberEnd": null,
        "latStart": 34.00098611,
        "lonStart": -118.21284945,
        "latEnd": null,
        "lonEnd": null,
        "length": 19.8
      }
    ],
    "id": 6341
  },
  {
    "type": 17,
    "icao": "2CA6",
    "lat": 34.04917861,
    "lon": -118.25924028,
    "communications": [],
    "elevation": 627,
    "tower": false,
    "name": "[H] K & T 660 Figueroa Partners",
    "runways": [
      {
        "type": 102,
        "width": 15.2,
        "surfaceType": 2,
        "numberStart": "H1",
        "numberEnd": null,
        "latStart": 34.04917861,
        "lonStart": -118.25924028,
        "latEnd": null,
        "lonEnd": null,
        "length": 15.2
      }
    ],
    "id": 6905
  },
  {
    "type": 17,
    "icao": "2CA7",
    "lat": 34.17556055,
    "lon": -118.59508639,
    "communications": [],
    "elevation": 847,
    "tower": false,
    "name": "[H] Prudential Helistop",
    "runways": [
      {
        "type": 102,
        "width": 18.3,
        "surfaceType": 1,
        "numberStart": "H1",
        "numberEnd": null,
        "latStart": 34.17556055,
        "lonStart": -118.59508639,
        "latEnd": null,
        "lonEnd": null,
        "length": 18.3
      }
    ],
    "id": 6906
  },
  {
    "type": 17,
    "icao": "2L8",
    "lat": 34.48610472,
    "lon": -118.11590556,
    "communications": [],
    "elevation": 3244,
    "tower": false,
    "name": "[H] Vincent Substation",
    "runways": [
      {
        "type": 102,
        "width": 6.1,
        "surfaceType": 2,
        "numberStart": "H1",
        "numberEnd": null,
        "latStart": 34.48610472,
        "lonStart": -118.11590556,
        "latEnd": null,
        "lonEnd": null,
        "length": 6.1
      }
    ],
    "id": 7060
  },
  {
    "type": 17,
    "icao": "3CA6",
    "lat": 34.06251027,
    "lon": -118.35229917,
    "communications": [],
    "elevation": 559,
    "tower": false,
    "name": "[H] J.H. Snyder Co. Iii",
    "runways": [
      {
        "type": 102,
        "width": 19.8,
        "surfaceType": 2,
        "numberStart": "H1",
        "numberEnd": null,
        "latStart": 34.06251027,
        "lonStart": -118.35229917,
        "latEnd": null,
        "lonEnd": null,
        "length": 19.8
      }
    ],
    "id": 7467
  },
  {
    "type": 17,
    "icao": "3CA8",
    "lat": 34.27972388,
    "lon": -118.46147306,
    "communications": [],
    "elevation": 1029,
    "tower": false,
    "name": "[H] Holy Cross Medical Center",
    "runways": [
      {
        "type": 102,
        "width": 39.9,
        "surfaceType": 1,
        "numberStart": "H1",
        "numberEnd": null,
        "latStart": 34.27972388,
        "lonStart": -118.46147306,
        "latEnd": null,
        "lonEnd": null,
        "length": 43.3
      },
      {
        "type": 102,
        "width": 19.8,
        "surfaceType": 1,
        "numberStart": "H2",
        "numberEnd": null,
        "latStart": 34.27972388,
        "lonStart": -118.46147306,
        "latEnd": null,
        "lonEnd": null,
        "length": 19.8
      }
    ],
    "id": 7468
  },
  {
    "type": 17,
    "icao": "3CL5",
    "lat": 34.03723472,
    "lon": -118.25812973,
    "communications": [],
    "elevation": 412,
    "tower": false,
    "name": "[H] Chase Plaza",
    "runways": [
      {
        "type": 102,
        "width": 15.2,
        "surfaceType": 1,
        "numberStart": "H1",
        "numberEnd": null,
        "latStart": 34.03723472,
        "lonStart": -118.25812973,
        "latEnd": null,
        "lonEnd": null,
        "length": 15.2
      }
    ],
    "id": 7472
  },
  {
    "type": 17,
    "icao": "3CL7",
    "lat": 34.03612111,
    "lon": -118.44202362,
    "communications": [],
    "elevation": 200,
    "tower": false,
    "name": "[H] Raleigh Enterprises",
    "runways": [
      {
        "type": 102,
        "width": 15.2,
        "surfaceType": 2,
        "numberStart": "H1",
        "numberEnd": null,
        "latStart": 34.03612111,
        "lonStart": -118.44202362,
        "latEnd": null,
        "lonEnd": null,
        "length": 15.2
      }
    ],
    "id": 7474
  },
  {
    "type": 17,
    "icao": "4CA0",
    "lat": 34.04334555,
    "lon": -118.24701806,
    "communications": [],
    "elevation": 300,
    "tower": false,
    "name": "[H] Lapd Hooper",
    "runways": [
      {
        "type": 102,
        "width": 32,
        "surfaceType": 2,
        "numberStart": "H1",
        "numberEnd": null,
        "latStart": 34.04334555,
        "lonStart": -118.24701806,
        "latEnd": null,
        "lonEnd": null,
        "length": 62.5
      }
    ],
    "id": 7997
  },
  {
    "type": 17,
    "icao": "4CA1",
    "lat": 34.04778972,
    "lon": -118.25451834,
    "communications": [],
    "elevation": 453,
    "tower": false,
    "name": "[H] City National Bank",
    "runways": [
      {
        "type": 102,
        "width": 18.3,
        "surfaceType": 2,
        "numberStart": "H1",
        "numberEnd": null,
        "latStart": 34.04778972,
        "lonStart": -118.25451834,
        "latEnd": null,
        "lonEnd": null,
        "length": 18.3
      }
    ],
    "id": 7998
  },
  {
    "type": 17,
    "icao": "4L1",
    "lat": 34.13334027,
    "lon": -118.04256751,
    "communications": [],
    "elevation": 438,
    "tower": false,
    "name": "[H] Methodist Hospital",
    "runways": [
      {
        "type": 102,
        "width": 15.2,
        "surfaceType": 1,
        "numberStart": "H1",
        "numberEnd": null,
        "latStart": 34.13334027,
        "lonStart": -118.04256751,
        "latEnd": null,
        "lonEnd": null,
        "length": 15.2
      }
    ],
    "id": 8153
  },
  {
    "type": 17,
    "icao": "05CA",
    "lat": 34.13777777,
    "lon": -118.71444445,
    "communications": [],
    "elevation": 888,
    "tower": false,
    "name": "[H] Lost Hills Sheriffs Station",
    "runways": [
      {
        "type": 102,
        "width": 23.8,
        "surfaceType": 2,
        "numberStart": "H1",
        "numberEnd": null,
        "latStart": 34.13777777,
        "lonStart": -118.71444445,
        "latEnd": null,
        "lonEnd": null,
        "length": 23.8
      }
    ],
    "id": 8516
  },
  {
    "type": 17,
    "icao": "5L9",
    "lat": 34.15361777,
    "lon": -118.33146667,
    "communications": [],
    "elevation": 503,
    "tower": false,
    "name": "[H] Nbc-Tv",
    "runways": [
      {
        "type": 102,
        "width": 30.5,
        "surfaceType": 1,
        "numberStart": "H1",
        "numberEnd": null,
        "latStart": 34.15361777,
        "lonStart": -118.33146667,
        "latEnd": null,
        "lonEnd": null,
        "length": 30.5
      }
    ],
    "id": 8671
  },
  {
    "type": 17,
    "icao": "6CA0",
    "lat": 34.05112305,
    "lon": -118.24257389,
    "communications": [],
    "elevation": 490,
    "tower": false,
    "name": "[H] Hotel New Otani Los Angeles",
    "runways": [
      {
        "type": 102,
        "width": 15.2,
        "surfaceType": 1,
        "numberStart": "H1",
        "numberEnd": null,
        "latStart": 34.05112305,
        "lonStart": -118.24257389,
        "latEnd": null,
        "lonEnd": null,
        "length": 15.2
      }
    ],
    "id": 9018
  },
  {
    "type": 17,
    "icao": "6CA2",
    "lat": 34.05112166,
    "lon": -118.08173473,
    "communications": [],
    "elevation": 229,
    "tower": false,
    "name": "[H] Sce Rosemead",
    "runways": [
      {
        "type": 102,
        "width": 19.8,
        "surfaceType": 2,
        "numberStart": "H1",
        "numberEnd": null,
        "latStart": 34.05112166,
        "lonStart": -118.08173473,
        "latEnd": null,
        "lonEnd": null,
        "length": 19.8
      }
    ],
    "id": 9020
  },
  {
    "type": 17,
    "icao": "6CA4",
    "lat": 34.24667055,
    "lon": -118.83537223,
    "communications": [],
    "elevation": 916,
    "tower": false,
    "name": "[H] East Valley Sheriffs Station",
    "runways": [
      {
        "type": 102,
        "width": 13.7,
        "surfaceType": 2,
        "numberStart": "H1",
        "numberEnd": null,
        "latStart": 34.24667055,
        "lonStart": -118.83537223,
        "latEnd": null,
        "lonEnd": null,
        "length": 13.7
      }
    ],
    "id": 9022
  },
  {
    "type": 17,
    "icao": "6CA9",
    "lat": 34.06500888,
    "lon": -118.44257973,
    "communications": [],
    "elevation": 423,
    "tower": false,
    "name": "[H] UCLA",
    "runways": [
      {
        "type": 102,
        "width": 19.8,
        "surfaceType": 2,
        "numberStart": "H1",
        "numberEnd": null,
        "latStart": 34.06500888,
        "lonStart": -118.44257973,
        "latEnd": null,
        "lonEnd": null,
        "length": 25
      }
    ],
    "id": 9027
  },
  {
    "type": 17,
    "icao": "6CL3",
    "lat": 34.38027555,
    "lon": -118.8687075,
    "communications": [],
    "elevation": 720,
    "tower": false,
    "name": "[H] William Shells Co",
    "runways": [
      {
        "type": 102,
        "width": 12.2,
        "surfaceType": 2,
        "numberStart": "H1",
        "numberEnd": null,
        "latStart": 34.38027555,
        "lonStart": -118.8687075,
        "latEnd": null,
        "lonEnd": null,
        "length": 12.2
      }
    ],
    "id": 9031
  },
  {
    "type": 17,
    "icao": "6L6",
    "lat": 34.23750361,
    "lon": -118.62592167,
    "communications": [],
    "elevation": 845,
    "tower": false,
    "name": "[H] Hughes Canoga Park",
    "runways": [
      {
        "type": 102,
        "width": 24.4,
        "surfaceType": 1,
        "numberStart": "H1",
        "numberEnd": null,
        "latStart": 34.23750361,
        "lonStart": -118.62592167,
        "latEnd": null,
        "lonEnd": null,
        "length": 24.4
      }
    ],
    "id": 9180
  },
  {
    "type": 17,
    "icao": "6L7",
    "lat": 34.23472583,
    "lon": -118.58536445,
    "communications": [],
    "elevation": 875,
    "tower": false,
    "name": "[H] R I Ai Canoga Pk G L Helistop",
    "runways": [
      {
        "type": 102,
        "width": 16.8,
        "surfaceType": 1,
        "numberStart": "H1",
        "numberEnd": null,
        "latStart": 34.23472583,
        "lonStart": -118.58536445,
        "latEnd": null,
        "lonEnd": null,
        "length": 16.8
      }
    ],
    "id": 9181
  },
  {
    "type": 17,
    "icao": "7CA4",
    "lat": 34.14167222,
    "lon": -118.81759251,
    "communications": [],
    "elevation": 915,
    "tower": false,
    "name": "[H] Westlake Medical Center",
    "runways": [
      {
        "type": 102,
        "width": 12.2,
        "surfaceType": 2,
        "numberStart": "H1",
        "numberEnd": null,
        "latStart": 34.14167222,
        "lonStart": -118.81759251,
        "latEnd": null,
        "lonEnd": null,
        "length": 18.3
      }
    ],
    "id": 9530
  },
  {
    "type": 1,
    "icao": "7L4",
    "lat": 34.01390055,
    "lon": -118.05284445000001,
    "communications": [],
    "elevation": 217,
    "tower": false,
    "name": "Shepherd Field",
    "runways": [
      {
        "type": 100,
        "width": 15.24,
        "surfaceType": null,
        "numberStart": "03",
        "numberEnd": "21",
        "latStart": 34.0112526,
        "lonStart": -118.05592937,
        "latEnd": 34.0165485,
        "lonEnd": -118.04975953,
        "length": 0,
        "surfacetype": 1
      }
    ],
    "id": 9674
  },
  {
    "type": 17,
    "icao": "8CA1",
    "lat": 34.30500055,
    "lon": -118.46452806,
    "communications": [],
    "elevation": 1214,
    "tower": false,
    "name": "[H] Merle Norman Cosmetics - Sylmar",
    "runways": [
      {
        "type": 102,
        "width": 30.5,
        "surfaceType": 3,
        "numberStart": "H1",
        "numberEnd": null,
        "latStart": 34.30500055,
        "lonStart": -118.46452806,
        "latEnd": null,
        "lonEnd": null,
        "length": 30.5
      }
    ],
    "id": 10004
  },
  {
    "type": 17,
    "icao": "08L",
    "lat": 34.20417138,
    "lon": -118.21757417,
    "communications": [],
    "elevation": 1398,
    "tower": false,
    "name": "[H] Verdugo Hills Hospital",
    "runways": [
      {
        "type": 102,
        "width": 24.1,
        "surfaceType": 2,
        "numberStart": "H1",
        "numberEnd": null,
        "latStart": 34.20417138,
        "lonStart": -118.21757417,
        "latEnd": null,
        "lonEnd": null,
        "length": 24.1
      }
    ],
    "id": 10132
  },
  {
    "type": 17,
    "icao": "9CA5",
    "lat": 34.04029027,
    "lon": -118.25618528,
    "communications": [],
    "elevation": 434,
    "tower": false,
    "name": "[H] California Mart",
    "runways": [
      {
        "type": 102,
        "width": 26.5,
        "surfaceType": 2,
        "numberStart": "H1",
        "numberEnd": null,
        "latStart": 34.04029027,
        "lonStart": -118.25618528,
        "latEnd": null,
        "lonEnd": null,
        "length": 56.4
      }
    ],
    "id": 10450
  },
  {
    "type": 17,
    "icao": "9CA9",
    "lat": 34.08084305,
    "lon": -118.14923695,
    "communications": [],
    "elevation": 459,
    "tower": false,
    "name": "[H] Santa Fe International Corp",
    "runways": [
      {
        "type": 102,
        "width": 22.9,
        "surfaceType": 2,
        "numberStart": "H1",
        "numberEnd": null,
        "latStart": 34.08084305,
        "lonStart": -118.14923695,
        "latEnd": null,
        "lonEnd": null,
        "length": 22.9
      }
    ],
    "id": 10454
  },
  {
    "type": 17,
    "icao": "14L",
    "lat": 34.25694722,
    "lon": -118.53147528,
    "communications": [],
    "elevation": 1012,
    "tower": false,
    "name": "[H] Devonshire Area",
    "runways": [
      {
        "type": 102,
        "width": 12.2,
        "surfaceType": 2,
        "numberStart": "H1",
        "numberEnd": null,
        "latStart": 34.25694722,
        "lonStart": -118.53147528,
        "latEnd": null,
        "lonEnd": null,
        "length": 15.2
      }
    ],
    "id": 11060
  },
  {
    "type": 17,
    "icao": "19CA",
    "lat": 34.39860805,
    "lon": -118.55258639,
    "communications": [],
    "elevation": 1200,
    "tower": false,
    "name": "[H] Henry Mayo Newhall Memorial Hospital",
    "runways": [
      {
        "type": 102,
        "width": 25.9,
        "surfaceType": 2,
        "numberStart": "H1",
        "numberEnd": null,
        "latStart": 34.39860805,
        "lonStart": -118.55258639,
        "latEnd": null,
        "lonEnd": null,
        "length": 25.9
      }
    ],
    "id": 11256
  },
  {
    "type": 17,
    "icao": "24CA",
    "lat": 34.20472694,
    "lon": -118.17090556,
    "communications": [],
    "elevation": 1520,
    "tower": false,
    "name": "[H] Mesa",
    "runways": [
      {
        "type": 102,
        "width": 15.2,
        "surfaceType": 1,
        "numberStart": "H1",
        "numberEnd": null,
        "latStart": 34.20472694,
        "lonStart": -118.17090556,
        "latEnd": null,
        "lonEnd": null,
        "length": 15.2
      }
    ],
    "id": 11464
  },
  {
    "type": 17,
    "icao": "37L",
    "lat": 34.699985,
    "lon": -118.05923667,
    "communications": [],
    "elevation": 2367,
    "tower": false,
    "name": "[H] Sheriffs",
    "runways": [
      {
        "type": 102,
        "width": 29,
        "surfaceType": 2,
        "numberStart": "H1",
        "numberEnd": null,
        "latStart": 34.699985,
        "lonStart": -118.05923667,
        "latEnd": null,
        "lonEnd": null,
        "length": 30.5
      }
    ],
    "id": 11977
  },
  {
    "type": 17,
    "icao": "43L",
    "lat": 34.18333833,
    "lon": -118.44758223,
    "communications": [],
    "elevation": 850,
    "tower": false,
    "name": "[H] Van Nuys County Court",
    "runways": [
      {
        "type": 102,
        "width": 15.2,
        "surfaceType": 2,
        "numberStart": "H1",
        "numberEnd": null,
        "latStart": 34.18333833,
        "lonStart": -118.44758223,
        "latEnd": null,
        "lonEnd": null,
        "length": 15.2
      }
    ],
    "id": 12216
  },
  {
    "type": 17,
    "icao": "44L",
    "lat": 34.04695527,
    "lon": -118.34257667,
    "communications": [],
    "elevation": 148,
    "tower": false,
    "name": "[H] Wilshire Area",
    "runways": [
      {
        "type": 102,
        "width": 12.2,
        "surfaceType": 2,
        "numberStart": "H1",
        "numberEnd": null,
        "latStart": 34.04695527,
        "lonStart": -118.34257667,
        "latEnd": null,
        "lonEnd": null,
        "length": 15.2
      }
    ],
    "id": 12256
  },
  {
    "type": 17,
    "icao": "45L",
    "lat": 34.05223388,
    "lon": -118.24118501,
    "communications": [],
    "elevation": 450,
    "tower": false,
    "name": "[H] Parker Center",
    "runways": [
      {
        "type": 102,
        "width": 12.2,
        "surfaceType": 1,
        "numberStart": "H1",
        "numberEnd": null,
        "latStart": 34.05223388,
        "lonStart": -118.24118501,
        "latEnd": null,
        "lonEnd": null,
        "length": 15.2
      }
    ],
    "id": 12296
  },
  {
    "type": 17,
    "icao": "47L",
    "lat": 34.06028916,
    "lon": -118.23035056,
    "communications": [],
    "elevation": 352,
    "tower": false,
    "name": "[H] L A Co Mens Detention Cntr-Main Jail",
    "runways": [
      {
        "type": 102,
        "width": 15.2,
        "surfaceType": 2,
        "numberStart": "H1",
        "numberEnd": null,
        "latStart": 34.06028916,
        "lonStart": -118.23035056,
        "latEnd": null,
        "lonEnd": null,
        "length": 15.2
      }
    ],
    "id": 12368
  },
  {
    "type": 17,
    "icao": "49L",
    "lat": 34.06973277,
    "lon": -118.29229751,
    "communications": [],
    "elevation": 367,
    "tower": false,
    "name": "[H] United Ca Bank Data Processing Ops",
    "runways": [
      {
        "type": 102,
        "width": 11.9,
        "surfaceType": 2,
        "numberStart": "H1",
        "numberEnd": null,
        "latStart": 34.06973277,
        "lonStart": -118.29229751,
        "latEnd": null,
        "lonEnd": null,
        "length": 12.8
      }
    ],
    "id": 12445
  },
  {
    "type": 17,
    "icao": "50L",
    "lat": 34.05278972,
    "lon": -118.25590723,
    "communications": [],
    "elevation": 679,
    "tower": false,
    "name": "[H] The Westin Bonaventure Hotel",
    "runways": [
      {
        "type": 102,
        "width": 15.2,
        "surfaceType": 2,
        "numberStart": "H1",
        "numberEnd": null,
        "latStart": 34.05278972,
        "lonStart": -118.25590723,
        "latEnd": null,
        "lonEnd": null,
        "length": 15.2
      }
    ],
    "id": 12485
  },
  {
    "type": 17,
    "icao": "51L",
    "lat": 34.05140083,
    "lon": -118.25701834,
    "communications": [],
    "elevation": 979,
    "tower": false,
    "name": "[H] Arco Plaza",
    "runways": [
      {
        "type": 102,
        "width": 18.3,
        "surfaceType": 1,
        "numberStart": "H1",
        "numberEnd": null,
        "latStart": 34.05140083,
        "lonStart": -118.25701834,
        "latEnd": null,
        "lonEnd": null,
        "length": 24.4
      }
    ],
    "id": 12526
  },
  {
    "type": 17,
    "icao": "52L",
    "lat": 34.03778944,
    "lon": -118.15368195,
    "communications": [],
    "elevation": 298,
    "tower": false,
    "name": "[H] Los Angeles County Sheriffs Department",
    "runways": [
      {
        "type": 102,
        "width": 18.3,
        "surfaceType": 1,
        "numberStart": "H1",
        "numberEnd": null,
        "latStart": 34.03778944,
        "lonStart": -118.15368195,
        "latEnd": null,
        "lonEnd": null,
        "length": 18.3
      }
    ],
    "id": 12568
  },
  {
    "type": 17,
    "icao": "53L",
    "lat": 34.04445666,
    "lon": -118.24924001,
    "communications": [],
    "elevation": 450,
    "tower": false,
    "name": "[H] Pacific Electric Building",
    "runways": [
      {
        "type": 102,
        "width": 6.1,
        "surfaceType": 1,
        "numberStart": "H1",
        "numberEnd": null,
        "latStart": 34.04445666,
        "lonStart": -118.24924001,
        "latEnd": null,
        "lonEnd": null,
        "length": 8.5
      }
    ],
    "id": 12612
  },
  {
    "type": 17,
    "icao": "54L",
    "lat": 34.05806722,
    "lon": -118.23562862,
    "communications": [],
    "elevation": 354,
    "tower": false,
    "name": "[H] Terminal Annex",
    "runways": [
      {
        "type": 102,
        "width": 40.8,
        "surfaceType": 1,
        "numberStart": "H1",
        "numberEnd": null,
        "latStart": 34.05806722,
        "lonStart": -118.23562862,
        "latEnd": null,
        "lonEnd": null,
        "length": 123.4
      }
    ],
    "id": 12648
  },
  {
    "type": 17,
    "icao": "55L",
    "lat": 34.05862277,
    "lon": -118.24562917,
    "communications": [],
    "elevation": 378,
    "tower": false,
    "name": "[H] Sheriffs Headquarters-Temple & Grand",
    "runways": [
      {
        "type": 102,
        "width": 15.2,
        "surfaceType": 1,
        "numberStart": "H1",
        "numberEnd": null,
        "latStart": 34.05862277,
        "lonStart": -118.24562917,
        "latEnd": null,
        "lonEnd": null,
        "length": 15.2
      }
    ],
    "id": 12685
  },
  {
    "type": 17,
    "icao": "56CA",
    "lat": 34.0505675,
    "lon": -118.246185,
    "communications": [],
    "elevation": 345,
    "tower": false,
    "name": "[H] Los Angeles Times-La",
    "runways": [
      {
        "type": 102,
        "width": 22.9,
        "surfaceType": 2,
        "numberStart": "H1",
        "numberEnd": null,
        "latStart": 34.0505675,
        "lonStart": -118.246185,
        "latEnd": null,
        "lonEnd": null,
        "length": 21.3
      }
    ],
    "id": 12709
  },
  {
    "type": 17,
    "icao": "56L",
    "lat": 34.07778833,
    "lon": -118.25951862,
    "communications": [],
    "elevation": 556,
    "tower": false,
    "name": "[H] Sunset-Glendale",
    "runways": [
      {
        "type": 102,
        "width": 21.3,
        "surfaceType": 2,
        "numberStart": "H1",
        "numberEnd": null,
        "latStart": 34.07778833,
        "lonStart": -118.25951862,
        "latEnd": null,
        "lonEnd": null,
        "length": 30.5
      }
    ],
    "id": 12722
  },
  {
    "type": 17,
    "icao": "57L",
    "lat": 34.06195527,
    "lon": -118.29118639,
    "communications": [],
    "elevation": 439,
    "tower": false,
    "name": "[H] Operating Engineers Pension Trust Bldg",
    "runways": [
      {
        "type": 102,
        "width": 12.2,
        "surfaceType": 2,
        "numberStart": "H1",
        "numberEnd": null,
        "latStart": 34.06195527,
        "lonStart": -118.29118639,
        "latEnd": null,
        "lonEnd": null,
        "length": 12.2
      }
    ],
    "id": 12762
  },
  {
    "type": 17,
    "icao": "58CA",
    "lat": 34.05445611,
    "lon": -118.22923945,
    "communications": [],
    "elevation": 353,
    "tower": false,
    "name": "[H] Jay Stephen Hooper Memorial",
    "runways": [
      {
        "type": 102,
        "width": 64,
        "surfaceType": 2,
        "numberStart": "H1",
        "numberEnd": null,
        "latStart": 34.05445611,
        "lonStart": -118.22923945,
        "latEnd": null,
        "lonEnd": null,
        "length": 182.9
      }
    ],
    "id": 12784
  },
  {
    "type": 17,
    "icao": "58L",
    "lat": 34.05889805,
    "lon": -118.44369084,
    "communications": [],
    "elevation": 507,
    "tower": false,
    "name": "[H] Occidental Petroleum",
    "runways": [
      {
        "type": 102,
        "width": 11,
        "surfaceType": 2,
        "numberStart": "H1",
        "numberEnd": null,
        "latStart": 34.05889805,
        "lonStart": -118.44369084,
        "latEnd": null,
        "lonEnd": null,
        "length": 13.1
      }
    ],
    "id": 12799
  },
  {
    "type": 17,
    "icao": "59L",
    "lat": 34.05417833,
    "lon": -118.24257389,
    "communications": [],
    "elevation": 358,
    "tower": false,
    "name": "[H] City Hall",
    "runways": [
      {
        "type": 102,
        "width": 15.2,
        "surfaceType": 2,
        "numberStart": "H1",
        "numberEnd": null,
        "latStart": 34.05417833,
        "lonStart": -118.24257389,
        "latEnd": null,
        "lonEnd": null,
        "length": 15.2
      }
    ],
    "id": 12837
  },
  {
    "type": 17,
    "icao": "60L",
    "lat": 34.12667388,
    "lon": -118.40702389,
    "communications": [],
    "elevation": 1125,
    "tower": false,
    "name": "[H] Engine Co Nr 108",
    "runways": [
      {
        "type": 102,
        "width": 15.2,
        "surfaceType": 1,
        "numberStart": "H1",
        "numberEnd": null,
        "latStart": 34.12667388,
        "lonStart": -118.40702389,
        "latEnd": null,
        "lonEnd": null,
        "length": 15.2
      }
    ],
    "id": 12879
  },
  {
    "type": 17,
    "icao": "61L",
    "lat": 34.13083972,
    "lon": -118.49063778,
    "communications": [],
    "elevation": 1375,
    "tower": false,
    "name": "[H] Engine Co Nr 109",
    "runways": [
      {
        "type": 102,
        "width": 30.5,
        "surfaceType": 1,
        "numberStart": "H1",
        "numberEnd": null,
        "latStart": 34.13083972,
        "lonStart": -118.49063778,
        "latEnd": null,
        "lonEnd": null,
        "length": 30.5
      }
    ],
    "id": 12917
  },
  {
    "type": 17,
    "icao": "62CA",
    "lat": 34.06223361,
    "lon": -118.25090723,
    "communications": [],
    "elevation": 438,
    "tower": false,
    "name": "[H] B of As Data Center",
    "runways": [
      {
        "type": 102,
        "width": 19.8,
        "surfaceType": 2,
        "numberStart": "H1",
        "numberEnd": null,
        "latStart": 34.06223361,
        "lonStart": -118.25090723,
        "latEnd": null,
        "lonEnd": null,
        "length": 19.8
      }
    ],
    "id": 12943
  },
  {
    "type": 17,
    "icao": "62L",
    "lat": 34.10334249,
    "lon": -118.28257556,
    "communications": [],
    "elevation": 420,
    "tower": false,
    "name": "[H] ABC TV",
    "runways": [
      {
        "type": 102,
        "width": 19.8,
        "surfaceType": 1,
        "numberStart": "H1",
        "numberEnd": null,
        "latStart": 34.10334249,
        "lonStart": -118.28257556,
        "latEnd": null,
        "lonEnd": null,
        "length": 19.8
      }
    ],
    "id": 12957
  },
  {
    "type": 17,
    "icao": "63L",
    "lat": 34.03973444,
    "lon": -118.22840639,
    "communications": [],
    "elevation": 679,
    "tower": false,
    "name": "[H] Transamerica Center",
    "runways": [
      {
        "type": 102,
        "width": 11,
        "surfaceType": 2,
        "numberStart": "H1",
        "numberEnd": null,
        "latStart": 34.03973444,
        "lonStart": -118.22840639,
        "latEnd": null,
        "lonEnd": null,
        "length": 11
      }
    ],
    "id": 12994
  },
  {
    "type": 17,
    "icao": "64L",
    "lat": 34.16861611,
    "lon": -118.59453028,
    "communications": [],
    "elevation": 875,
    "tower": false,
    "name": "[H] Litton Industries",
    "runways": [
      {
        "type": 102,
        "width": 91.4,
        "surfaceType": 3,
        "numberStart": "H1",
        "numberEnd": null,
        "latStart": 34.16861611,
        "lonStart": -118.59453028,
        "latEnd": null,
        "lonEnd": null,
        "length": 91.4
      }
    ],
    "id": 13036
  },
  {
    "type": 17,
    "icao": "65L",
    "lat": 34.09612055,
    "lon": -118.29035278,
    "communications": [],
    "elevation": 500,
    "tower": false,
    "name": "[H] Childrens Hospital Los Angeles",
    "runways": [
      {
        "type": 102,
        "width": 15.2,
        "surfaceType": 2,
        "numberStart": "H1",
        "numberEnd": null,
        "latStart": 34.09612055,
        "lonStart": -118.29035278,
        "latEnd": null,
        "lonEnd": null,
        "length": 15.2
      }
    ],
    "id": 13079
  },
  {
    "type": 17,
    "icao": "68L",
    "lat": 34.19389333,
    "lon": -118.54730751,
    "communications": [],
    "elevation": 734,
    "tower": false,
    "name": "[H] West Valley Area",
    "runways": [
      {
        "type": 102,
        "width": 19.8,
        "surfaceType": 1,
        "numberStart": "H1",
        "numberEnd": null,
        "latStart": 34.19389333,
        "lonStart": -118.54730751,
        "latEnd": null,
        "lonEnd": null,
        "length": 21.3
      }
    ],
    "id": 13197
  },
  {
    "type": 17,
    "icao": "69L",
    "lat": 34.23361472,
    "lon": -118.58703139,
    "communications": [],
    "elevation": 898,
    "tower": false,
    "name": "[H] R I Ai Canoga Park B 2 Helistop",
    "runways": [
      {
        "type": 102,
        "width": 12.2,
        "surfaceType": 2,
        "numberStart": "H1",
        "numberEnd": null,
        "latStart": 34.23361472,
        "lonStart": -118.58703139,
        "latEnd": null,
        "lonEnd": null,
        "length": 12.2
      }
    ],
    "id": 13237
  },
  {
    "type": 17,
    "icao": "70CA",
    "lat": 34.06250916,
    "lon": -118.43257945,
    "communications": [],
    "elevation": 470,
    "tower": false,
    "name": "[H] The Wilshire Thayer",
    "runways": [
      {
        "type": 102,
        "width": 15.2,
        "surfaceType": 2,
        "numberStart": "H1",
        "numberEnd": null,
        "latStart": 34.06250916,
        "lonStart": -118.43257945,
        "latEnd": null,
        "lonEnd": null,
        "length": 15.2
      }
    ],
    "id": 13262
  },
  {
    "type": 17,
    "icao": "70L",
    "lat": 34.06084277,
    "lon": -118.41757917,
    "communications": [],
    "elevation": 473,
    "tower": false,
    "name": "[H] Century City",
    "runways": [
      {
        "type": 102,
        "width": 15.2,
        "surfaceType": 2,
        "numberStart": "H1",
        "numberEnd": null,
        "latStart": 34.06084277,
        "lonStart": -118.41757917,
        "latEnd": null,
        "lonEnd": null,
        "length": 30.5
      }
    ],
    "id": 13276
  },
  {
    "type": 17,
    "icao": "72L",
    "lat": 34.18833805,
    "lon": -118.60091973,
    "communications": [],
    "elevation": 798,
    "tower": false,
    "name": "[H] R I Rd Canoga Park G L",
    "runways": [
      {
        "type": 102,
        "width": 24.4,
        "surfaceType": 1,
        "numberStart": "H1",
        "numberEnd": null,
        "latStart": 34.18833805,
        "lonStart": -118.60091973,
        "latEnd": null,
        "lonEnd": null,
        "length": 62.8
      }
    ],
    "id": 13352
  },
  {
    "type": 17,
    "icao": "74L",
    "lat": 34.03722972,
    "lon": -118.68814084,
    "communications": [],
    "elevation": 27,
    "tower": false,
    "name": "[H] Malibu Administrative Center",
    "runways": [
      {
        "type": 102,
        "width": 9.1,
        "surfaceType": 2,
        "numberStart": "H1",
        "numberEnd": null,
        "latStart": 34.03722972,
        "lonStart": -118.68814084,
        "latEnd": null,
        "lonEnd": null,
        "length": 12.2
      }
    ],
    "id": 13438
  },
  {
    "type": 17,
    "icao": "79L",
    "lat": 34.15806111,
    "lon": -118.91787389,
    "communications": [],
    "elevation": 1162,
    "tower": false,
    "name": "[H] Twi Ii",
    "runways": [
      {
        "type": 102,
        "width": 30.5,
        "surfaceType": 1,
        "numberStart": "H1",
        "numberEnd": null,
        "latStart": 34.15806111,
        "lonStart": -118.91787389,
        "latEnd": null,
        "lonEnd": null,
        "length": 30.5
      }
    ],
    "id": 13638
  },
  {
    "type": 17,
    "icao": "80L",
    "lat": 34.38166416,
    "lon": -118.41452612,
    "communications": [],
    "elevation": 1805,
    "tower": false,
    "name": "[H] Los Angeles County Fire Station Nr 123",
    "runways": [
      {
        "type": 102,
        "width": 15.2,
        "surfaceType": 1,
        "numberStart": "H1",
        "numberEnd": null,
        "latStart": 34.38166416,
        "lonStart": -118.41452612,
        "latEnd": null,
        "lonEnd": null,
        "length": 15.2
      }
    ],
    "id": 13674
  },
  {
    "type": 17,
    "icao": "81L",
    "lat": 34.46666083,
    "lon": -118.59536445,
    "communications": [],
    "elevation": 1200,
    "tower": false,
    "name": "[H] Sheriffs Wayside",
    "runways": [
      {
        "type": 102,
        "width": 30.5,
        "surfaceType": 3,
        "numberStart": "H1",
        "numberEnd": null,
        "latStart": 34.46666083,
        "lonStart": -118.59536445,
        "latEnd": null,
        "lonEnd": null,
        "length": 30.5
      }
    ],
    "id": 13708
  },
  {
    "type": 17,
    "icao": "82CA",
    "lat": 34.27944694,
    "lon": -118.902875,
    "communications": [],
    "elevation": 470,
    "tower": false,
    "name": "[H] Sce Moorpark Substation",
    "runways": [
      {
        "type": 102,
        "width": 6.1,
        "surfaceType": 1,
        "numberStart": "H1",
        "numberEnd": null,
        "latStart": 34.27944694,
        "lonStart": -118.902875,
        "latEnd": null,
        "lonEnd": null,
        "length": 6.1
      }
    ],
    "id": 13737
  },
  {
    "type": 17,
    "icao": "82L",
    "lat": 34.43860638,
    "lon": -118.57925306,
    "communications": [],
    "elevation": 1073,
    "tower": false,
    "name": "[H] Sce Pardee Substation Helistop",
    "runways": [
      {
        "type": 102,
        "width": 6.1,
        "surfaceType": 2,
        "numberStart": "H1",
        "numberEnd": null,
        "latStart": 34.43860638,
        "lonStart": -118.57925306,
        "latEnd": null,
        "lonEnd": null,
        "length": 6.1
      }
    ],
    "id": 13750
  },
  {
    "type": 17,
    "icao": "84CA",
    "lat": 34.07389833,
    "lon": -118.37730001,
    "communications": [],
    "elevation": 276,
    "tower": false,
    "name": "[H] Beverly Center",
    "runways": [
      {
        "type": 102,
        "width": 15.2,
        "surfaceType": 2,
        "numberStart": "H1",
        "numberEnd": null,
        "latStart": 34.07389833,
        "lonStart": -118.37730001,
        "latEnd": null,
        "lonEnd": null,
        "length": 15.2
      }
    ],
    "id": 13814
  },
  {
    "type": 17,
    "icao": "96CA",
    "lat": 34.17889388,
    "lon": -118.59925251,
    "communications": [],
    "elevation": 1131,
    "tower": false,
    "name": "[H] Warner Center Plaza One",
    "runways": [
      {
        "type": 102,
        "width": 10.7,
        "surfaceType": 2,
        "numberStart": "H1",
        "numberEnd": null,
        "latStart": 34.17889388,
        "lonStart": -118.59925251,
        "latEnd": null,
        "lonEnd": null,
        "length": 10.7
      }
    ],
    "id": 14222
  },
  {
    "type": 1,
    "icao": "97CA",
    "lat": 34.989135829999995,
    "lon": -118.91454445,
    "communications": [],
    "elevation": 1065,
    "tower": false,
    "name": "Tejon Ag",
    "runways": [
      {
        "type": 100,
        "width": 15.24,
        "surfaceType": null,
        "numberStart": "13",
        "numberEnd": "31",
        "latStart": 34.99268642,
        "lonStart": -118.91769321,
        "latEnd": 34.98558524,
        "lonEnd": -118.91139569,
        "length": 0,
        "surfacetype": 4
      }
    ],
    "id": 14258
  },
  {
    "type": 17,
    "icao": "98CA",
    "lat": 34.04473194,
    "lon": -118.44480139,
    "communications": [],
    "elevation": 245,
    "tower": false,
    "name": "[H] Everest & Jennings Helistop Nr 1",
    "runways": [
      {
        "type": 102,
        "width": 19.8,
        "surfaceType": 1,
        "numberStart": "H1",
        "numberEnd": null,
        "latStart": 34.04473194,
        "lonStart": -118.44480139,
        "latEnd": null,
        "lonEnd": null,
        "length": 19.8
      }
    ],
    "id": 14288
  },
  {
    "type": 17,
    "icao": "CA08",
    "lat": 34.08389861,
    "lon": -118.144515,
    "communications": [],
    "elevation": 475,
    "tower": false,
    "name": "[H] Sce Energy Control Center",
    "runways": [
      {
        "type": 102,
        "width": 10.7,
        "surfaceType": 1,
        "numberStart": "H1",
        "numberEnd": null,
        "latStart": 34.08389861,
        "lonStart": -118.144515,
        "latEnd": null,
        "lonEnd": null,
        "length": 10.7
      }
    ],
    "id": 14999
  },
  {
    "type": 17,
    "icao": "CA46",
    "lat": 34.0833425,
    "lon": -118.37591112,
    "communications": [],
    "elevation": 165,
    "tower": false,
    "name": "[H] Cedars-Sinai Medical Center",
    "runways": [
      {
        "type": 102,
        "width": 19.8,
        "surfaceType": 1,
        "numberStart": "H1",
        "numberEnd": null,
        "latStart": 34.0833425,
        "lonStart": -118.37591112,
        "latEnd": null,
        "lonEnd": null,
        "length": 19.8
      }
    ],
    "id": 15031
  },
  {
    "type": 17,
    "icao": "CA86",
    "lat": 34.22014277,
    "lon": -118.53314084,
    "communications": [],
    "elevation": 862,
    "tower": false,
    "name": "[H] Northridge Hospital",
    "runways": [
      {
        "type": 102,
        "width": 9.1,
        "surfaceType": 1,
        "numberStart": "H1",
        "numberEnd": null,
        "latStart": 34.22014277,
        "lonStart": -118.53314084,
        "latEnd": null,
        "lonEnd": null,
        "length": 9.1
      }
    ],
    "id": 15069
  },
  {
    "type": 17,
    "icao": "CA95",
    "lat": 34.15556222,
    "lon": -118.32896639,
    "communications": [],
    "elevation": 566,
    "tower": false,
    "name": "[H] St Joseph Medical Center",
    "runways": [
      {
        "type": 102,
        "width": 15.2,
        "surfaceType": 2,
        "numberStart": "H1",
        "numberEnd": null,
        "latStart": 34.15556222,
        "lonStart": -118.32896639,
        "latEnd": null,
        "lonEnd": null,
        "length": 15.2
      }
    ],
    "id": 15076
  },
  {
    "type": 17,
    "icao": "CL00",
    "lat": 34.05390055,
    "lon": -118.20173917,
    "communications": [],
    "elevation": 476,
    "tower": false,
    "name": "[H] Usc University Hospital",
    "runways": [
      {
        "type": 102,
        "width": 16.8,
        "surfaceType": 1,
        "numberStart": "H1",
        "numberEnd": null,
        "latStart": 34.05390055,
        "lonStart": -118.20173917,
        "latEnd": null,
        "lonEnd": null,
        "length": 16.8
      }
    ],
    "id": 15361
  },
  {
    "type": 17,
    "icao": "CL06",
    "lat": 34.15167388,
    "lon": -118.23007445,
    "communications": [],
    "elevation": 715,
    "tower": false,
    "name": "[H] Glendale Adventist Medical Center GAMC",
    "runways": [
      {
        "type": 102,
        "width": 12.8,
        "surfaceType": 2,
        "numberStart": "H1",
        "numberEnd": null,
        "latStart": 34.15167388,
        "lonStart": -118.23007445,
        "latEnd": null,
        "lonEnd": null,
        "length": 12.8
      }
    ],
    "id": 15367
  },
  {
    "type": 17,
    "icao": "CL08",
    "lat": 34.04917861,
    "lon": -118.25340723,
    "communications": [],
    "elevation": 441,
    "tower": false,
    "name": "[H] Biltmore Hotel",
    "runways": [
      {
        "type": 102,
        "width": 8.5,
        "surfaceType": 2,
        "numberStart": "H1",
        "numberEnd": null,
        "latStart": 34.04917861,
        "lonStart": -118.25340723,
        "latEnd": null,
        "lonEnd": null,
        "length": 15.5
      }
    ],
    "id": 15368
  },
  {
    "type": 17,
    "icao": "CL10",
    "lat": 34.04167416,
    "lon": -118.85314723,
    "communications": [],
    "elevation": 625,
    "tower": false,
    "name": "[H] Anacapa View Estates",
    "runways": [
      {
        "type": 102,
        "width": 19.8,
        "surfaceType": 3,
        "numberStart": "H1",
        "numberEnd": null,
        "latStart": 34.04167416,
        "lonStart": -118.85314723,
        "latEnd": null,
        "lonEnd": null,
        "length": 19.8
      }
    ],
    "id": 15369
  },
  {
    "type": 17,
    "icao": "CL12",
    "lat": 34.06389999,
    "lon": -118.27257501,
    "communications": [],
    "elevation": 462,
    "tower": false,
    "name": "[H] St Vincent Professional Office Buildin",
    "runways": [
      {
        "type": 102,
        "width": 21.3,
        "surfaceType": 1,
        "numberStart": "H1",
        "numberEnd": null,
        "latStart": 34.06389999,
        "lonStart": -118.27257501,
        "latEnd": null,
        "lonEnd": null,
        "length": 21.3
      }
    ],
    "id": 15371
  },
  {
    "type": 17,
    "icao": "CL14",
    "lat": 34.13361888,
    "lon": -118.15368251,
    "communications": [],
    "elevation": 854,
    "tower": false,
    "name": "[H] Huntington Memorial-Pasadena",
    "runways": [
      {
        "type": 102,
        "width": 15.2,
        "surfaceType": 2,
        "numberStart": "H1",
        "numberEnd": null,
        "latStart": 34.13361888,
        "lonStart": -118.15368251,
        "latEnd": null,
        "lonEnd": null,
        "length": 15.2
      }
    ],
    "id": 15372
  },
  {
    "type": 17,
    "icao": "CL19",
    "lat": 34.15556277,
    "lon": -118.25646417,
    "communications": [],
    "elevation": 560,
    "tower": false,
    "name": "[H] Bank of America Glendale",
    "runways": [
      {
        "type": 102,
        "width": 19.8,
        "surfaceType": 2,
        "numberStart": "H1",
        "numberEnd": null,
        "latStart": 34.15556277,
        "lonStart": -118.25646417,
        "latEnd": null,
        "lonEnd": null,
        "length": 19.8
      }
    ],
    "id": 15377
  },
  {
    "type": 17,
    "icao": "CL20",
    "lat": 34.04167888,
    "lon": -118.27174056,
    "communications": [],
    "elevation": 258,
    "tower": false,
    "name": "[H] Wells Fargo-Cv",
    "runways": [
      {
        "type": 102,
        "width": 9.1,
        "surfaceType": 2,
        "numberStart": "H1",
        "numberEnd": null,
        "latStart": 34.04167888,
        "lonStart": -118.27174056,
        "latEnd": null,
        "lonEnd": null,
        "length": 9.1
      }
    ],
    "id": 15378
  },
  {
    "type": 17,
    "icao": "CL22",
    "lat": 34.41610722,
    "lon": -118.55175223,
    "communications": [],
    "elevation": 1200,
    "tower": false,
    "name": "[H] Sheriffs Station",
    "runways": [
      {
        "type": 102,
        "width": 15.2,
        "surfaceType": 2,
        "numberStart": "H1",
        "numberEnd": null,
        "latStart": 34.41610722,
        "lonStart": -118.55175223,
        "latEnd": null,
        "lonEnd": null,
        "length": 15.2
      }
    ],
    "id": 15379
  },
  {
    "type": 17,
    "icao": "CL26",
    "lat": 34.23861444,
    "lon": -118.56564223,
    "communications": [],
    "elevation": 1018,
    "tower": false,
    "name": "[H] Great Western Helistop",
    "runways": [
      {
        "type": 102,
        "width": 15.9,
        "surfaceType": 2,
        "numberStart": "H1",
        "numberEnd": null,
        "latStart": 34.23861444,
        "lonStart": -118.56564223,
        "latEnd": null,
        "lonEnd": null,
        "length": 15.9
      }
    ],
    "id": 15382
  },
  {
    "type": 17,
    "icao": "CL27",
    "lat": 34.07084305,
    "lon": -118.07173445,
    "communications": [],
    "elevation": 261,
    "tower": false,
    "name": "[H] Wells Fargo-El Monte",
    "runways": [
      {
        "type": 102,
        "width": 12.2,
        "surfaceType": 2,
        "numberStart": "H1",
        "numberEnd": null,
        "latStart": 34.07084305,
        "lonStart": -118.07173445,
        "latEnd": null,
        "lonEnd": null,
        "length": 12.2
      }
    ],
    "id": 15383
  },
  {
    "type": 17,
    "icao": "CL31",
    "lat": 34.05195638,
    "lon": -118.24479612,
    "communications": [],
    "elevation": 340,
    "tower": false,
    "name": "[H] District 07 Helistop",
    "runways": [
      {
        "type": 102,
        "width": 19.8,
        "surfaceType": 2,
        "numberStart": "H1",
        "numberEnd": null,
        "latStart": 34.05195638,
        "lonStart": -118.24479612,
        "latEnd": null,
        "lonEnd": null,
        "length": 19.8
      }
    ],
    "id": 15387
  },
  {
    "type": 17,
    "icao": "CL32",
    "lat": 34.05362277,
    "lon": -118.26451862,
    "communications": [],
    "elevation": 430,
    "tower": false,
    "name": "[H] FIB Administration & Operations Buildi",
    "runways": [
      {
        "type": 102,
        "width": 16.1,
        "surfaceType": 2,
        "numberStart": "H1",
        "numberEnd": null,
        "latStart": 34.05362277,
        "lonStart": -118.26451862,
        "latEnd": null,
        "lonEnd": null,
        "length": 19.8
      }
    ],
    "id": 15388
  },
  {
    "type": 17,
    "icao": "CL34",
    "lat": 34.26861388,
    "lon": -118.71786834,
    "communications": [],
    "elevation": 974,
    "tower": false,
    "name": "[H] First Interstate Bank",
    "runways": [
      {
        "type": 102,
        "width": 12.2,
        "surfaceType": 1,
        "numberStart": "H1",
        "numberEnd": null,
        "latStart": 34.26861388,
        "lonStart": -118.71786834,
        "latEnd": null,
        "lonEnd": null,
        "length": 12.2
      }
    ],
    "id": 15390
  },
  {
    "type": 17,
    "icao": "CL40",
    "lat": 34.64748694,
    "lon": -118.14562834,
    "communications": [],
    "elevation": 2520,
    "tower": false,
    "name": "[H] Antelope Valley Service Center",
    "runways": [
      {
        "type": 102,
        "width": 6.1,
        "surfaceType": 1,
        "numberStart": "H1",
        "numberEnd": null,
        "latStart": 34.64748694,
        "lonStart": -118.14562834,
        "latEnd": null,
        "lonEnd": null,
        "length": 6.1
      }
    ],
    "id": 15394
  },
  {
    "type": 17,
    "icao": "CL49",
    "lat": 34.04640083,
    "lon": -118.26257445,
    "communications": [],
    "elevation": 541,
    "tower": false,
    "name": "[H] International Tower",
    "runways": [
      {
        "type": 102,
        "width": 18.9,
        "surfaceType": 2,
        "numberStart": "H1",
        "numberEnd": null,
        "latStart": 34.04640083,
        "lonStart": -118.26257445,
        "latEnd": null,
        "lonEnd": null,
        "length": 19.8
      }
    ],
    "id": 15402
  },
  {
    "type": 17,
    "icao": "CL50",
    "lat": 34.04778722,
    "lon": -118.44507973,
    "communications": [],
    "elevation": 319,
    "tower": false,
    "name": "[H] Westwood Gateway",
    "runways": [
      {
        "type": 102,
        "width": 15.2,
        "surfaceType": 2,
        "numberStart": "H1",
        "numberEnd": null,
        "latStart": 34.04778722,
        "lonStart": -118.44507973,
        "latEnd": null,
        "lonEnd": null,
        "length": 15.2
      }
    ],
    "id": 15403
  },
  {
    "type": 17,
    "icao": "CL54",
    "lat": 34.03306555,
    "lon": -118.45257945,
    "communications": [],
    "elevation": 325,
    "tower": false,
    "name": "[H] Westside Towers",
    "runways": [
      {
        "type": 102,
        "width": 19.8,
        "surfaceType": 2,
        "numberStart": "H1",
        "numberEnd": null,
        "latStart": 34.03306555,
        "lonStart": -118.45257945,
        "latEnd": null,
        "lonEnd": null,
        "length": 19.8
      }
    ],
    "id": 15406
  },
  {
    "type": 17,
    "icao": "CL59",
    "lat": 34.43832833,
    "lon": -118.28757806,
    "communications": [],
    "elevation": 2220,
    "tower": false,
    "name": "[H] Camp 11",
    "runways": [
      {
        "type": 102,
        "width": 6.1,
        "surfaceType": 2,
        "numberStart": "H1",
        "numberEnd": null,
        "latStart": 34.43832833,
        "lonStart": -118.28757806,
        "latEnd": null,
        "lonEnd": null,
        "length": 6.1
      }
    ],
    "id": 15411
  },
  {
    "type": 17,
    "icao": "CL62",
    "lat": 34.15028305,
    "lon": -118.69814362,
    "communications": [],
    "elevation": 850,
    "tower": false,
    "name": "[H] Station 125",
    "runways": [
      {
        "type": 102,
        "width": 15.2,
        "surfaceType": 4,
        "numberStart": "H1",
        "numberEnd": null,
        "latStart": 34.15028305,
        "lonStart": -118.69814362,
        "latEnd": null,
        "lonEnd": null,
        "length": 15.2
      }
    ],
    "id": 15414
  },
  {
    "type": 17,
    "icao": "CL63",
    "lat": 34.51722222,
    "lon": -118.59944445,
    "communications": [],
    "elevation": 1520,
    "tower": false,
    "name": "[H] Castaic Dam",
    "runways": [
      {
        "type": 102,
        "width": 18.3,
        "surfaceType": 1,
        "numberStart": "H1",
        "numberEnd": null,
        "latStart": 34.51722222,
        "lonStart": -118.59944445,
        "latEnd": null,
        "lonEnd": null,
        "length": 18.3
      }
    ],
    "id": 15415
  },
  {
    "type": 17,
    "icao": "CL66",
    "lat": 34.19722722,
    "lon": -118.17396167,
    "communications": [],
    "elevation": 1120,
    "tower": false,
    "name": "[H] Camp 2",
    "runways": [
      {
        "type": 102,
        "width": 6.1,
        "surfaceType": 2,
        "numberStart": "H1",
        "numberEnd": null,
        "latStart": 34.19722722,
        "lonStart": -118.17396167,
        "latEnd": null,
        "lonEnd": null,
        "length": 6.1
      }
    ],
    "id": 15417
  },
  {
    "type": 17,
    "icao": "CL72",
    "lat": 34.06195166,
    "lon": -118.64702917,
    "communications": [],
    "elevation": 1523,
    "tower": false,
    "name": "[H] Camp 8",
    "runways": [
      {
        "type": 102,
        "width": 6.1,
        "surfaceType": 2,
        "numberStart": "H1",
        "numberEnd": null,
        "latStart": 34.06195166,
        "lonStart": -118.64702917,
        "latEnd": null,
        "lonEnd": null,
        "length": 18.3
      }
    ],
    "id": 15421
  },
  {
    "type": 1,
    "icao": "CL74",
    "lat": 34.831922770000006,
    "lon": -118.40091417,
    "communications": [],
    "elevation": 2600,
    "tower": false,
    "name": "Skyotee Ranch",
    "runways": [
      {
        "type": 100,
        "width": 30.48,
        "surfaceType": null,
        "numberStart": "07",
        "numberEnd": "25",
        "latStart": 34.83155003,
        "lonStart": -118.4052346,
        "latEnd": 34.83229551,
        "lonEnd": -118.39659374,
        "length": 0,
        "surfacetype": 4
      }
    ],
    "id": 15423
  },
  {
    "type": 17,
    "icao": "CL75",
    "lat": 34.05223277,
    "lon": -118.08062362,
    "communications": [],
    "elevation": 312,
    "tower": false,
    "name": "[H] Robert D Cloud",
    "runways": [
      {
        "type": 102,
        "width": 9.8,
        "surfaceType": 1,
        "numberStart": "H1",
        "numberEnd": null,
        "latStart": 34.05223277,
        "lonStart": -118.08062362,
        "latEnd": null,
        "lonEnd": null,
        "length": 9.8
      }
    ],
    "id": 15424
  },
  {
    "type": 17,
    "icao": "CL78",
    "lat": 34.56610083,
    "lon": -118.47674945,
    "communications": [],
    "elevation": 1870,
    "tower": false,
    "name": "[H] Camp 14",
    "runways": [
      {
        "type": 102,
        "width": 9.1,
        "surfaceType": 2,
        "numberStart": "H1",
        "numberEnd": null,
        "latStart": 34.56610083,
        "lonStart": -118.47674945,
        "latEnd": null,
        "lonEnd": null,
        "length": 9.1
      }
    ],
    "id": 15426
  },
  {
    "type": 17,
    "icao": "CL80",
    "lat": 34.16000583,
    "lon": -118.44952584,
    "communications": [],
    "elevation": 695,
    "tower": false,
    "name": "[H] Sherman Oaks Community Hospital",
    "runways": [
      {
        "type": 102,
        "width": 14.6,
        "surfaceType": 2,
        "numberStart": "H1",
        "numberEnd": null,
        "latStart": 34.16000583,
        "lonStart": -118.44952584,
        "latEnd": null,
        "lonEnd": null,
        "length": 15.9
      }
    ],
    "id": 15428
  },
  {
    "type": 17,
    "icao": "CL81",
    "lat": 34.28944555,
    "lon": -118.28813251,
    "communications": [],
    "elevation": 1520,
    "tower": false,
    "name": "[H] Camp 15",
    "runways": [
      {
        "type": 102,
        "width": 30.5,
        "surfaceType": 3,
        "numberStart": "H1",
        "numberEnd": null,
        "latStart": 34.28944555,
        "lonStart": -118.28813251,
        "latEnd": null,
        "lonEnd": null,
        "length": 30.5
      }
    ],
    "id": 15429
  },
  {
    "type": 17,
    "icao": "CL82",
    "lat": 34.20764361,
    "lon": -118.88245751,
    "communications": [],
    "elevation": 758,
    "tower": false,
    "name": "[H] Los Robles Regional Medical Center",
    "runways": [
      {
        "type": 102,
        "width": 15.2,
        "surfaceType": 2,
        "numberStart": "H1",
        "numberEnd": null,
        "latStart": 34.20764361,
        "lonStart": -118.88245751,
        "latEnd": null,
        "lonEnd": null,
        "length": 15.2
      }
    ],
    "id": 15430
  },
  {
    "type": 17,
    "icao": "CL89",
    "lat": 34.23889222,
    "lon": -118.56925306,
    "communications": [],
    "elevation": 857,
    "tower": false,
    "name": "[H] Los Angeles Times - Northridge",
    "runways": [
      {
        "type": 102,
        "width": 15.2,
        "surfaceType": 2,
        "numberStart": "H1",
        "numberEnd": null,
        "latStart": 34.23889222,
        "lonStart": -118.56925306,
        "latEnd": null,
        "lonEnd": null,
        "length": 15.2
      }
    ],
    "id": 15435
  },
  {
    "type": 1,
    "icao": "KPMD",
    "lat": 34.62938675000001,
    "lon": -118.0845505,
    "communications": [
      {
        "type": 50,
        "frequency": 11827,
        "name": "ASOS"
      },
      {
        "type": 51,
        "frequency": 12370,
        "name": "CTAF"
      },
      {
        "type": 53,
        "frequency": 12190,
        "name": "GND"
      },
      {
        "type": 54,
        "frequency": 12370,
        "name": "TWR"
      },
      {
        "type": 55,
        "frequency": 12455,
        "name": "JOSHUA APP/DEP"
      }
    ],
    "elevation": 2543,
    "tower": true,
    "name": "PALMDALE RGNL USAF PLT 42",
    "runways": [
      {
        "type": 100,
        "width": 45.72,
        "surfaceType": null,
        "numberStart": "07",
        "numberEnd": "25",
        "latStart": 34.630586,
        "lonStart": -118.113061,
        "latEnd": 34.632775,
        "lonEnd": -118.073269,
        "length": 0,
        "surfacetype": 2
      },
      {
        "type": 100,
        "width": 45.72,
        "surfaceType": null,
        "numberStart": "04",
        "numberEnd": "22",
        "latStart": 34.6169,
        "lonStart": -118.091611,
        "latEnd": 34.637286,
        "lonEnd": -118.060261,
        "length": 0,
        "surfacetype": 2
      }
    ],
    "id": 19688
  },
  {
    "type": 17,
    "icao": "L55",
    "lat": 34.04445166,
    "lon": -118.693975,
    "communications": [],
    "elevation": 455,
    "tower": false,
    "name": "[H] Hughes Malibu",
    "runways": [
      {
        "type": 102,
        "width": 42.7,
        "surfaceType": 1,
        "numberStart": "H1",
        "numberEnd": null,
        "latStart": 34.04445166,
        "lonStart": -118.693975,
        "latEnd": null,
        "lonEnd": null,
        "length": 45.7
      }
    ],
    "id": 20009
  }
]