[
  {
    "type": 1,
    "icao": "LILR",
    "lat": 45.16610131666666,
    "lon": 10.00378358,
    "communications": [
      {
        "type": 54,
        "frequency": 11965,
        "name": "Tower"
      }
    ],
    "elevation": 161,
    "tower": false,
    "name": "Cremona Migliaro",
    "runways": [
      {
        "type": 100,
        "width": 29.87,
        "surfaceType": null,
        "numberStart": "11",
        "numberEnd": "29",
        "latStart": 45.16771577,
        "lonStart": 9.99835029,
        "latEnd": 45.16562003,
        "lonEnd": 10.00609391,
        "length": 0,
        "surfacetype": 1
      },
      {
        "type": 102,
        "width": 13.1,
        "surfaceType": 1,
        "numberStart": "H2",
        "numberEnd": null,
        "latStart": 45.16496815,
        "lonStart": 10.00690654,
        "latEnd": null,
        "lonEnd": null,
        "length": 13.1
      }
    ],
    "id": 5480
  },
  {
    "type": 1,
    "icao": "LIPL",
    "lat": 45.4321665,
    "lon": 10.267667,
    "communications": [
      {
        "type": 54,
        "frequency": 12210,
        "name": "TWR"
      },
      {
        "type": 55,
        "frequency": 12445,
        "name": "GARDA APP"
      },
      {
        "type": 55,
        "frequency": 12425,
        "name": "GARDA APP"
      }
    ],
    "elevation": 333,
    "tower": true,
    "name": "GHEDI",
    "runways": [
      {
        "type": 100,
        "width": 45.11,
        "surfaceType": null,
        "numberStart": "13",
        "numberEnd": "31",
        "latStart": 45.441647,
        "lonStart": 10.254206,
        "latEnd": 45.422686,
        "lonEnd": 10.281128,
        "length": 0,
        "surfacetype": 1
      }
    ],
    "id": 9989
  },
  {
    "type": 1,
    "icao": "LIDM",
    "lat": 45.135278,
    "lon": 10.794722,
    "communications": [],
    "elevation": 82,
    "tower": false,
    "name": "Mantova",
    "runways": [
      {
        "type": 100,
        "width": 49.99,
        "surfaceType": null,
        "numberStart": "04",
        "numberEnd": "22",
        "latStart": 45.1321031,
        "lonStart": 10.79157063,
        "latEnd": 45.1384529,
        "lonEnd": 10.79787337,
        "length": 0,
        "surfacetype": 3
      }
    ],
    "id": 16617
  },
  {
    "type": 1,
    "icao": "LIPO",
    "lat": 45.42854826,
    "lon": 10.331283005,
    "communications": [
      {
        "type": 54,
        "frequency": 11940,
        "name": "TWR"
      },
      {
        "type": 54,
        "frequency": 12210,
        "name": "TWR"
      },
      {
        "type": 55,
        "frequency": 12445,
        "name": "GARDA APP"
      },
      {
        "type": 55,
        "frequency": 12425,
        "name": "GARDA APP"
      },
      {
        "type": 55,
        "frequency": 11855,
        "name": "GARDA APP"
      }
    ],
    "elevation": 344,
    "tower": true,
    "name": "Montichiari",
    "runways": [
      {
        "type": 100,
        "width": 46.94,
        "surfaceType": null,
        "numberStart": "14",
        "numberEnd": "32",
        "latStart": 45.43806316,
        "lonStart": 10.31772512,
        "latEnd": 45.41903336,
        "lonEnd": 10.34484089,
        "length": 0,
        "surfacetype": 1
      }
    ],
    "id": 17433
  },
  {
    "type": 1,
    "icao": "LIPN",
    "lat": 45.472016999999994,
    "lon": 10.927918,
    "communications": [],
    "elevation": 286,
    "tower": false,
    "name": "VERONA BOSCOMANTICO",
    "runways": [
      {
        "type": 100,
        "width": 21.95,
        "surfaceType": null,
        "numberStart": "08",
        "numberEnd": "26",
        "latStart": 45.470817,
        "lonStart": 10.921664,
        "latEnd": 45.473217,
        "lonEnd": 10.934172,
        "length": 0,
        "surfacetype": 1
      }
    ],
    "id": 26075
  },
  {
    "type": 1,
    "icao": "LIPX",
    "lat": 45.396198174999995,
    "lon": 10.88926313,
    "communications": [
      {
        "type": 55,
        "frequency": 11855,
        "name": "Verona APP"
      },
      {
        "type": 55,
        "frequency": 12425,
        "name": "Verona APP"
      },
      {
        "type": 55,
        "frequency": 13590,
        "name": "Verona APP"
      },
      {
        "type": 55,
        "frequency": 11855,
        "name": "Verona Radar"
      },
      {
        "type": 55,
        "frequency": 12425,
        "name": "Verona Radar"
      },
      {
        "type": 55,
        "frequency": 13590,
        "name": "Verona Radar"
      },
      {
        "type": 56,
        "frequency": 11855,
        "name": "Verona Radar"
      },
      {
        "type": 56,
        "frequency": 12425,
        "name": "Verona Radar"
      },
      {
        "type": 56,
        "frequency": 13590,
        "name": "Verona Radar"
      },
      {
        "type": 54,
        "frequency": 12175,
        "name": "Villafranca GND"
      },
      {
        "type": 53,
        "frequency": 13150,
        "name": "Villa Apron"
      },
      {
        "type": 54,
        "frequency": 11865,
        "name": "Villafranca TWR"
      }
    ],
    "elevation": 240,
    "tower": true,
    "name": "Verona Villafranca",
    "runways": [
      {
        "type": 100,
        "width": 45,
        "surfaceType": null,
        "numberStart": "04",
        "numberEnd": "22",
        "latStart": 45.38576457,
        "lonStart": 10.87407428,
        "latEnd": 45.40663178,
        "lonEnd": 10.90445198,
        "length": 0,
        "surfacetype": 1
      }
    ],
    "id": 26287
  }
]