[
  {
    "type": 1,
    "icao": "RKPK",
    "lat": 35.180627385,
    "lon": 128.9379992475,
    "communications": [
      {
        "type": 50,
        "frequency": 12660,
        "name": "ATIS"
      },
      {
        "type": 52,
        "frequency": 12180,
        "name": "CLNC DEL"
      },
      {
        "type": 53,
        "frequency": 12190,
        "name": "GND"
      },
      {
        "type": 54,
        "frequency": 11845,
        "name": "TWR"
      },
      {
        "type": 54,
        "frequency": 11810,
        "name": "TWR"
      },
      {
        "type": 55,
        "frequency": 12550,
        "name": "APP"
      },
      {
        "type": 55,
        "frequency": 11920,
        "name": "ARR"
      },
      {
        "type": 55,
        "frequency": 13440,
        "name": "ARR"
      },
      {
        "type": 56,
        "frequency": 12550,
        "name": "DEP"
      }
    ],
    "elevation": 5,
    "tower": true,
    "name": "GIMHAE INTL",
    "runways": [
      {
        "type": 100,
        "width": 60.05,
        "surfaceType": null,
        "numberStart": "18R",
        "numberEnd": "36L",
        "latStart": 35.19385376,
        "lonStart": 128.93512628,
        "latEnd": 35.16515295,
        "lonEnd": 128.93883458,
        "length": 0,
        "surfacetype": 2
      },
      {
        "type": 100,
        "width": 45.72,
        "surfaceType": null,
        "numberStart": "18L",
        "numberEnd": "36R",
        "latStart": 35.19446734,
        "lonStart": 128.9373689,
        "latEnd": 35.16903549,
        "lonEnd": 128.94066723,
        "length": 0,
        "surfacetype": 1
      }
    ],
    "id": 4470
  },
  {
    "type": 1,
    "icao": "RKD1",
    "lat": 35.258160000000004,
    "lon": 128.62553450000001,
    "communications": [],
    "elevation": 110,
    "tower": false,
    "name": "G 802",
    "runways": [
      {
        "type": 100,
        "width": 30.48,
        "surfaceType": null,
        "numberStart": "04",
        "numberEnd": "22",
        "latStart": 35.256817,
        "lonStart": 128.624233,
        "latEnd": 35.259503,
        "lonEnd": 128.626836,
        "length": 0,
        "surfacetype": 2
      }
    ],
    "id": 24488
  },
  {
    "type": 1,
    "icao": "RKPE",
    "lat": 35.140930499999996,
    "lon": 128.69566500000002,
    "communications": [
      {
        "type": 54,
        "frequency": 12980,
        "name": "TWR"
      },
      {
        "type": 54,
        "frequency": 12620,
        "name": "TWR"
      },
      {
        "type": 55,
        "frequency": 13570,
        "name": "GIMHAE APP"
      }
    ],
    "elevation": 8,
    "tower": true,
    "name": "JINHAE",
    "runways": [
      {
        "type": 100,
        "width": 23.77,
        "surfaceType": null,
        "numberStart": "18",
        "numberEnd": "36",
        "latStart": 35.145786,
        "lonStart": 128.694519,
        "latEnd": 35.136075,
        "lonEnd": 128.696811,
        "length": 0,
        "surfacetype": 1
      }
    ],
    "id": 24500
  },
  {
    "type": 1,
    "icao": "RKPS",
    "lat": 35.08872525,
    "lon": 128.07090825,
    "communications": [
      {
        "type": 50,
        "frequency": 13235,
        "name": "ATIS"
      },
      {
        "type": 53,
        "frequency": 12620,
        "name": "GND"
      },
      {
        "type": 54,
        "frequency": 12620,
        "name": "TWR"
      },
      {
        "type": 54,
        "frequency": 13020,
        "name": "TWR"
      },
      {
        "type": 55,
        "frequency": 11972,
        "name": "APP"
      },
      {
        "type": 55,
        "frequency": 11972,
        "name": "RAPCON"
      },
      {
        "type": 56,
        "frequency": 11972,
        "name": "DEP"
      }
    ],
    "elevation": 25,
    "tower": true,
    "name": "SACHEON AB",
    "runways": [
      {
        "type": 100,
        "width": 45.72,
        "surfaceType": null,
        "numberStart": "06L",
        "numberEnd": "24R",
        "latStart": 35.082167,
        "lonStart": 128.057283,
        "latEnd": 35.096217,
        "lonEnd": 128.081817,
        "length": 0,
        "surfacetype": 2
      },
      {
        "type": 100,
        "width": 45.72,
        "surfaceType": null,
        "numberStart": "06R",
        "numberEnd": "24L",
        "latStart": 35.081317,
        "lonStart": 128.059733,
        "latEnd": 35.0952,
        "lonEnd": 128.0848,
        "length": 0,
        "surfacetype": 2
      }
    ],
    "id": 24501
  },
  {
    "type": 1,
    "icao": "RKTN",
    "lat": 35.89414025,
    "lon": 128.659054,
    "communications": [
      {
        "type": 50,
        "frequency": 12765,
        "name": "ATIS"
      },
      {
        "type": 52,
        "frequency": 11820,
        "name": "CLNC DEL"
      },
      {
        "type": 53,
        "frequency": 11820,
        "name": "GND"
      },
      {
        "type": 54,
        "frequency": 12620,
        "name": "TWR"
      },
      {
        "type": 55,
        "frequency": 13590,
        "name": "APP"
      },
      {
        "type": 56,
        "frequency": 13590,
        "name": "DEP"
      }
    ],
    "elevation": 116,
    "tower": true,
    "name": "DAEGU AB",
    "runways": [
      {
        "type": 100,
        "width": 45.72,
        "surfaceType": null,
        "numberStart": "13R",
        "numberEnd": "31L",
        "latStart": 35.900611,
        "lonStart": 128.645833,
        "latEnd": 35.886667,
        "lonEnd": 128.671,
        "length": 0,
        "surfacetype": 2
      },
      {
        "type": 100,
        "width": 45.72,
        "surfaceType": null,
        "numberStart": "13L",
        "numberEnd": "31R",
        "latStart": 35.901639,
        "lonStart": 128.647139,
        "latEnd": 35.887644,
        "lonEnd": 128.672244,
        "length": 0,
        "surfacetype": 2
      }
    ],
    "id": 24517
  }
]