[
  {
    "type": 1,
    "icao": "CYWM",
    "lat": 54.7431945,
    "lon": -29.232916499999998,
    "communications": [
      {
        "type": 51,
        "frequency": 12320,
        "name": "CTAF"
      }
    ],
    "elevation": 1971,
    "tower": false,
    "name": "ATHABASCA",
    "runways": [
      {
        "type": 100,
        "width": 30.48,
        "surfaceType": null,
        "numberStart": "16",
        "numberEnd": "34",
        "latStart": 54.748611,
        "lonStart": -113.203611,
        "latEnd": 54.737778,
        "lonEnd": -113.203889,
        "length": 0,
        "surfacetype": 1
      }
    ],
    "id": 445
  },
  {
    "type": 1,
    "icao": "FM7",
    "lat": 54.57069,
    "lon": -29.127850624999997,
    "communications": [],
    "elevation": 2153,
    "tower": false,
    "name": "Boyle",
    "runways": [
      {
        "type": 100,
        "width": 22.86,
        "surfaceType": null,
        "numberStart": "08",
        "numberEnd": "26",
        "latStart": 54.57140447,
        "lonStart": -112.82567678,
        "latEnd": 54.56997553,
        "lonEnd": -112.81169722,
        "length": 0,
        "surfacetype": 3
      }
    ],
    "id": 3084
  },
  {
    "type": 1,
    "icao": "ES4",
    "lat": 54.142221000000006,
    "lon": -29.803335999999998,
    "communications": [
      {
        "type": 51,
        "frequency": 12280,
        "name": "CTAF/UNICOM"
      }
    ],
    "elevation": 2213,
    "tower": false,
    "name": "Westlock",
    "runways": [
      {
        "type": 100,
        "width": 22.86,
        "surfaceType": null,
        "numberStart": "10",
        "numberEnd": "28",
        "latStart": 54.144164,
        "lonStart": -113.74695,
        "latEnd": 54.140278,
        "lonEnd": -113.734731,
        "length": 0,
        "surfacetype": 1
      }
    ],
    "id": 27151
  }
]