[
  {
    "type": 17,
    "icao": "ENOA",
    "lat": 60.49155242,
    "lon": 2.826263965,
    "communications": [],
    "elevation": 0,
    "tower": false,
    "name": "[H] Oseberg A Platform",
    "runways": [
      {
        "type": 102,
        "width": 12,
        "surfaceType": 15,
        "numberStart": "H1",
        "numberEnd": null,
        "latStart": 60.491389,
        "lonStart": 2.825556,
        "latEnd": null,
        "lonEnd": null,
        "length": 12
      },
      {
        "type": 102,
        "width": 12,
        "surfaceType": 15,
        "numberStart": "H2",
        "numberEnd": null,
        "latStart": 60.49171584,
        "lonStart": 2.82697193,
        "latEnd": null,
        "lonEnd": null,
        "length": 12
      }
    ],
    "id": 1750
  },
  {
    "type": 17,
    "icao": "ENOC",
    "lat": 60.607778,
    "lon": 2.774444,
    "communications": [],
    "elevation": 0,
    "tower": false,
    "name": "[H] Oseberg C Platform",
    "runways": [
      {
        "type": 102,
        "width": 10,
        "surfaceType": 15,
        "numberStart": "H1",
        "numberEnd": null,
        "latStart": 60.607778,
        "lonStart": 2.774444,
        "latEnd": null,
        "lonEnd": null,
        "length": 10
      }
    ],
    "id": 1751
  },
  {
    "type": 17,
    "icao": "ENQE",
    "lat": 60.389722,
    "lon": 2.795556,
    "communications": [],
    "elevation": 0,
    "tower": false,
    "name": "[H] Oseberg South Platform",
    "runways": [
      {
        "type": 102,
        "width": 10,
        "surfaceType": 15,
        "numberStart": "H1",
        "numberEnd": null,
        "latStart": 60.389722,
        "lonStart": 2.795556,
        "latEnd": null,
        "lonEnd": null,
        "length": 10
      }
    ],
    "id": 1757
  },
  {
    "type": 17,
    "icao": "ENQO",
    "lat": 60.7,
    "lon": 2.933611,
    "communications": [],
    "elevation": 0,
    "tower": false,
    "name": "[H] Oseberg East Platform",
    "runways": [
      {
        "type": 102,
        "width": 10,
        "surfaceType": 15,
        "numberStart": "H1",
        "numberEnd": null,
        "latStart": 60.7,
        "lonStart": 2.933611,
        "latEnd": null,
        "lonEnd": null,
        "length": 10
      }
    ],
    "id": 1758
  },
  {
    "type": 17,
    "icao": "ENQU",
    "lat": 60.855278,
    "lon": 2.648611,
    "communications": [],
    "elevation": 0,
    "tower": false,
    "name": "[H] Hulda Platform",
    "runways": [
      {
        "type": 102,
        "width": 10,
        "surfaceType": 15,
        "numberStart": "H1",
        "numberEnd": null,
        "latStart": 60.855278,
        "lonStart": 2.648611,
        "latEnd": null,
        "lonEnd": null,
        "length": 10
      }
    ],
    "id": 1759
  },
  {
    "type": 17,
    "icao": "ENVF",
    "lat": 60.78238521,
    "lon": 2.89682563,
    "communications": [],
    "elevation": 0,
    "tower": false,
    "name": "[H] Veslefrikk B Platform",
    "runways": [
      {
        "type": 102,
        "width": 12,
        "surfaceType": 15,
        "numberStart": "H1",
        "numberEnd": null,
        "latStart": 60.782222,
        "lonStart": 2.896111,
        "latEnd": null,
        "lonEnd": null,
        "length": 12
      },
      {
        "type": 102,
        "width": 12,
        "surfaceType": 15,
        "numberStart": "H2",
        "numberEnd": null,
        "latStart": 60.78254842,
        "lonStart": 2.89754026,
        "latEnd": null,
        "lonEnd": null,
        "length": 12
      }
    ],
    "id": 1771
  }
]