[
  {
    "type": 1,
    "icao": "SELT",
    "lat": -0.9068335000000001,
    "lon": -39.768997,
    "communications": [
      {
        "type": 53,
        "frequency": 12190,
        "name": "LATACUNGA GND"
      },
      {
        "type": 54,
        "frequency": 11850,
        "name": "LATACUNGA APP/TWR"
      }
    ],
    "elevation": 9205,
    "tower": true,
    "name": "COTOPAXI INTL",
    "runways": [
      {
        "type": 100,
        "width": 45.11,
        "surfaceType": null,
        "numberStart": "18",
        "numberEnd": "36",
        "latStart": -0.890181,
        "lonStart": -78.614508,
        "latEnd": -0.923486,
        "lonEnd": -78.617006,
        "length": 0,
        "surfacetype": 1
      }
    ],
    "id": 4184
  },
  {
    "type": 1,
    "icao": "SE11",
    "lat": -0.5366744999999999,
    "lon": -39.950529,
    "communications": [],
    "elevation": 1640,
    "tower": false,
    "name": "KM 60",
    "runways": [
      {
        "type": 100,
        "width": 14.94,
        "surfaceType": null,
        "numberStart": "01",
        "numberEnd": "19",
        "latStart": -0.542026,
        "lonStart": -79.369735,
        "latEnd": -0.531323,
        "lonEnd": -79.367953,
        "length": 0,
        "surfacetype": 1
      }
    ],
    "id": 13429
  },
  {
    "type": 1,
    "icao": "SETE",
    "lat": -0.9867485,
    "lon": -39.4063015,
    "communications": [
      {
        "type": 54,
        "frequency": 12280,
        "name": "TENA TWR"
      }
    ],
    "elevation": 1708,
    "tower": true,
    "name": "MAYOR GALO TORRES",
    "runways": [
      {
        "type": 100,
        "width": 14.94,
        "surfaceType": null,
        "numberStart": "10",
        "numberEnd": "28",
        "latStart": -0.985647,
        "lonStart": -77.824753,
        "latEnd": -0.98785,
        "lonEnd": -77.814139,
        "length": 0,
        "surfacetype": 1
      }
    ],
    "id": 15951
  },
  {
    "type": 1,
    "icao": "SEQM",
    "lat": -0.124160045,
    "lon": -39.248932700000005,
    "communications": [
      {
        "type": 53,
        "frequency": 12190,
        "name": "QUITO Ground Control"
      },
      {
        "type": 50,
        "frequency": 11890,
        "name": "QUITO ATIS"
      },
      {
        "type": 52,
        "frequency": 12880,
        "name": "QUITO Clearence Delivery"
      },
      {
        "type": 55,
        "frequency": 11970,
        "name": "QUITO Approach"
      },
      {
        "type": 55,
        "frequency": 12120,
        "name": "QUITO Approach 2"
      },
      {
        "type": 54,
        "frequency": 11810,
        "name": "QUITO Tower"
      }
    ],
    "elevation": 7840,
    "tower": true,
    "name": "Quito - Mariscal Sucre Intl",
    "runways": [
      {
        "type": 100,
        "width": 45.11,
        "surfaceType": null,
        "numberStart": "18",
        "numberEnd": "36",
        "latStart": -0.10564619,
        "lonStart": -78.3551915,
        "latEnd": -0.1426739,
        "lonEnd": -78.35360073,
        "length": 0,
        "surfacetype": 1
      }
    ],
    "id": 20727
  },
  {
    "type": 1,
    "icao": "SESD",
    "lat": -0.248222,
    "lon": -39.734626,
    "communications": [],
    "elevation": 1714,
    "tower": true,
    "name": "SANTO DOMINGO LOS COLORADOS",
    "runways": [
      {
        "type": 100,
        "width": 24.99,
        "surfaceType": null,
        "numberStart": "11",
        "numberEnd": "29",
        "latStart": -0.246583,
        "lonStart": -79.219391,
        "latEnd": -0.249861,
        "lonEnd": -79.209503,
        "length": 0,
        "surfacetype": 1
      }
    ],
    "id": 22064
  }
]