[
  {
    "type": 17,
    "icao": "LS85",
    "lat": 30.0127025,
    "lon": -90.18007501,
    "communications": [],
    "elevation": 37,
    "tower": false,
    "name": "[H] East Jefferson General Hospital",
    "runways": [
      {
        "type": 102,
        "width": 22.9,
        "surfaceType": 1,
        "numberStart": "H1",
        "numberEnd": null,
        "latStart": 30.0127025,
        "lonStart": -90.18007501,
        "latEnd": null,
        "lonEnd": null,
        "length": 22.9
      }
    ],
    "id": 29455
  },
  {
    "type": 17,
    "icao": "8LA8",
    "lat": 30.30102777,
    "lon": -90.90148612,
    "communications": [],
    "elevation": 60,
    "tower": false,
    "name": "[H] Galvez-Lake Vfd",
    "runways": [
      {
        "type": 102,
        "width": 7.3,
        "surfaceType": 3,
        "numberStart": "H1",
        "numberEnd": null,
        "latStart": 30.30102777,
        "lonStart": -90.90148612,
        "latEnd": null,
        "lonEnd": null,
        "length": 7.3
      }
    ],
    "id": 29876
  },
  {
    "type": 17,
    "icao": "LA02",
    "lat": 30.51835722,
    "lon": -90.56645223,
    "communications": [],
    "elevation": 41,
    "tower": false,
    "name": "[H] Hammond Developmental Center",
    "runways": [
      {
        "type": 102,
        "width": 12.2,
        "surfaceType": 2,
        "numberStart": "H1",
        "numberEnd": null,
        "latStart": 30.51835722,
        "lonStart": -90.56645223,
        "latEnd": null,
        "lonEnd": null,
        "length": 12.2
      }
    ],
    "id": 30110
  },
  {
    "type": 17,
    "icao": "87LA",
    "lat": 30.196865,
    "lon": -90.01562806,
    "communications": [],
    "elevation": 167,
    "tower": false,
    "name": "[H] Lafayette Hilton",
    "runways": [
      {
        "type": 102,
        "width": 12.2,
        "surfaceType": 2,
        "numberStart": "H1",
        "numberEnd": null,
        "latStart": 30.196865,
        "lonStart": -90.01562806,
        "latEnd": null,
        "lonEnd": null,
        "length": 12.2
      }
    ],
    "id": 30806
  },
  {
    "type": 17,
    "icao": "LS14",
    "lat": 30.62241055,
    "lon": -90.49786862,
    "communications": [],
    "elevation": 80,
    "tower": false,
    "name": "[H] Lallie Kemp Regional Medical Center",
    "runways": [
      {
        "type": 102,
        "width": 15.2,
        "surfaceType": 3,
        "numberStart": "H1",
        "numberEnd": null,
        "latStart": 30.62241055,
        "lonStart": -90.49786862,
        "latEnd": null,
        "lonEnd": null,
        "length": 15.2
      }
    ],
    "id": 30830
  },
  {
    "type": 17,
    "icao": "19LA",
    "lat": 30.44769277,
    "lon": -90.10313278,
    "communications": [],
    "elevation": 68,
    "tower": false,
    "name": "[H] Region 1 Headquarters-State Police",
    "runways": [
      {
        "type": 102,
        "width": 6.1,
        "surfaceType": 2,
        "numberStart": "H1",
        "numberEnd": null,
        "latStart": 30.44769277,
        "lonStart": -90.10313278,
        "latEnd": null,
        "lonEnd": null,
        "length": 6.1
      }
    ],
    "id": 32299
  },
  {
    "type": 17,
    "icao": "LS57",
    "lat": 30.07150694,
    "lon": -90.51544695,
    "communications": [],
    "elevation": 8,
    "tower": false,
    "name": "[H] River Parish Hospital",
    "runways": [
      {
        "type": 102,
        "width": 8.2,
        "surfaceType": 2,
        "numberStart": "H1",
        "numberEnd": null,
        "latStart": 30.07150694,
        "lonStart": -90.51544695,
        "latEnd": null,
        "lonEnd": null,
        "length": 11
      }
    ],
    "id": 32361
  },
  {
    "type": 17,
    "icao": "LS20",
    "lat": 30.20408555,
    "lon": -90.93204306,
    "communications": [],
    "elevation": 8,
    "tower": false,
    "name": "[H] Riverview Medical Center",
    "runways": [
      {
        "type": 102,
        "width": 15.2,
        "surfaceType": 2,
        "numberStart": "H1",
        "numberEnd": null,
        "latStart": 30.20408555,
        "lonStart": -90.93204306,
        "latEnd": null,
        "lonEnd": null,
        "length": 15.2
      }
    ],
    "id": 32374
  },
  {
    "type": 17,
    "icao": "LS02",
    "lat": 30.46491444,
    "lon": -90.46203223,
    "communications": [],
    "elevation": 38,
    "tower": false,
    "name": "[H] Seventh Ward General Hospital",
    "runways": [
      {
        "type": 102,
        "width": 14.6,
        "surfaceType": 2,
        "numberStart": "H1",
        "numberEnd": null,
        "latStart": 30.46491444,
        "lonStart": -90.46203223,
        "latEnd": null,
        "lonEnd": null,
        "length": 22.9
      }
    ],
    "id": 32650
  },
  {
    "type": 17,
    "icao": "LS22",
    "lat": 30.83184888,
    "lon": -90.66620834,
    "communications": [],
    "elevation": 180,
    "tower": false,
    "name": "[H] St Helena Parish Hospital",
    "runways": [
      {
        "type": 102,
        "width": 12.2,
        "surfaceType": 2,
        "numberStart": "H1",
        "numberEnd": null,
        "latStart": 30.83184888,
        "lonStart": -90.66620834,
        "latEnd": null,
        "lonEnd": null,
        "length": 12.2
      }
    ],
    "id": 32898
  },
  {
    "type": 17,
    "icao": "LS32",
    "lat": 30.02492472,
    "lon": -90.26896667,
    "communications": [],
    "elevation": 22,
    "tower": false,
    "name": "[H] St Jude",
    "runways": [
      {
        "type": 102,
        "width": 15.2,
        "surfaceType": 2,
        "numberStart": "H1",
        "numberEnd": null,
        "latStart": 30.02492472,
        "lonStart": -90.26896667,
        "latEnd": null,
        "lonEnd": null,
        "length": 15.2
      }
    ],
    "id": 32938
  },
  {
    "type": 17,
    "icao": "90LA",
    "lat": 30.95018194,
    "lon": -90.08341862,
    "communications": [],
    "elevation": 48,
    "tower": false,
    "name": "[H] Superdome",
    "runways": [
      {
        "type": 102,
        "width": 30.5,
        "surfaceType": 2,
        "numberStart": "H1",
        "numberEnd": null,
        "latStart": 30.95018194,
        "lonStart": -90.08341862,
        "latEnd": null,
        "lonEnd": null,
        "length": 91.4
      }
    ],
    "id": 33142
  },
  {
    "type": 17,
    "icao": "98LA",
    "lat": 30.40324944,
    "lon": -90.08868751,
    "communications": [],
    "elevation": 23,
    "tower": false,
    "name": "[H] Troop L",
    "runways": [
      {
        "type": 102,
        "width": 3.7,
        "surfaceType": 1,
        "numberStart": "H1",
        "numberEnd": null,
        "latStart": 30.40324944,
        "lonStart": -90.08868751,
        "latEnd": null,
        "lonEnd": null,
        "length": 3.7
      }
    ],
    "id": 33408
  }
]