[
  {
    "type": 1,
    "icao": "KEMT",
    "lat": 34.085220145,
    "lon": -92.68072935,
    "communications": [
      {
        "type": 50,
        "frequency": 11875,
        "name": "AWOS-3PT"
      },
      {
        "type": 51,
        "frequency": 12120,
        "name": "CTAF"
      },
      {
        "type": 50,
        "frequency": 11875,
        "name": "ATIS"
      },
      {
        "type": 51,
        "frequency": 12295,
        "name": "UNICOM"
      },
      {
        "type": 54,
        "frequency": 12120,
        "name": "TOWER"
      },
      {
        "type": 53,
        "frequency": 12590,
        "name": "GND CON"
      },
      {
        "type": 55,
        "frequency": 12550,
        "name": "SOCAL APP CON"
      },
      {
        "type": 56,
        "frequency": 12550,
        "name": "SOCAL DEP CON"
      }
    ],
    "elevation": 295,
    "tower": true,
    "name": "El Monte",
    "runways": [
      {
        "type": 100,
        "width": 22.86,
        "surfaceType": null,
        "numberStart": "01",
        "numberEnd": "19",
        "latStart": 34.08105395,
        "lonStart": -118.0376732,
        "latEnd": 34.09095862,
        "lonEnd": -118.03201238,
        "length": 0,
        "surfacetype": 1
      },
      {
        "type": 102,
        "width": 7.1,
        "surfaceType": 1,
        "numberStart": "H1",
        "numberEnd": null,
        "latStart": 34.08501914,
        "lonStart": -118.03444088,
        "latEnd": null,
        "lonEnd": null,
        "length": 7.1
      },
      {
        "type": 102,
        "width": 7.4,
        "surfaceType": 1,
        "numberStart": "H2",
        "numberEnd": null,
        "latStart": 34.08493099,
        "lonStart": -118.03422115,
        "latEnd": null,
        "lonEnd": null,
        "length": 7.7
      },
      {
        "type": 102,
        "width": 7.4,
        "surfaceType": 1,
        "numberStart": "H3",
        "numberEnd": null,
        "latStart": 34.08472414,
        "lonStart": -118.03461038,
        "latEnd": null,
        "lonEnd": null,
        "length": 7.7
      },
      {
        "type": 102,
        "width": 7.4,
        "surfaceType": 1,
        "numberStart": "H4",
        "numberEnd": null,
        "latStart": 34.08463403,
        "lonStart": -118.03438911,
        "latEnd": null,
        "lonEnd": null,
        "length": 7.7
      }
    ],
    "id": 7046
  },
  {
    "type": 17,
    "icao": "AR62",
    "lat": 34.74342527,
    "lon": -92.29153917,
    "communications": [],
    "elevation": 375,
    "tower": false,
    "name": "[H] Arkansas Childrens Hospital",
    "runways": [
      {
        "type": 102,
        "width": 8.2,
        "surfaceType": 2,
        "numberStart": "H1",
        "numberEnd": null,
        "latStart": 34.74342527,
        "lonStart": -92.29153917,
        "latEnd": null,
        "lonEnd": null,
        "length": 8.2
      }
    ],
    "id": 28175
  },
  {
    "type": 17,
    "icao": "0H5",
    "lat": 34.35759277,
    "lon": -92.78850056,
    "communications": [],
    "elevation": 350,
    "tower": false,
    "name": "[H] Hscmh",
    "runways": [
      {
        "type": 102,
        "width": 35.7,
        "surfaceType": 1,
        "numberStart": "H1",
        "numberEnd": null,
        "latStart": 34.35759277,
        "lonStart": -92.78850056,
        "latEnd": null,
        "lonEnd": null,
        "length": 35.7
      }
    ],
    "id": 30402
  },
  {
    "type": 17,
    "icao": "0J3",
    "lat": 34.18759805,
    "lon": -92.01791806,
    "communications": [],
    "elevation": 227,
    "tower": false,
    "name": "[H] Jrmc",
    "runways": [
      {
        "type": 102,
        "width": 12.2,
        "surfaceType": 2,
        "numberStart": "H1",
        "numberEnd": null,
        "latStart": 34.18759805,
        "lonStart": -92.01791806,
        "latEnd": null,
        "lonEnd": null,
        "length": 12.2
      }
    ],
    "id": 30653
  },
  {
    "type": 17,
    "icao": "5AR5",
    "lat": 34.74759194,
    "lon": -92.36682001,
    "communications": [],
    "elevation": 540,
    "tower": false,
    "name": "[H] Med-Flight",
    "runways": [
      {
        "type": 102,
        "width": 12.2,
        "surfaceType": 2,
        "numberStart": "H1",
        "numberEnd": null,
        "latStart": 34.74759194,
        "lonStart": -92.36682001,
        "latEnd": null,
        "lonEnd": null,
        "length": 18.3
      }
    ],
    "id": 31175
  },
  {
    "type": 17,
    "icao": "0B0",
    "lat": 34.57398138,
    "lon": -92.58293889,
    "communications": [],
    "elevation": 430,
    "tower": false,
    "name": "[H] Saline Memorial Hospital",
    "runways": [
      {
        "type": 102,
        "width": 12.2,
        "surfaceType": 1,
        "numberStart": "H1",
        "numberEnd": null,
        "latStart": 34.57398138,
        "lonStart": -92.58293889,
        "latEnd": null,
        "lonEnd": null,
        "length": 12.2
      }
    ],
    "id": 32525
  },
  {
    "type": 17,
    "icao": "5AR6",
    "lat": 34.65675944,
    "lon": -92.40459917,
    "communications": [],
    "elevation": 344,
    "tower": false,
    "name": "[H] Southwest Hospital",
    "runways": [
      {
        "type": 102,
        "width": 12.2,
        "surfaceType": 2,
        "numberStart": "H1",
        "numberEnd": null,
        "latStart": 34.65675944,
        "lonStart": -92.40459917,
        "latEnd": null,
        "lonEnd": null,
        "length": 12.2
      }
    ],
    "id": 32820
  },
  {
    "type": 17,
    "icao": "AR45",
    "lat": 34.7506475,
    "lon": -92.34070778,
    "communications": [],
    "elevation": 435,
    "tower": false,
    "name": "[H] St Vincent Infirmary",
    "runways": [
      {
        "type": 102,
        "width": 12.2,
        "surfaceType": 2,
        "numberStart": "H1",
        "numberEnd": null,
        "latStart": 34.7506475,
        "lonStart": -92.34070778,
        "latEnd": null,
        "lonEnd": null,
        "length": 12.2
      }
    ],
    "id": 33022
  },
  {
    "type": 17,
    "icao": "AR90",
    "lat": 34.73648083,
    "lon": -92.50876973,
    "communications": [],
    "elevation": 548,
    "tower": false,
    "name": "[H] Stephens",
    "runways": [
      {
        "type": 102,
        "width": 6.1,
        "surfaceType": 3,
        "numberStart": "H1",
        "numberEnd": null,
        "latStart": 34.73648083,
        "lonStart": -92.50876973,
        "latEnd": null,
        "lonEnd": null,
        "length": 6.1
      }
    ],
    "id": 33075
  },
  {
    "type": 17,
    "icao": "AR29",
    "lat": 34.74786972,
    "lon": -92.33959667,
    "communications": [],
    "elevation": 358,
    "tower": false,
    "name": "[H] Uams",
    "runways": [
      {
        "type": 102,
        "width": 7.6,
        "surfaceType": 2,
        "numberStart": "H1",
        "numberEnd": null,
        "latStart": 34.74786972,
        "lonStart": -92.33959667,
        "latEnd": null,
        "lonEnd": null,
        "length": 7.6
      }
    ],
    "id": 33459
  },
  {
    "type": 17,
    "icao": "6AR3",
    "lat": 34.75000861,
    "lon": -92.32042917,
    "communications": [],
    "elevation": 444,
    "tower": false,
    "name": "[H] University Hospital",
    "runways": [
      {
        "type": 102,
        "width": 18.3,
        "surfaceType": 2,
        "numberStart": "H1",
        "numberEnd": null,
        "latStart": 34.75000861,
        "lonStart": -92.32042917,
        "latEnd": null,
        "lonEnd": null,
        "length": 18.3
      }
    ],
    "id": 33502
  }
]