[
  {
    "type": 1,
    "icao": "13XS",
    "lat": 34.935366380000005,
    "lon": -92.19209305999999,
    "communications": [],
    "elevation": 311,
    "tower": false,
    "name": "Bethal",
    "runways": [
      {
        "type": 100,
        "width": 30.48,
        "surfaceType": null,
        "numberStart": "09",
        "numberEnd": "27",
        "latStart": 34.93546185,
        "lonStart": -92.19431505,
        "latEnd": 34.93527091,
        "lonEnd": -92.18987107,
        "length": 0,
        "surfacetype": 3
      }
    ],
    "id": 2633
  },
  {
    "type": 1,
    "icao": "AR84",
    "lat": 34.96647694,
    "lon": -92.29931862,
    "communications": [],
    "elevation": 350,
    "tower": false,
    "name": "Bobwhite Hill Ranch",
    "runways": [
      {
        "type": 100,
        "width": 18.29,
        "surfaceType": null,
        "numberStart": "01",
        "numberEnd": "19",
        "latStart": 34.96248469,
        "lonStart": -92.30053326,
        "latEnd": 34.97046919,
        "lonEnd": -92.29810398,
        "length": 0,
        "surfacetype": 3
      },
      {
        "type": 100,
        "width": 15.24,
        "surfaceType": null,
        "numberStart": "09",
        "numberEnd": "27",
        "latStart": 34.96666828,
        "lonStart": -92.30265766,
        "latEnd": 34.9662856,
        "lonEnd": -92.29597958,
        "length": 0,
        "surfacetype": 3
      }
    ],
    "id": 2897
  },
  {
    "type": 1,
    "icao": "5M2",
    "lat": 34.5334275,
    "lon": -92.10014417,
    "communications": [],
    "elevation": 232,
    "tower": false,
    "name": "Bredlow Farm",
    "runways": [
      {
        "type": 100,
        "width": 24.38,
        "surfaceType": null,
        "numberStart": "18",
        "numberEnd": "36",
        "latStart": 34.53643743,
        "lonStart": -92.09988868,
        "latEnd": 34.53041757,
        "lonEnd": -92.10039966,
        "length": 0,
        "surfacetype": 3
      }
    ],
    "id": 3145
  },
  {
    "type": 1,
    "icao": "AR82",
    "lat": 34.171207769999995,
    "lon": -92.69599612,
    "communications": [],
    "elevation": 492,
    "tower": false,
    "name": "Gillespie Strip",
    "runways": [
      {
        "type": 100,
        "width": 15.24,
        "surfaceType": null,
        "numberStart": "17",
        "numberEnd": "35",
        "latStart": 34.17352653,
        "lonStart": -92.69629068,
        "latEnd": 34.16888901,
        "lonEnd": -92.69570156,
        "length": 0,
        "surfacetype": 3
      }
    ],
    "id": 10478
  },
  {
    "type": 1,
    "icao": "AR83",
    "lat": 34.176207489999996,
    "lon": -92.70099639,
    "communications": [],
    "elevation": 500,
    "tower": false,
    "name": "Heard",
    "runways": [
      {
        "type": 100,
        "width": 15.24,
        "surfaceType": null,
        "numberStart": "04",
        "numberEnd": "22",
        "latStart": 34.17509267,
        "lonStart": -92.70229767,
        "latEnd": 34.17732231,
        "lonEnd": -92.69969511,
        "length": 0,
        "surfacetype": 3
      }
    ],
    "id": 11609
  },
  {
    "type": 1,
    "icao": "AR81",
    "lat": 34.162319440000005,
    "lon": -92.60377112,
    "communications": [],
    "elevation": 250,
    "tower": false,
    "name": "Katheryns Landing",
    "runways": [
      {
        "type": 100,
        "width": 18.29,
        "surfaceType": null,
        "numberStart": "03",
        "numberEnd": "21",
        "latStart": 34.15913579,
        "lonStart": -92.60636632,
        "latEnd": 34.16550309,
        "lonEnd": -92.60117592,
        "length": 0,
        "surfacetype": 3
      }
    ],
    "id": 13656
  },
  {
    "type": 1,
    "icao": "KLRF",
    "lat": 34.91851375,
    "lon": -92.14287374999999,
    "communications": [
      {
        "type": 53,
        "frequency": 13280,
        "name": "GND"
      },
      {
        "type": 54,
        "frequency": 12060,
        "name": "TWR"
      },
      {
        "type": 55,
        "frequency": 11950,
        "name": "APP/DEP"
      }
    ],
    "elevation": 311,
    "tower": true,
    "name": "LITTLE ROCK AFB",
    "runways": [
      {
        "type": 100,
        "width": 60.96,
        "surfaceType": null,
        "numberStart": "07",
        "numberEnd": "25",
        "latStart": 34.911408,
        "lonStart": -92.165475,
        "latEnd": 34.922147,
        "lonEnd": -92.127631,
        "length": 0,
        "surfacetype": 2
      },
      {
        "type": 100,
        "width": 18.29,
        "surfaceType": null,
        "numberStart": "06",
        "numberEnd": "24",
        "latStart": 34.918692,
        "lonStart": -92.144717,
        "latEnd": 34.921808,
        "lonEnd": -92.133672,
        "length": 0,
        "surfacetype": 1
      }
    ],
    "id": 14559
  },
  {
    "type": 1,
    "icao": "KLIT",
    "lat": 34.72958918,
    "lon": -92.22588459166666,
    "communications": [
      {
        "type": 50,
        "frequency": 12565,
        "name": "ATIS"
      },
      {
        "type": 51,
        "frequency": 12295,
        "name": "UNICOM"
      },
      {
        "type": 52,
        "frequency": 11895,
        "name": "CLNC DEL"
      },
      {
        "type": 53,
        "frequency": 12190,
        "name": "GND"
      },
      {
        "type": 54,
        "frequency": 11870,
        "name": "TWR"
      },
      {
        "type": 55,
        "frequency": 11950,
        "name": "LITTLE ROCK APP/DEP"
      },
      {
        "type": 55,
        "frequency": 13540,
        "name": "LITTLE ROCK APP/DEP"
      }
    ],
    "elevation": 262,
    "tower": true,
    "name": "Little Rock Adams Field",
    "runways": [
      {
        "type": 100,
        "width": 45.72,
        "surfaceType": null,
        "numberStart": "04L",
        "numberEnd": "22R",
        "latStart": 34.722514,
        "lonStart": -92.238022,
        "latEnd": 34.738156,
        "lonEnd": -92.21805,
        "length": 0,
        "surfacetype": 2
      },
      {
        "type": 100,
        "width": 45.72,
        "surfaceType": null,
        "numberStart": "04R",
        "numberEnd": "22L",
        "latStart": 34.71940251,
        "lonStart": -92.2212037,
        "latEnd": 34.734983,
        "lonEnd": -92.2013,
        "length": 0,
        "surfacetype": 2
      },
      {
        "type": 100,
        "width": 45.72,
        "surfaceType": null,
        "numberStart": "18",
        "numberEnd": "36",
        "latStart": 34.73979269,
        "lonStart": -92.23809354,
        "latEnd": 34.72268688,
        "lonEnd": -92.23863831,
        "length": 0,
        "surfacetype": 2
      }
    ],
    "id": 15349
  },
  {
    "type": 1,
    "icao": "M78",
    "lat": 34.333102499999995,
    "lon": -92.76169999999999,
    "communications": [
      {
        "type": 51,
        "frequency": 12280,
        "name": "CTAF/UNICOM"
      },
      {
        "type": 55,
        "frequency": 12847,
        "name": "MEMPHIS CNTR"
      }
    ],
    "elevation": 538,
    "tower": false,
    "name": "MALVERN MUNI",
    "runways": [
      {
        "type": 100,
        "width": 18.29,
        "surfaceType": null,
        "numberStart": "04",
        "numberEnd": "22",
        "latStart": 34.330244,
        "lonStart": -92.764375,
        "latEnd": 34.335961,
        "lonEnd": -92.759025,
        "length": 0,
        "surfacetype": 1
      }
    ],
    "id": 15750
  },
  {
    "type": 1,
    "icao": "KORK",
    "lat": 34.833347249999996,
    "lon": -92.25478525,
    "communications": [
      {
        "type": 51,
        "frequency": 12280,
        "name": "CTAF/UNICOM"
      },
      {
        "type": 52,
        "frequency": 12160,
        "name": "LITTLE ROCK CLNC DEL"
      },
      {
        "type": 55,
        "frequency": 11950,
        "name": "LITTLE ROCK APP/DEP"
      }
    ],
    "elevation": 545,
    "tower": false,
    "name": "NORTH LITTLE ROCK MUNI",
    "runways": [
      {
        "type": 100,
        "width": 22.86,
        "surfaceType": null,
        "numberStart": "05",
        "numberEnd": "23",
        "latStart": 34.828572,
        "lonStart": -92.259008,
        "latEnd": 34.836422,
        "lonEnd": -92.245333,
        "length": 0,
        "surfacetype": 2
      },
      {
        "type": 100,
        "width": 22.86,
        "surfaceType": null,
        "numberStart": "17",
        "numberEnd": "35",
        "latStart": 34.838331,
        "lonStart": -92.257431,
        "latEnd": 34.830064,
        "lonEnd": -92.257369,
        "length": 0,
        "surfacetype": 1
      }
    ],
    "id": 17989
  },
  {
    "type": 1,
    "icao": "AR28",
    "lat": 34.939254719999994,
    "lon": -92.02458862,
    "communications": [],
    "elevation": 280,
    "tower": false,
    "name": "Odom Field",
    "runways": [
      {
        "type": 100,
        "width": 21.34,
        "surfaceType": null,
        "numberStart": "09",
        "numberEnd": "27",
        "latStart": 34.93944421,
        "lonStart": -92.02899939,
        "latEnd": 34.93906523,
        "lonEnd": -92.02017785,
        "length": 0,
        "surfacetype": 3
      }
    ],
    "id": 18820
  },
  {
    "type": 1,
    "icao": "AR13",
    "lat": 34.98619861,
    "lon": -92.63349584,
    "communications": [],
    "elevation": 300,
    "tower": false,
    "name": "Pearson Field",
    "runways": [
      {
        "type": 100,
        "width": 15.24,
        "surfaceType": null,
        "numberStart": "14",
        "numberEnd": "32",
        "latStart": 34.98841773,
        "lonStart": -92.63546374,
        "latEnd": 34.98397949,
        "lonEnd": -92.63152794,
        "length": 0,
        "surfacetype": 3
      }
    ],
    "id": 19905
  },
  {
    "type": 1,
    "icao": "79M",
    "lat": 34.85286694,
    "lon": -92.04819945,
    "communications": [],
    "elevation": 263,
    "tower": false,
    "name": "Perrys",
    "runways": [
      {
        "type": 100,
        "width": 22.86,
        "surfaceType": null,
        "numberStart": "18",
        "numberEnd": "36",
        "latStart": 34.85642413,
        "lonStart": -92.04789634,
        "latEnd": 34.84930975,
        "lonEnd": -92.04850256,
        "length": 0,
        "surfacetype": 3
      }
    ],
    "id": 19990
  },
  {
    "type": 1,
    "icao": "AR34",
    "lat": 34.98203194,
    "lon": -92.44515695,
    "communications": [],
    "elevation": 610,
    "tower": false,
    "name": "Pine Village",
    "runways": [
      {
        "type": 100,
        "width": 53.34,
        "surfaceType": null,
        "numberStart": "09",
        "numberEnd": "27",
        "latStart": 34.98222328,
        "lonStart": -92.44849662,
        "latEnd": 34.9818406,
        "lonEnd": -92.44181728,
        "length": 0,
        "surfacetype": 3
      }
    ],
    "id": 20157
  },
  {
    "type": 1,
    "icao": "AR55",
    "lat": 34.739813330000004,
    "lon": -92.09014389000001,
    "communications": [],
    "elevation": 251,
    "tower": false,
    "name": "R.V. Stewart Field",
    "runways": [
      {
        "type": 100,
        "width": 33.53,
        "surfaceType": null,
        "numberStart": "18",
        "numberEnd": "36",
        "latStart": 34.74364415,
        "lonStart": -92.08981791,
        "latEnd": 34.73598251,
        "lonEnd": -92.09046987,
        "length": 0,
        "surfacetype": 3
      }
    ],
    "id": 20751
  },
  {
    "type": 1,
    "icao": "KRBM",
    "lat": 34.8501585,
    "lon": -92.300083,
    "communications": [
      {
        "type": 51,
        "frequency": 12620,
        "name": "CTAF"
      },
      {
        "type": 55,
        "frequency": 11950,
        "name": "LITTLE ROCK APP/DEP"
      }
    ],
    "elevation": 587,
    "tower": false,
    "name": "ROBINSON AAF",
    "runways": [
      {
        "type": 100,
        "width": 22.86,
        "surfaceType": null,
        "numberStart": "04",
        "numberEnd": "22",
        "latStart": 34.84485,
        "lonStart": -92.305372,
        "latEnd": 34.855467,
        "lonEnd": -92.294794,
        "length": 0,
        "surfacetype": 1
      }
    ],
    "id": 20991
  },
  {
    "type": 1,
    "icao": "4X6",
    "lat": 34.84620083,
    "lon": -92.17209167,
    "communications": [],
    "elevation": 242,
    "tower": false,
    "name": "Robert Chris Mc Intosh",
    "runways": [
      {
        "type": 100,
        "width": 30.48,
        "surfaceType": null,
        "numberStart": "18",
        "numberEnd": "36",
        "latStart": 34.85167343,
        "lonStart": -92.17162538,
        "latEnd": 34.84072823,
        "lonEnd": -92.17255796,
        "length": 0,
        "surfacetype": 3
      }
    ],
    "id": 21573
  },
  {
    "type": 1,
    "icao": "M99",
    "lat": 34.556918,
    "lon": -92.6069235,
    "communications": [
      {
        "type": 51,
        "frequency": 12280,
        "name": "CTAF/UNICOM"
      },
      {
        "type": 52,
        "frequency": 11950,
        "name": "LITTLE ROCK CLNC DEL"
      },
      {
        "type": 55,
        "frequency": 11950,
        "name": "LITTLE ROCK APP/DEP"
      }
    ],
    "elevation": 318,
    "tower": false,
    "name": "SALINE CO WATTS FLD",
    "runways": [
      {
        "type": 100,
        "width": 15.24,
        "surfaceType": null,
        "numberStart": "17",
        "numberEnd": "35",
        "latStart": 34.562375,
        "lonStart": -92.607064,
        "latEnd": 34.551461,
        "lonEnd": -92.606783,
        "length": 0,
        "surfacetype": 1
      }
    ],
    "id": 21932
  },
  {
    "type": 1,
    "icao": "9M8",
    "lat": 34.328193,
    "lon": -92.35097200000001,
    "communications": [
      {
        "type": 51,
        "frequency": 12280,
        "name": "CTAF/UNICOM"
      }
    ],
    "elevation": 231,
    "tower": false,
    "name": "SHERIDAN MUNI",
    "runways": [
      {
        "type": 100,
        "width": 15.24,
        "surfaceType": null,
        "numberStart": "01",
        "numberEnd": "19",
        "latStart": 34.324164,
        "lonStart": -92.352219,
        "latEnd": 34.332222,
        "lonEnd": -92.349725,
        "length": 0,
        "surfacetype": 1
      }
    ],
    "id": 22222
  },
  {
    "type": 1,
    "icao": "1AR9",
    "lat": 34.81553333,
    "lon": -92.00028056,
    "communications": [],
    "elevation": 250,
    "tower": false,
    "name": "Sendaero Airpark",
    "runways": [
      {
        "type": 100,
        "width": 30.48,
        "surfaceType": null,
        "numberStart": "12",
        "numberEnd": "30",
        "latStart": 34.81665378,
        "lonStart": -92.00238209,
        "latEnd": 34.81441288,
        "lonEnd": -91.99817903,
        "length": 0,
        "surfacetype": 3
      }
    ],
    "id": 23258
  },
  {
    "type": 17,
    "icao": "AR62",
    "lat": 34.74342527,
    "lon": -92.29153917,
    "communications": [],
    "elevation": 375,
    "tower": false,
    "name": "[H] Arkansas Childrens Hospital",
    "runways": [
      {
        "type": 102,
        "width": 8.2,
        "surfaceType": 2,
        "numberStart": "H1",
        "numberEnd": null,
        "latStart": 34.74342527,
        "lonStart": -92.29153917,
        "latEnd": null,
        "lonEnd": null,
        "length": 8.2
      }
    ],
    "id": 28175
  },
  {
    "type": 17,
    "icao": "0H5",
    "lat": 34.35759277,
    "lon": -92.78850056,
    "communications": [],
    "elevation": 350,
    "tower": false,
    "name": "[H] Hscmh",
    "runways": [
      {
        "type": 102,
        "width": 35.7,
        "surfaceType": 1,
        "numberStart": "H1",
        "numberEnd": null,
        "latStart": 34.35759277,
        "lonStart": -92.78850056,
        "latEnd": null,
        "lonEnd": null,
        "length": 35.7
      }
    ],
    "id": 30402
  },
  {
    "type": 17,
    "icao": "0J3",
    "lat": 34.18759805,
    "lon": -92.01791806,
    "communications": [],
    "elevation": 227,
    "tower": false,
    "name": "[H] Jrmc",
    "runways": [
      {
        "type": 102,
        "width": 12.2,
        "surfaceType": 2,
        "numberStart": "H1",
        "numberEnd": null,
        "latStart": 34.18759805,
        "lonStart": -92.01791806,
        "latEnd": null,
        "lonEnd": null,
        "length": 12.2
      }
    ],
    "id": 30653
  },
  {
    "type": 17,
    "icao": "5AR5",
    "lat": 34.74759194,
    "lon": -92.36682001,
    "communications": [],
    "elevation": 540,
    "tower": false,
    "name": "[H] Med-Flight",
    "runways": [
      {
        "type": 102,
        "width": 12.2,
        "surfaceType": 2,
        "numberStart": "H1",
        "numberEnd": null,
        "latStart": 34.74759194,
        "lonStart": -92.36682001,
        "latEnd": null,
        "lonEnd": null,
        "length": 18.3
      }
    ],
    "id": 31175
  },
  {
    "type": 17,
    "icao": "0B0",
    "lat": 34.57398138,
    "lon": -92.58293889,
    "communications": [],
    "elevation": 430,
    "tower": false,
    "name": "[H] Saline Memorial Hospital",
    "runways": [
      {
        "type": 102,
        "width": 12.2,
        "surfaceType": 1,
        "numberStart": "H1",
        "numberEnd": null,
        "latStart": 34.57398138,
        "lonStart": -92.58293889,
        "latEnd": null,
        "lonEnd": null,
        "length": 12.2
      }
    ],
    "id": 32525
  },
  {
    "type": 17,
    "icao": "5AR6",
    "lat": 34.65675944,
    "lon": -92.40459917,
    "communications": [],
    "elevation": 344,
    "tower": false,
    "name": "[H] Southwest Hospital",
    "runways": [
      {
        "type": 102,
        "width": 12.2,
        "surfaceType": 2,
        "numberStart": "H1",
        "numberEnd": null,
        "latStart": 34.65675944,
        "lonStart": -92.40459917,
        "latEnd": null,
        "lonEnd": null,
        "length": 12.2
      }
    ],
    "id": 32820
  },
  {
    "type": 17,
    "icao": "AR45",
    "lat": 34.7506475,
    "lon": -92.34070778,
    "communications": [],
    "elevation": 435,
    "tower": false,
    "name": "[H] St Vincent Infirmary",
    "runways": [
      {
        "type": 102,
        "width": 12.2,
        "surfaceType": 2,
        "numberStart": "H1",
        "numberEnd": null,
        "latStart": 34.7506475,
        "lonStart": -92.34070778,
        "latEnd": null,
        "lonEnd": null,
        "length": 12.2
      }
    ],
    "id": 33022
  },
  {
    "type": 17,
    "icao": "AR90",
    "lat": 34.73648083,
    "lon": -92.50876973,
    "communications": [],
    "elevation": 548,
    "tower": false,
    "name": "[H] Stephens",
    "runways": [
      {
        "type": 102,
        "width": 6.1,
        "surfaceType": 3,
        "numberStart": "H1",
        "numberEnd": null,
        "latStart": 34.73648083,
        "lonStart": -92.50876973,
        "latEnd": null,
        "lonEnd": null,
        "length": 6.1
      }
    ],
    "id": 33075
  },
  {
    "type": 17,
    "icao": "AR29",
    "lat": 34.74786972,
    "lon": -92.33959667,
    "communications": [],
    "elevation": 358,
    "tower": false,
    "name": "[H] Uams",
    "runways": [
      {
        "type": 102,
        "width": 7.6,
        "surfaceType": 2,
        "numberStart": "H1",
        "numberEnd": null,
        "latStart": 34.74786972,
        "lonStart": -92.33959667,
        "latEnd": null,
        "lonEnd": null,
        "length": 7.6
      }
    ],
    "id": 33459
  },
  {
    "type": 17,
    "icao": "6AR3",
    "lat": 34.75000861,
    "lon": -92.32042917,
    "communications": [],
    "elevation": 444,
    "tower": false,
    "name": "[H] University Hospital",
    "runways": [
      {
        "type": 102,
        "width": 18.3,
        "surfaceType": 2,
        "numberStart": "H1",
        "numberEnd": null,
        "latStart": 34.75000861,
        "lonStart": -92.32042917,
        "latEnd": null,
        "lonEnd": null,
        "length": 18.3
      }
    ],
    "id": 33502
  }
]