[
  {
    "type": 1,
    "icao": "SA4D",
    "lat": -38.89277778,
    "lon": -53.442650994999994,
    "communications": [],
    "elevation": 884,
    "tower": false,
    "name": "CIPOLETTI AEROCLUB",
    "runways": [
      {
        "type": 100,
        "width": 28.04,
        "surfaceType": null,
        "numberStart": "08",
        "numberEnd": "26",
        "latStart": -38.89355601,
        "lonStart": -67.99330244,
        "latEnd": -38.89199955,
        "lonEnd": -67.98447533,
        "length": 0,
        "surfacetype": 4
      }
    ],
    "id": 3934
  },
  {
    "type": 1,
    "icao": "SA20",
    "lat": -38.413764,
    "lon": -53.578458,
    "communications": [],
    "elevation": 1329,
    "tower": false,
    "name": "LOMA LA LATA",
    "runways": [
      {
        "type": 100,
        "width": 29.87,
        "surfaceType": null,
        "numberStart": "09",
        "numberEnd": "27",
        "latStart": -38.413306,
        "lonStart": -68.742694,
        "latEnd": -38.414222,
        "lonEnd": -68.731917,
        "length": 0,
        "surfacetype": 1
      }
    ],
    "id": 14589
  },
  {
    "type": 1,
    "icao": "SAZN",
    "lat": -38.9490014,
    "lon": -53.559813465000005,
    "communications": [
      {
        "type": 54,
        "frequency": 11930,
        "name": "TWR"
      },
      {
        "type": 50,
        "frequency": 12765,
        "name": "ATIS"
      }
    ],
    "elevation": 895,
    "tower": true,
    "name": "Presidente PerC3n",
    "runways": [
      {
        "type": 100,
        "width": 44.81,
        "surfaceType": null,
        "numberStart": "09",
        "numberEnd": "27",
        "latStart": -38.94895725,
        "lonStart": -68.17058138,
        "latEnd": -38.94904555,
        "lonEnd": -68.1408418,
        "length": 0,
        "surfacetype": 1
      }
    ],
    "id": 20520
  }
]