[
  {
    "type": 1,
    "icao": "KPSP",
    "lat": 33.82900981833333,
    "lon": -66.40033235666668,
    "communications": [
      {
        "type": 50,
        "frequency": 11825,
        "name": "Palm Springs ATIS"
      },
      {
        "type": 54,
        "frequency": 11970,
        "name": "Palm Springs TWR"
      },
      {
        "type": 53,
        "frequency": 12190,
        "name": "Palm Springs GND"
      },
      {
        "type": 52,
        "frequency": 12835,
        "name": "Palm Springs Delivery"
      },
      {
        "type": 55,
        "frequency": 12670,
        "name": "SOCAL APP"
      },
      {
        "type": 56,
        "frequency": 12670,
        "name": "SOCAL APP"
      }
    ],
    "elevation": 477,
    "tower": true,
    "name": "Palm Springs Intl",
    "runways": [
      {
        "type": 100,
        "width": 45.72,
        "surfaceType": null,
        "numberStart": "13R",
        "numberEnd": "31L",
        "latStart": 33.84069894,
        "lonStart": -116.51747301,
        "latEnd": 33.81863294,
        "lonEnd": -116.49783601,
        "length": 0,
        "surfacetype": 1
      },
      {
        "type": 100,
        "width": 22.86,
        "surfaceType": null,
        "numberStart": "13L",
        "numberEnd": "31R",
        "latStart": 33.83518894,
        "lonStart": -116.50969305,
        "latEnd": 33.82425694,
        "lonEnd": -116.49996905,
        "length": 0,
        "surfacetype": 1
      },
      {
        "type": 102,
        "width": 12.3,
        "surfaceType": 1,
        "numberStart": "H2",
        "numberEnd": null,
        "latStart": 33.82750018,
        "lonStart": -116.50885898,
        "latEnd": null,
        "lonEnd": null,
        "length": 11.9
      },
      {
        "type": 102,
        "width": 12.3,
        "surfaceType": 1,
        "numberStart": "H1",
        "numberEnd": null,
        "latStart": 33.82778097,
        "lonStart": -116.50885898,
        "latEnd": null,
        "lonEnd": null,
        "length": 12.2
      }
    ],
    "id": 19676
  }
]