[
  {
    "type": 1,
    "icao": "TLPC",
    "lat": 14.0197045,
    "lon": -23.489766,
    "communications": [
      {
        "type": 53,
        "frequency": 12190,
        "name": "GND"
      },
      {
        "type": 54,
        "frequency": 11800,
        "name": "TWR"
      }
    ],
    "elevation": 21,
    "tower": true,
    "name": "Castries/George F L Charles",
    "runways": [
      {
        "type": 100,
        "width": 45.11,
        "surfaceType": null,
        "numberStart": "09",
        "numberEnd": "27",
        "latStart": 14.017717,
        "lonStart": -61.001224,
        "latEnd": 14.021692,
        "lonEnd": -60.985563,
        "length": 0,
        "surfacetype": 1
      }
    ],
    "id": 4645
  },
  {
    "type": 1,
    "icao": "TFFF",
    "lat": 14.59085668,
    "lon": -23.212510095,
    "communications": [
      {
        "type": 50,
        "frequency": 12785,
        "name": "ATIS"
      },
      {
        "type": 53,
        "frequency": 12190,
        "name": "GND"
      },
      {
        "type": 54,
        "frequency": 11850,
        "name": "FORT DE FRANCE TWR"
      },
      {
        "type": 55,
        "frequency": 12100,
        "name": "FORT DE FRANCE APP"
      },
      {
        "type": 55,
        "frequency": 12905,
        "name": "FORT DE FRANCE APP"
      }
    ],
    "elevation": 16,
    "tower": true,
    "name": "Martinique/Aime Cesaire Intl",
    "runways": [
      {
        "type": 100,
        "width": 45.11,
        "surfaceType": null,
        "numberStart": "09",
        "numberEnd": "27",
        "latStart": 14.58849675,
        "lonStart": -61.0182368,
        "latEnd": 14.59321661,
        "lonEnd": -60.99076747,
        "length": 0,
        "surfacetype": 1
      }
    ],
    "id": 16755
  },
  {
    "type": 16,
    "icao": "SP16",
    "lat": 14.049469,
    "lon": -23.477327195,
    "communications": [],
    "elevation": 0,
    "tower": false,
    "name": "[S] George F L Charles Harbor",
    "runways": [
      {
        "type": 101,
        "width": 2164.08,
        "surfaceType": null,
        "numberStart": "18",
        "numberEnd": "36",
        "latStart": 14.06455539,
        "lonStart": -60.989037,
        "latEnd": 14.03438261,
        "lonEnd": -60.989037,
        "length": 0
      }
    ],
    "id": 34122
  },
  {
    "type": 16,
    "icao": "SP17",
    "lat": 14.561385,
    "lon": -23.241343450000002,
    "communications": [],
    "elevation": 0,
    "tower": false,
    "name": "[S] Le Lamentin Harbor",
    "runways": [
      {
        "type": 101,
        "width": 2468.88,
        "surfaceType": null,
        "numberStart": "18",
        "numberEnd": "36",
        "latStart": 14.5750999,
        "lonStart": -61.030357,
        "latEnd": 14.5476701,
        "lonEnd": -61.030357,
        "length": 0
      }
    ],
    "id": 34250
  }
]