[
  {
    "type": 1,
    "icao": "EN2",
    "lat": 50.8041172,
    "lon": -30.833245985,
    "communications": [
      {
        "type": 51,
        "frequency": 12320,
        "name": "CTAF"
      }
    ],
    "elevation": 2611,
    "tower": false,
    "name": "Bassano",
    "runways": [
      {
        "type": 100,
        "width": 22.86,
        "surfaceType": null,
        "numberStart": "07",
        "numberEnd": "25",
        "latStart": 50.8041172,
        "lonStart": -112.47060917,
        "latEnd": 50.8041172,
        "lonEnd": -112.4578063,
        "length": 0,
        "surfacetype": 1
      }
    ],
    "id": 2327
  },
  {
    "type": 1,
    "icao": "CYBP",
    "lat": 50.634036824999995,
    "lon": -30.64818195000001,
    "communications": [
      {
        "type": 51,
        "frequency": 12280,
        "name": "UNICOM"
      }
    ],
    "elevation": 2490,
    "tower": false,
    "name": "Brooks Regional",
    "runways": [
      {
        "type": 100,
        "width": 22.86,
        "surfaceType": null,
        "numberStart": "12",
        "numberEnd": "30",
        "latStart": 50.63738544,
        "lonStart": -111.93166832,
        "latEnd": 50.63072565,
        "lonEnd": -111.9226242,
        "length": 0,
        "surfacetype": 1
      },
      {
        "type": 100,
        "width": 15.24,
        "surfaceType": null,
        "numberStart": "02",
        "numberEnd": "20",
        "latStart": 50.63098348,
        "lonStart": -111.92883786,
        "latEnd": 50.63705273,
        "lonEnd": -111.92088546,
        "length": 0,
        "surfacetype": 4
      }
    ],
    "id": 3253
  },
  {
    "type": 1,
    "icao": "CYXH",
    "lat": 50.01736875,
    "lon": -30.35357125,
    "communications": [
      {
        "type": 50,
        "frequency": 12487,
        "name": "AWOS"
      },
      {
        "type": 54,
        "frequency": 12220,
        "name": "MF"
      }
    ],
    "elevation": 2352,
    "tower": false,
    "name": "MEDICINE HAT",
    "runways": [
      {
        "type": 100,
        "width": 45.72,
        "surfaceType": null,
        "numberStart": "03",
        "numberEnd": "21",
        "latStart": 50.014028,
        "lonStart": -110.728069,
        "latEnd": 50.023781,
        "lonEnd": -110.713139,
        "length": 0,
        "surfacetype": 1
      },
      {
        "type": 100,
        "width": 30.48,
        "surfaceType": null,
        "numberStart": "09",
        "numberEnd": "27",
        "latStart": 50.016944,
        "lonStart": -110.724719,
        "latEnd": 50.014722,
        "lonEnd": -110.713331,
        "length": 0,
        "surfacetype": 1
      }
    ],
    "id": 15994
  }
]