[
  {
    "type": 1,
    "icao": "AYGR",
    "lat": -8.8045258,
    "lon": 69.75285854,
    "communications": [
      {
        "type": 50,
        "frequency": 12195,
        "name": "YGRA AWOS"
      },
      {
        "type": 53,
        "frequency": 12869,
        "name": "GIRUA GND"
      },
      {
        "type": 54,
        "frequency": 13050,
        "name": "GIRUA TWR"
      }
    ],
    "elevation": 285,
    "tower": true,
    "name": "Girua",
    "runways": [
      {
        "type": 100,
        "width": 29.87,
        "surfaceType": null,
        "numberStart": "03",
        "numberEnd": "21",
        "latStart": -8.81045206,
        "lonStart": 148.30431662,
        "latEnd": -8.79859954,
        "lonEnd": 148.31362001,
        "length": 0,
        "surfacetype": 1
      }
    ],
    "id": 10496
  },
  {
    "type": 1,
    "icao": "AYKP",
    "lat": -8.885750875,
    "lon": 69.424830565,
    "communications": [],
    "elevation": 1290,
    "tower": false,
    "name": "Kokoda",
    "runways": [
      {
        "type": 100,
        "width": 52.12,
        "surfaceType": null,
        "numberStart": "17",
        "numberEnd": "35",
        "latStart": -8.89008133,
        "lonStart": 147.73108155,
        "latEnd": -8.88142042,
        "lonEnd": 147.73097445,
        "length": 0,
        "surfacetype": 5
      }
    ],
    "id": 14047
  },
  {
    "type": 1,
    "icao": "AYTI",
    "lat": -8.357421930000001,
    "lon": 69.313484345,
    "communications": [
      {
        "type": 50,
        "frequency": 12740,
        "name": "TAP AWOS"
      }
    ],
    "elevation": 3150,
    "tower": false,
    "name": "Tapini",
    "runways": [
      {
        "type": 100,
        "width": 45.11,
        "surfaceType": null,
        "numberStart": "09",
        "numberEnd": "27",
        "latStart": -8.35716353,
        "lonStart": 146.98464902,
        "latEnd": -8.35768033,
        "lonEnd": 146.99461608,
        "length": 0,
        "surfacetype": 5
      }
    ],
    "id": 25046
  },
  {
    "type": 1,
    "icao": "TEO",
    "lat": -8.169619,
    "lon": 69.0098572,
    "communications": [
      {
        "type": 50,
        "frequency": 12770,
        "name": "TEO AWOS"
      }
    ],
    "elevation": 0,
    "tower": false,
    "name": "Terapo",
    "runways": [
      {
        "type": 100,
        "width": 30.48,
        "surfaceType": null,
        "numberStart": "10",
        "numberEnd": "28",
        "latStart": -8.16858959,
        "lonStart": 146.19036281,
        "latEnd": -8.17064841,
        "lonEnd": 146.19812519,
        "length": 0,
        "surfacetype": 4
      }
    ],
    "id": 25169
  },
  {
    "type": 1,
    "icao": "WTP",
    "lat": -8.54933593,
    "lon": 69.34980919499999,
    "communications": [
      {
        "type": 50,
        "frequency": 12790,
        "name": "WTP AWOS"
      }
    ],
    "elevation": 5162,
    "tower": false,
    "name": "Woitape",
    "runways": [
      {
        "type": 100,
        "width": 45.11,
        "surfaceType": null,
        "numberStart": "15",
        "numberEnd": "33",
        "latStart": -8.54509759,
        "lonStart": 147.25319266,
        "latEnd": -8.55357427,
        "lonEnd": 147.25775044,
        "length": 0,
        "surfacetype": 5
      }
    ],
    "id": 27490
  }
]