[
  {
    "type": 1,
    "icao": "LFHM",
    "lat": 45.8216389375,
    "lon": 6.64998733,
    "communications": [
      {
        "type": 51,
        "frequency": 13205,
        "name": "Megeve TWR"
      }
    ],
    "elevation": 4829,
    "tower": true,
    "name": "Megeve",
    "runways": [
      {
        "type": 100,
        "width": 18,
        "surfaceType": null,
        "numberStart": "15",
        "numberEnd": "33",
        "latStart": 45.82520725,
        "lonStart": 6.64791525,
        "latEnd": 45.82000879,
        "lonEnd": 6.65141501,
        "length": 0,
        "surfacetype": 1
      },
      {
        "type": 102,
        "width": 10,
        "surfaceType": 1,
        "numberStart": "H1",
        "numberEnd": null,
        "latStart": 45.82056765,
        "lonStart": 6.6503661,
        "latEnd": null,
        "lonEnd": null,
        "length": 10
      },
      {
        "type": 102,
        "width": 10,
        "surfaceType": 1,
        "numberStart": "H2",
        "numberEnd": null,
        "latStart": 45.82077206,
        "lonStart": 6.65025296,
        "latEnd": null,
        "lonEnd": null,
        "length": 10
      }
    ],
    "id": 3601
  },
  {
    "type": 1,
    "icao": "LFLJ",
    "lat": 45.397364095,
    "lon": 6.6346435150000005,
    "communications": [
      {
        "type": 54,
        "frequency": 12007,
        "name": "TWR"
      }
    ],
    "elevation": 6591,
    "tower": true,
    "name": "Courchevel",
    "runways": [
      {
        "type": 100,
        "width": 40,
        "surfaceType": null,
        "numberStart": "04",
        "numberEnd": "22",
        "latStart": 45.39565548,
        "lonStart": 6.63221024,
        "latEnd": 45.39907271,
        "lonEnd": 6.63707679,
        "length": 0,
        "surfacetype": 2
      }
    ],
    "id": 3619
  },
  {
    "type": 1,
    "icao": "LFHU",
    "lat": 45.087623445000006,
    "lon": 6.08380004,
    "communications": [
      {
        "type": 51,
        "frequency": 12060,
        "name": "ALPE DHUEZ MULT"
      }
    ],
    "elevation": 6103,
    "tower": true,
    "name": "L Alpe d Huez",
    "runways": [
      {
        "type": 100,
        "width": 39.93,
        "surfaceType": null,
        "numberStart": "06",
        "numberEnd": "24",
        "latStart": 45.08877299,
        "lonStart": 6.08640678,
        "latEnd": 45.0864739,
        "lonEnd": 6.0811933,
        "length": 0,
        "surfacetype": 2
      }
    ],
    "id": 20318
  },
  {
    "type": 1,
    "icao": "LFHZ",
    "lat": 45.94965,
    "lon": 6.639054,
    "communications": [],
    "elevation": 1737,
    "tower": true,
    "name": "Mont Blanc",
    "runways": [
      {
        "type": 100,
        "width": 20.12,
        "surfaceType": null,
        "numberStart": "17",
        "numberEnd": "35",
        "latStart": 45.952613,
        "lonStart": 6.638099,
        "latEnd": 45.946687,
        "lonEnd": 6.640009,
        "length": 0,
        "surfacetype": 1
      }
    ],
    "id": 20323
  },
  {
    "type": 1,
    "icao": "LFKA",
    "lat": 45.626253,
    "lon": 6.328688,
    "communications": [
      {
        "type": 51,
        "frequency": 12350,
        "name": "Albertville MULT"
      }
    ],
    "elevation": 1035,
    "tower": true,
    "name": "Albertville",
    "runways": [
      {
        "type": 100,
        "width": 21.03,
        "surfaceType": null,
        "numberStart": "05",
        "numberEnd": "23",
        "latStart": 45.624021,
        "lonStart": 6.324657,
        "latEnd": 45.628485,
        "lonEnd": 6.332719,
        "length": 0,
        "surfacetype": 1
      }
    ],
    "id": 20343
  },
  {
    "type": 1,
    "icao": "LFKD",
    "lat": 45.254115315,
    "lon": 6.801181865,
    "communications": [],
    "elevation": 4277,
    "tower": true,
    "name": "Sollieres Sardieres",
    "runways": [
      {
        "type": 100,
        "width": 60.05,
        "surfaceType": null,
        "numberStart": "02",
        "numberEnd": "20",
        "latStart": 45.25717948,
        "lonStart": 6.80234822,
        "latEnd": 45.25105115,
        "lonEnd": 6.80001551,
        "length": 0,
        "surfacetype": 3
      }
    ],
    "id": 20345
  },
  {
    "type": 1,
    "icao": "LFKR",
    "lat": 45.377264999999994,
    "lon": 6.276395,
    "communications": [],
    "elevation": 1395,
    "tower": true,
    "name": "St Remy de Maurienne",
    "runways": [
      {
        "type": 100,
        "width": 21.03,
        "surfaceType": null,
        "numberStart": "13",
        "numberEnd": "31",
        "latStart": 45.374325,
        "lonStart": 6.277999,
        "latEnd": 45.380205,
        "lonEnd": 6.274791,
        "length": 0,
        "surfacetype": 1
      }
    ],
    "id": 20350
  },
  {
    "type": 1,
    "icao": "LFKX",
    "lat": 45.40744266,
    "lon": 6.577424945000001,
    "communications": [
      {
        "type": 54,
        "frequency": 11875,
        "name": "Meribel TWR"
      }
    ],
    "elevation": 5650,
    "tower": true,
    "name": "Meribel",
    "runways": [
      {
        "type": 100,
        "width": 39.93,
        "surfaceType": null,
        "numberStart": "15",
        "numberEnd": "33",
        "latStart": 45.40904593,
        "lonStart": 6.57626137,
        "latEnd": 45.40583939,
        "lonEnd": 6.57858852,
        "length": 0,
        "surfacetype": 2
      }
    ],
    "id": 20353
  },
  {
    "type": 1,
    "icao": "LFLP",
    "lat": 45.928755466,
    "lon": 6.099979842000001,
    "communications": [
      {
        "type": 50,
        "frequency": 11820,
        "name": "ANNECY FSS"
      },
      {
        "type": 54,
        "frequency": 11820,
        "name": "ANNECY TWR"
      },
      {
        "type": 55,
        "frequency": 12370,
        "name": "CHAMBERY APP"
      }
    ],
    "elevation": 1520,
    "tower": true,
    "name": "Annecy Haute-Sovoie Mont Blanc Meythet",
    "runways": [
      {
        "type": 100,
        "width": 29.87,
        "surfaceType": null,
        "numberStart": "04",
        "numberEnd": "22",
        "latStart": 45.923459,
        "lonStart": 6.092314,
        "latEnd": 45.934803,
        "lonEnd": 6.105292,
        "length": 0,
        "surfacetype": 1
      },
      {
        "type": 100,
        "width": 70.1,
        "surfaceType": null,
        "numberStart": "4C",
        "numberEnd": "22C",
        "latStart": 45.925521,
        "lonStart": 6.096994,
        "latEnd": 45.931498,
        "lonEnd": 6.103805,
        "length": 0,
        "surfacetype": 3
      },
      {
        "type": 102,
        "width": 34.1,
        "surfaceType": 3,
        "numberStart": "H1",
        "numberEnd": null,
        "latStart": 45.92849633,
        "lonStart": 6.10149421,
        "latEnd": null,
        "lonEnd": null,
        "length": 34.1
      }
    ],
    "id": 20365
  }
]