[
  {
    "type": 1,
    "icao": "RK6D",
    "lat": 35.344722,
    "lon": 81.18041649999999,
    "communications": [],
    "elevation": 173,
    "tower": false,
    "name": "G 710",
    "runways": [
      {
        "type": 100,
        "width": 15.24,
        "surfaceType": null,
        "numberStart": "09",
        "numberEnd": "27",
        "latStart": 35.344722,
        "lonStart": 127.016111,
        "latEnd": 35.344722,
        "lonEnd": 127.020281,
        "length": 0,
        "surfacetype": 4
      }
    ],
    "id": 9844
  },
  {
    "type": 1,
    "icao": "RKD1",
    "lat": 35.258160000000004,
    "lon": 81.941868,
    "communications": [],
    "elevation": 110,
    "tower": false,
    "name": "G 802",
    "runways": [
      {
        "type": 100,
        "width": 30.48,
        "surfaceType": null,
        "numberStart": "04",
        "numberEnd": "22",
        "latStart": 35.256817,
        "lonStart": 128.624233,
        "latEnd": 35.259503,
        "lonEnd": 128.626836,
        "length": 0,
        "surfacetype": 2
      }
    ],
    "id": 9846
  },
  {
    "type": 1,
    "icao": "RKJU",
    "lat": 35.878436,
    "lon": 81.496314,
    "communications": [],
    "elevation": 96,
    "tower": false,
    "name": "JEON JU",
    "runways": [
      {
        "type": 100,
        "width": 30.48,
        "surfaceType": null,
        "numberStart": "07",
        "numberEnd": "25",
        "latStart": 35.875997,
        "lonStart": 127.111753,
        "latEnd": 35.880875,
        "lonEnd": 127.127347,
        "length": 0,
        "surfacetype": 1
      }
    ],
    "id": 12723
  },
  {
    "type": 1,
    "icao": "RKPE",
    "lat": 35.140930499999996,
    "lon": 81.91529700000001,
    "communications": [
      {
        "type": 54,
        "frequency": 12980,
        "name": "TWR"
      },
      {
        "type": 54,
        "frequency": 12620,
        "name": "TWR"
      },
      {
        "type": 55,
        "frequency": 13570,
        "name": "GIMHAE APP"
      }
    ],
    "elevation": 8,
    "tower": true,
    "name": "JINHAE",
    "runways": [
      {
        "type": 100,
        "width": 23.77,
        "surfaceType": null,
        "numberStart": "18",
        "numberEnd": "36",
        "latStart": 35.145786,
        "lonStart": 128.694519,
        "latEnd": 35.136075,
        "lonEnd": 128.696811,
        "length": 0,
        "surfacetype": 1
      }
    ],
    "id": 12754
  },
  {
    "type": 1,
    "icao": "RKJK",
    "lat": 35.9037555,
    "lon": 81.2523125,
    "communications": [
      {
        "type": 50,
        "frequency": 12022,
        "name": "ATIS"
      },
      {
        "type": 52,
        "frequency": 13375,
        "name": "CLNC DEL"
      },
      {
        "type": 53,
        "frequency": 12350,
        "name": "GND"
      },
      {
        "type": 54,
        "frequency": 12650,
        "name": "TWR"
      },
      {
        "type": 55,
        "frequency": 12410,
        "name": "APP"
      },
      {
        "type": 56,
        "frequency": 12410,
        "name": "DEP"
      }
    ],
    "elevation": 29,
    "tower": true,
    "name": "KUNSAN AB",
    "runways": [
      {
        "type": 100,
        "width": 45.72,
        "surfaceType": null,
        "numberStart": "18",
        "numberEnd": "36",
        "latStart": 35.915892,
        "lonStart": 126.613006,
        "latEnd": 35.891619,
        "lonEnd": 126.618781,
        "length": 0,
        "surfacetype": 2
      }
    ],
    "id": 13497
  },
  {
    "type": 1,
    "icao": "RKPS",
    "lat": 35.08872525,
    "lon": 81.57710825000001,
    "communications": [
      {
        "type": 50,
        "frequency": 13235,
        "name": "ATIS"
      },
      {
        "type": 53,
        "frequency": 12620,
        "name": "GND"
      },
      {
        "type": 54,
        "frequency": 12620,
        "name": "TWR"
      },
      {
        "type": 54,
        "frequency": 13020,
        "name": "TWR"
      },
      {
        "type": 55,
        "frequency": 11972,
        "name": "APP"
      },
      {
        "type": 55,
        "frequency": 11972,
        "name": "RAPCON"
      },
      {
        "type": 56,
        "frequency": 11972,
        "name": "DEP"
      }
    ],
    "elevation": 25,
    "tower": true,
    "name": "SACHEON AB",
    "runways": [
      {
        "type": 100,
        "width": 45.72,
        "surfaceType": null,
        "numberStart": "06L",
        "numberEnd": "24R",
        "latStart": 35.082167,
        "lonStart": 128.057283,
        "latEnd": 35.096217,
        "lonEnd": 128.081817,
        "length": 0,
        "surfacetype": 2
      },
      {
        "type": 100,
        "width": 45.72,
        "surfaceType": null,
        "numberStart": "06R",
        "numberEnd": "24L",
        "latStart": 35.081317,
        "lonStart": 128.059733,
        "latEnd": 35.0952,
        "lonEnd": 128.0848,
        "length": 0,
        "surfacetype": 2
      }
    ],
    "id": 21901
  }
]