[
  {
    "type": 1,
    "icao": "XESG2",
    "lat": 57.443454475,
    "lon": 34.801819825,
    "communications": [],
    "elevation": 39,
    "tower": true,
    "name": "Fjaras - Duvhed",
    "runways": [
      {
        "type": 100,
        "width": 30,
        "surfaceType": null,
        "numberStart": "07",
        "numberEnd": "25",
        "latStart": 57.44288988,
        "lonStart": 12.15962058,
        "latEnd": 57.44401907,
        "lonEnd": 12.16911301,
        "length": 0,
        "surfacetype": 3
      }
    ],
    "id": 9336
  },
  {
    "type": 1,
    "icao": "ESGG",
    "lat": 57.66283645,
    "lon": 34.97192728,
    "communications": [
      {
        "type": 50,
        "frequency": 11837,
        "name": "ATIS"
      },
      {
        "type": 53,
        "frequency": 12160,
        "name": "GND"
      },
      {
        "type": 53,
        "frequency": 12190,
        "name": "GND"
      },
      {
        "type": 54,
        "frequency": 11860,
        "name": "TWR"
      },
      {
        "type": 54,
        "frequency": 12310,
        "name": "TWR"
      },
      {
        "type": 55,
        "frequency": 12310,
        "name": "GOTEBORG APP"
      },
      {
        "type": 55,
        "frequency": 12330,
        "name": "GOTEBORG APP"
      },
      {
        "type": 55,
        "frequency": 12420,
        "name": "GOTEBORG APP"
      },
      {
        "type": 55,
        "frequency": 12467,
        "name": "GOTEBORG APP"
      }
    ],
    "elevation": 505,
    "tower": true,
    "name": "GC6teborg Landvetter",
    "runways": [
      {
        "type": 100,
        "width": 45.11,
        "surfaceType": null,
        "numberStart": "03",
        "numberEnd": "21",
        "latStart": 57.64952545,
        "lonStart": 12.26770711,
        "latEnd": 57.67614745,
        "lonEnd": 12.29193011,
        "length": 0,
        "surfacetype": 1
      }
    ],
    "id": 10922
  },
  {
    "type": 1,
    "icao": "EKLS",
    "lat": 57.277227999999994,
    "lon": 34.13604651,
    "communications": [
      {
        "type": 54,
        "frequency": 12497,
        "name": "COPPENHAGEN INFO"
      }
    ],
    "elevation": 25,
    "tower": true,
    "name": "Laeso",
    "runways": [
      {
        "type": 100,
        "width": 22.86,
        "surfaceType": null,
        "numberStart": "07",
        "numberEnd": "25",
        "latStart": 57.27547513,
        "lonStart": 10.99311215,
        "latEnd": 57.27898087,
        "lonEnd": 11.00705785,
        "length": 0,
        "surfacetype": 1
      }
    ],
    "id": 14770
  },
  {
    "type": 1,
    "icao": "ESGV",
    "lat": 57.12484795,
    "lon": 34.6749079675,
    "communications": [],
    "elevation": 2,
    "tower": false,
    "name": "Varberg",
    "runways": [
      {
        "type": 100,
        "width": 80.16,
        "surfaceType": null,
        "numberStart": "12",
        "numberEnd": "30",
        "latStart": 57.12588783,
        "lonStart": 12.22554565,
        "latEnd": 57.12387809,
        "lonEnd": 12.23280903,
        "length": 0,
        "surfacetype": 3
      },
      {
        "type": 100,
        "width": 46,
        "surfaceType": null,
        "numberStart": "06",
        "numberEnd": "24",
        "latStart": 57.12347688,
        "lonStart": 12.22405913,
        "latEnd": 57.126149,
        "lonEnd": 12.232742,
        "length": 0,
        "surfacetype": 3
      }
    ],
    "id": 26226
  },
  {
    "type": 1,
    "icao": "ESSV",
    "lat": 57.658247738,
    "lon": 34.066548314,
    "communications": [
      {
        "type": 54,
        "frequency": 12030,
        "name": "TWR"
      },
      {
        "type": 55,
        "frequency": 12615,
        "name": "CON"
      }
    ],
    "elevation": 164,
    "tower": true,
    "name": "Visby",
    "runways": [
      {
        "type": 100,
        "width": 45.11,
        "surfaceType": null,
        "numberStart": "03",
        "numberEnd": "21",
        "latStart": 57.65412739,
        "lonStart": 18.34074663,
        "latEnd": 57.67105737,
        "lonEnd": 18.35211656,
        "length": 0,
        "surfacetype": 1
      },
      {
        "type": 100,
        "width": 52.26,
        "surfaceType": null,
        "numberStart": "10",
        "numberEnd": "28",
        "latStart": 57.64976242,
        "lonStart": 18.32723964,
        "latEnd": 57.64791063,
        "lonEnd": 18.35182924,
        "length": 0,
        "surfacetype": 3
      },
      {
        "type": 102,
        "width": 18.5,
        "surfaceType": 1,
        "numberStart": "H1",
        "numberEnd": null,
        "latStart": 57.66838088,
        "lonStart": 18.3457873,
        "latEnd": null,
        "lonEnd": null,
        "length": 19.5
      }
    ],
    "id": 26373
  }
]