[
  {
    "type": 1,
    "icao": "LFJB",
    "lat": 46.90299612,
    "lon": -0.697475665,
    "communications": [
      {
        "type": 55,
        "frequency": 11940,
        "name": "NANTES INFO"
      },
      {
        "type": 54,
        "frequency": 12350,
        "name": "MAULEON INFO"
      }
    ],
    "elevation": 567,
    "tower": true,
    "name": "Mauleon",
    "runways": [
      {
        "type": 100,
        "width": 20,
        "surfaceType": null,
        "numberStart": "04",
        "numberEnd": "22",
        "latStart": 46.89821143,
        "lonStart": -0.70240088,
        "latEnd": 46.90778081,
        "lonEnd": -0.69255045,
        "length": 0,
        "surfacetype": 1
      }
    ],
    "id": 3608
  },
  {
    "type": 1,
    "icao": "LFBN",
    "lat": 46.311414,
    "lon": -0.401414,
    "communications": [
      {
        "type": 54,
        "frequency": 11910,
        "name": "NIORT INFO"
      },
      {
        "type": 55,
        "frequency": 12255,
        "name": "COGNAC APP"
      }
    ],
    "elevation": 203,
    "tower": false,
    "name": "Niort Souche",
    "runways": [
      {
        "type": 100,
        "width": 29.87,
        "surfaceType": null,
        "numberStart": "07",
        "numberEnd": "25",
        "latStart": 46.308336,
        "lonStart": -0.412097,
        "latEnd": 46.314492,
        "lonEnd": -0.390731,
        "length": 0,
        "surfacetype": 1
      }
    ],
    "id": 20220
  },
  {
    "type": 1,
    "icao": "LFCT",
    "lat": 46.963704500000006,
    "lon": -0.153883,
    "communications": [],
    "elevation": 341,
    "tower": false,
    "name": "Thouars",
    "runways": [
      {
        "type": 100,
        "width": 99.97,
        "surfaceType": null,
        "numberStart": "12",
        "numberEnd": "30",
        "latStart": 46.96401586,
        "lonStart": -0.15862268,
        "latEnd": 46.95987214,
        "lonEnd": -0.14766932,
        "length": 0,
        "surfacetype": 3
      },
      {
        "type": 100,
        "width": 99.97,
        "surfaceType": null,
        "numberStart": "16",
        "numberEnd": "34",
        "latStart": 46.96930605,
        "lonStart": -0.15736516,
        "latEnd": 46.96162395,
        "lonEnd": -0.15187484,
        "length": 0,
        "surfacetype": 3
      }
    ],
    "id": 20239
  },
  {
    "type": 1,
    "icao": "LFFK",
    "lat": 46.441389,
    "lon": -0.792779,
    "communications": [],
    "elevation": 85,
    "tower": false,
    "name": "Fontenay le Comte",
    "runways": [
      {
        "type": 100,
        "width": 79.86,
        "surfaceType": null,
        "numberStart": "09",
        "numberEnd": "27",
        "latStart": 46.44090702,
        "lonStart": -0.79943365,
        "latEnd": 46.44187098,
        "lonEnd": -0.78612435,
        "length": 0,
        "surfacetype": 3
      }
    ],
    "id": 20271
  }
]