[
  {
    "type": 1,
    "icao": "SDCA",
    "lat": -24.0361595,
    "lon": -48.356738500000006,
    "communications": [],
    "elevation": 2401,
    "tower": true,
    "name": "Capao Bonito",
    "runways": [
      {
        "type": 100,
        "width": 20.12,
        "surfaceType": null,
        "numberStart": "16",
        "numberEnd": "34",
        "latStart": -24.031358,
        "lonStart": -48.360933,
        "latEnd": -24.040961,
        "lonEnd": -48.352544,
        "length": 0,
        "surfacetype": 1
      }
    ],
    "id": 25372
  },
  {
    "type": 17,
    "icao": "SDLD",
    "lat": -24.19555556,
    "lon": -48.64277778,
    "communications": [],
    "elevation": 880,
    "tower": false,
    "name": "[H] Fazenda Sao Miguel",
    "runways": [
      {
        "type": 102,
        "width": 20.1,
        "surfaceType": 2,
        "numberStart": "H1",
        "numberEnd": null,
        "latStart": -24.19555556,
        "lonStart": -48.64277778,
        "latEnd": null,
        "lonEnd": null,
        "length": 20.1
      }
    ],
    "id": 25597
  },
  {
    "type": 1,
    "icao": "SDNJ",
    "lat": -24.074722225000002,
    "lon": -48.224722225,
    "communications": [],
    "elevation": 2604,
    "tower": false,
    "name": "Nascimento II",
    "runways": [
      {
        "type": 100,
        "width": 20.12,
        "surfaceType": null,
        "numberStart": "06",
        "numberEnd": "24",
        "latStart": -24.07792194,
        "lonStart": -48.22745022,
        "latEnd": -24.07152251,
        "lonEnd": -48.22199423,
        "length": 0,
        "surfacetype": 4
      }
    ],
    "id": 25650
  },
  {
    "type": 17,
    "icao": "SDYG",
    "lat": -24.16138889,
    "lon": -48.35027778,
    "communications": [],
    "elevation": 685,
    "tower": false,
    "name": "[H] Companhia de Cimento Ribeirao Grande",
    "runways": [
      {
        "type": 102,
        "width": 24.1,
        "surfaceType": 3,
        "numberStart": "H1",
        "numberEnd": null,
        "latStart": -24.16138889,
        "lonStart": -48.35027778,
        "latEnd": null,
        "lonEnd": null,
        "length": 24.1
      }
    ],
    "id": 25926
  },
  {
    "type": 1,
    "icao": "SIBF",
    "lat": -24.719166675,
    "lon": -48.11861111,
    "communications": [],
    "elevation": 249,
    "tower": false,
    "name": "Bunge Fertilizantes",
    "runways": [
      {
        "type": 100,
        "width": 29.87,
        "surfaceType": null,
        "numberStart": "18",
        "numberEnd": "36",
        "latStart": -24.71565809,
        "lonStart": -48.11985012,
        "latEnd": -24.72267526,
        "lonEnd": -48.1173721,
        "length": 0,
        "surfacetype": 1
      }
    ],
    "id": 26089
  },
  {
    "type": 17,
    "icao": "SIKG",
    "lat": -24.19555556,
    "lon": -48.64277778,
    "communications": [],
    "elevation": 2894,
    "tower": false,
    "name": "[H] Fazenda Sao Miguel",
    "runways": [
      {
        "type": 102,
        "width": 20.1,
        "surfaceType": 2,
        "numberStart": "H1",
        "numberEnd": null,
        "latStart": -24.19555556,
        "lonStart": -48.64277778,
        "latEnd": null,
        "lonEnd": null,
        "length": 20.1
      }
    ],
    "id": 26320
  },
  {
    "type": 1,
    "icao": "SIVW",
    "lat": -24.71527778,
    "lon": -48.02638889,
    "communications": [],
    "elevation": 88,
    "tower": false,
    "name": "Banaer de Jacupiranga",
    "runways": [
      {
        "type": 100,
        "width": 17.98,
        "surfaceType": null,
        "numberStart": "08",
        "numberEnd": "26",
        "latStart": -24.71624252,
        "lonStart": -48.02809267,
        "latEnd": -24.71431304,
        "lonEnd": -48.02468511,
        "length": 0,
        "surfacetype": 5
      }
    ],
    "id": 26614
  },
  {
    "type": 17,
    "icao": "SJOV",
    "lat": -24.14861111,
    "lon": -48.34416667,
    "communications": [],
    "elevation": 752,
    "tower": false,
    "name": "[H] CBE Comp. Brasileira Equipamento",
    "runways": [
      {
        "type": 102,
        "width": 22,
        "surfaceType": 2,
        "numberStart": "H1",
        "numberEnd": null,
        "latStart": -24.14861111,
        "lonStart": -48.34416667,
        "latEnd": null,
        "lonEnd": null,
        "length": 22
      }
    ],
    "id": 27093
  },
  {
    "type": 17,
    "icao": "SJYV",
    "lat": -24.51666667,
    "lon": -48.84972222,
    "communications": [],
    "elevation": 900,
    "tower": false,
    "name": "[H] Caue-Apiai",
    "runways": [
      {
        "type": 102,
        "width": 24.1,
        "surfaceType": 2,
        "numberStart": "H1",
        "numberEnd": null,
        "latStart": -24.51666667,
        "lonStart": -48.84972222,
        "latEnd": null,
        "lonEnd": null,
        "length": 24.1
      }
    ],
    "id": 27347
  }
]