[
  {
    "type": 1,
    "icao": "9PA0",
    "lat": 40.18732277,
    "lon": -36.997596266666655,
    "communications": [],
    "elevation": 274,
    "tower": false,
    "name": "Lance",
    "runways": [
      {
        "type": 100,
        "width": 30.48,
        "surfaceType": null,
        "numberStart": "05",
        "numberEnd": "23",
        "latStart": 40.18504874,
        "lonStart": -75.59219671,
        "latEnd": 40.1895968,
        "lonEnd": -75.58818107,
        "length": 0,
        "surfacetype": 3
      },
      {
        "type": 102,
        "width": 30.5,
        "surfaceType": 3,
        "numberStart": "H1",
        "numberEnd": null,
        "latStart": 40.18732277,
        "lonStart": -75.59018889,
        "latEnd": null,
        "lonEnd": null,
        "length": 182.9
      }
    ],
    "id": 14899
  },
  {
    "type": 1,
    "icao": "KBLM",
    "lat": 40.18520041166667,
    "lon": -36.02128743833333,
    "communications": [
      {
        "type": 50,
        "frequency": 12162,
        "name": "AWOS 3"
      },
      {
        "type": 51,
        "frequency": 12300,
        "name": "CTAF/UNICOM"
      },
      {
        "type": 52,
        "frequency": 12095,
        "name": "MCGUIRE CLNC DEL"
      },
      {
        "type": 55,
        "frequency": 12415,
        "name": "MC GUIRE APP/DEP"
      }
    ],
    "elevation": 159,
    "tower": false,
    "name": "MONMOUTH EXECUTIVE",
    "runways": [
      {
        "type": 100,
        "width": 24.08,
        "surfaceType": null,
        "numberStart": "14",
        "numberEnd": "32",
        "latStart": 40.194617,
        "lonStart": -74.13567667,
        "latEnd": 40.181083,
        "lonEnd": -74.11640467,
        "length": 0,
        "surfacetype": 1
      },
      {
        "type": 100,
        "width": 14.94,
        "surfaceType": null,
        "numberStart": "03",
        "numberEnd": "21",
        "latStart": 40.18054207,
        "lonStart": -74.12446719,
        "latEnd": 40.18999407,
        "lonEnd": -74.11955819,
        "length": 0,
        "surfacetype": 1
      },
      {
        "type": 102,
        "width": 28.04,
        "surfaceType": 1,
        "numberStart": "H1",
        "numberEnd": null,
        "latStart": 40.18107352,
        "lonStart": -74.12065835,
        "latEnd": null,
        "lonEnd": null,
        "length": 24.99
      },
      {
        "type": 102,
        "width": 28.04,
        "surfaceType": 1,
        "numberStart": "H2",
        "numberEnd": null,
        "latStart": 40.18389281,
        "lonStart": -74.11799949,
        "latEnd": null,
        "lonEnd": null,
        "length": 28.04
      }
    ],
    "id": 16191
  },
  {
    "type": 1,
    "icao": "KWRI",
    "lat": 40.01520201666667,
    "lon": -36.39558331,
    "communications": [
      {
        "type": 52,
        "frequency": 13520,
        "name": "CLNC DEL"
      },
      {
        "type": 53,
        "frequency": 12180,
        "name": "GND"
      },
      {
        "type": 54,
        "frequency": 11865,
        "name": "TWR"
      },
      {
        "type": 55,
        "frequency": 12415,
        "name": "APP/DEP"
      },
      {
        "type": 50,
        "frequency": 11060,
        "name": "ATIS"
      }
    ],
    "elevation": 129,
    "tower": true,
    "name": "McGuire AFB",
    "runways": [
      {
        "type": 100,
        "width": 45.72,
        "surfaceType": null,
        "numberStart": "06",
        "numberEnd": "24",
        "latStart": 40.00356577,
        "lonStart": -74.59867525,
        "latEnd": 40.02548868,
        "lonEnd": -74.56935323,
        "length": 0,
        "surfacetype": 1
      },
      {
        "type": 100,
        "width": 45.72,
        "surfaceType": null,
        "numberStart": "18",
        "numberEnd": "36",
        "latStart": 40.02748943,
        "lonStart": -74.60307923,
        "latEnd": 40.0080446,
        "lonEnd": -74.59986682,
        "length": 0,
        "surfacetype": 2
      },
      {
        "type": 102,
        "width": 30.5,
        "surfaceType": 15,
        "numberStart": "H1",
        "numberEnd": null,
        "latStart": 40.01271131,
        "lonStart": -74.60254371,
        "latEnd": null,
        "lonEnd": null,
        "length": 30.5
      },
      {
        "type": 102,
        "width": 30.5,
        "surfaceType": 15,
        "numberStart": "H2",
        "numberEnd": null,
        "latStart": 40.01391231,
        "lonStart": -74.60273495,
        "latEnd": null,
        "lonEnd": null,
        "length": 30.5
      }
    ],
    "id": 16972
  },
  {
    "type": 1,
    "icao": "KDPG",
    "lat": 40.199411,
    "lon": -36.383847,
    "communications": [
      {
        "type": 51,
        "frequency": 12620,
        "name": "CTAF"
      }
    ],
    "elevation": 4348,
    "tower": false,
    "name": "Michael AAF (Dougway Proving Grounds)",
    "runways": [
      {
        "type": 100,
        "width": 60.96,
        "surfaceType": null,
        "numberStart": "12L",
        "numberEnd": "30R",
        "latStart": 40.212147,
        "lonStart": -112.954369,
        "latEnd": 40.186675,
        "lonEnd": -112.921119,
        "length": 0,
        "surfacetype": 1
      }
    ],
    "id": 17132
  },
  {
    "type": 1,
    "icao": "QSAL",
    "lat": 40.772198,
    "lon": -36.56818892,
    "communications": [],
    "elevation": 4206,
    "tower": false,
    "name": "Salt Flats",
    "runways": [
      {
        "type": 100,
        "width": 91.44,
        "surfaceType": null,
        "numberStart": "09",
        "numberEnd": "27",
        "latStart": 40.772198,
        "lonStart": -113.90857584,
        "latEnd": 40.772198,
        "lonEnd": -113.87655016,
        "length": 0,
        "surfacetype": 12
      }
    ],
    "id": 22758
  },
  {
    "type": 1,
    "icao": "KENV",
    "lat": 40.718696,
    "lon": -36.664194499999994,
    "communications": [
      {
        "type": 50,
        "frequency": 13507,
        "name": "AWOS 3"
      },
      {
        "type": 51,
        "frequency": 12280,
        "name": "CTAF/UNICOM"
      }
    ],
    "elevation": 4236,
    "tower": false,
    "name": "Wendover",
    "runways": [
      {
        "type": 100,
        "width": 30.48,
        "surfaceType": null,
        "numberStart": "12",
        "numberEnd": "30",
        "latStart": 40.726203,
        "lonStart": -114.042992,
        "latEnd": 40.710686,
        "lonEnd": -114.022572,
        "length": 0,
        "surfacetype": 1
      },
      {
        "type": 100,
        "width": 45.72,
        "surfaceType": null,
        "numberStart": "08",
        "numberEnd": "26",
        "latStart": 40.718942,
        "lonStart": -114.043425,
        "latEnd": 40.718953,
        "lonEnd": -114.014572,
        "length": 0,
        "surfacetype": 1
      }
    ],
    "id": 27083
  }
]