[
  {
    "type": 1,
    "icao": "EBZW",
    "lat": 51.01484949499999,
    "lon": 5.5258161525,
    "communications": [],
    "elevation": 289,
    "tower": false,
    "name": "Genk Zwartberg",
    "runways": [
      {
        "type": 100,
        "width": 23,
        "surfaceType": null,
        "numberStart": "03",
        "numberEnd": "21",
        "latStart": 51.0119818,
        "lonStart": 5.52254116,
        "latEnd": 51.01815903,
        "lonEnd": 5.52916409,
        "length": 0,
        "surfacetype": 1
      },
      {
        "type": 100,
        "width": 26.51,
        "surfaceType": null,
        "numberStart": "04R",
        "numberEnd": "22L",
        "latStart": 51.01119823,
        "lonStart": 5.52210186,
        "latEnd": 51.01805892,
        "lonEnd": 5.5294575,
        "length": 0,
        "surfacetype": 3
      }
    ],
    "id": 949
  },
  {
    "type": 1,
    "icao": "EHBD",
    "lat": 51.255905212500004,
    "lon": 5.602743502499999,
    "communications": [
      {
        "type": 54,
        "frequency": 12215,
        "name": "Budel Radio"
      }
    ],
    "elevation": 112,
    "tower": false,
    "name": "Budel",
    "runways": [
      {
        "type": 100,
        "width": 22.85,
        "surfaceType": null,
        "numberStart": "03",
        "numberEnd": "21",
        "latStart": 51.25150962,
        "lonStart": 5.59763968,
        "latEnd": 51.26077409,
        "lonEnd": 5.60624887,
        "length": 0,
        "surfacetype": 1
      },
      {
        "type": 100,
        "width": 29.8,
        "surfaceType": null,
        "numberStart": "03R",
        "numberEnd": "21L",
        "latStart": 51.25333644,
        "lonStart": 5.60135291,
        "latEnd": 51.2580007,
        "lonEnd": 5.60573255,
        "length": 0,
        "surfacetype": 3
      }
    ],
    "id": 1636
  },
  {
    "type": 1,
    "icao": "EHEH",
    "lat": 51.44837567,
    "lon": 5.374846693333333,
    "communications": [
      {
        "type": 50,
        "frequency": 12603,
        "name": "ATIS"
      },
      {
        "type": 53,
        "frequency": 12192,
        "name": "Ground Control"
      },
      {
        "type": 54,
        "frequency": 12210,
        "name": "Tower"
      },
      {
        "type": 54,
        "frequency": 13100,
        "name": "Tower"
      },
      {
        "type": 55,
        "frequency": 12452,
        "name": "Approach"
      },
      {
        "type": 55,
        "frequency": 12210,
        "name": "Approach"
      },
      {
        "type": 55,
        "frequency": 12317,
        "name": "Approach"
      },
      {
        "type": 55,
        "frequency": 12210,
        "name": "Approach"
      }
    ],
    "elevation": 75,
    "tower": true,
    "name": "Eindhoven",
    "runways": [
      {
        "type": 100,
        "width": 45,
        "surfaceType": null,
        "numberStart": "03",
        "numberEnd": "21",
        "latStart": 51.43907231,
        "lonStart": 5.36212028,
        "latEnd": 51.461166,
        "lonEnd": 5.38690483,
        "length": 0,
        "surfacetype": 1
      },
      {
        "type": 102,
        "width": 55,
        "surfaceType": 2,
        "numberStart": "H",
        "numberEnd": null,
        "latStart": 51.4448887,
        "lonStart": 5.37551497,
        "latEnd": null,
        "lonEnd": null,
        "length": 75.2
      }
    ],
    "id": 1639
  },
  {
    "type": 1,
    "icao": "EHMD",
    "lat": 51.78599603,
    "lon": 5.880469275,
    "communications": [],
    "elevation": 0,
    "tower": false,
    "name": "Malden Gliders",
    "runways": [
      {
        "type": 100,
        "width": 143.09,
        "surfaceType": null,
        "numberStart": "02",
        "numberEnd": "20",
        "latStart": 51.7827863,
        "lonStart": 5.87910436,
        "latEnd": 51.78901733,
        "lonEnd": 5.88385232,
        "length": 0,
        "surfacetype": 3
      },
      {
        "type": 100,
        "width": 147.34,
        "surfaceType": null,
        "numberStart": "12",
        "numberEnd": "30",
        "latStart": 51.78854084,
        "lonStart": 5.87400077,
        "latEnd": 51.78363965,
        "lonEnd": 5.88491965,
        "length": 0,
        "surfacetype": 3
      }
    ],
    "id": 1647
  },
  {
    "type": 1,
    "icao": "EBBL",
    "lat": 51.167786910000004,
    "lon": 5.470906575000001,
    "communications": [
      {
        "type": 53,
        "frequency": 12210,
        "name": "TAXI"
      },
      {
        "type": 54,
        "frequency": 12210,
        "name": "TWR"
      },
      {
        "type": 55,
        "frequency": 12250,
        "name": "APP"
      }
    ],
    "elevation": 200,
    "tower": true,
    "name": "KLEINE BROGEL",
    "runways": [
      {
        "type": 100,
        "width": 45.11,
        "surfaceType": null,
        "numberStart": "05L",
        "numberEnd": "23R",
        "latStart": 51.15961482,
        "lonStart": 5.45307285,
        "latEnd": 51.17747612,
        "lonEnd": 5.48693477,
        "length": 0,
        "surfacetype": 1
      },
      {
        "type": 100,
        "width": 22.86,
        "surfaceType": null,
        "numberStart": "05R",
        "numberEnd": "23L",
        "latStart": 51.16011435,
        "lonStart": 5.45863184,
        "latEnd": 51.17394235,
        "lonEnd": 5.48498684,
        "length": 0,
        "surfacetype": 1
      }
    ],
    "id": 16127
  },
  {
    "type": 1,
    "icao": "EBKH",
    "lat": 51.18106231,
    "lon": 5.21983464,
    "communications": [
      {
        "type": 51,
        "frequency": 11920,
        "name": "Balen Radio"
      },
      {
        "type": 52,
        "frequency": 12350,
        "name": "Balen Radio (gliders)"
      },
      {
        "type": 53,
        "frequency": 12250,
        "name": "Kleine Brogel Approach"
      },
      {
        "type": 54,
        "frequency": 12210,
        "name": "Kleine Brogel Tower"
      },
      {
        "type": 54,
        "frequency": 12380,
        "name": "Zoersel Radio"
      },
      {
        "type": 55,
        "frequency": 12932,
        "name": "Brussels Radio"
      }
    ],
    "elevation": 130,
    "tower": true,
    "name": "Balen Keiheuvel",
    "runways": [
      {
        "type": 100,
        "width": 35.97,
        "surfaceType": null,
        "numberStart": "07",
        "numberEnd": "25",
        "latStart": 51.17920361,
        "lonStart": 5.21332092,
        "latEnd": 51.18292101,
        "lonEnd": 5.22634836,
        "length": 0,
        "surfacetype": 3
      }
    ],
    "id": 16139
  },
  {
    "type": 1,
    "icao": "EBLE",
    "lat": 51.117226,
    "lon": 5.301111000000001,
    "communications": [],
    "elevation": 207,
    "tower": false,
    "name": "Sanicole",
    "runways": [
      {
        "type": 100,
        "width": 17.98,
        "surfaceType": null,
        "numberStart": "08",
        "numberEnd": "26",
        "latStart": 51.11675683,
        "lonStart": 5.29687225,
        "latEnd": 51.11769517,
        "lonEnd": 5.30534975,
        "length": 0,
        "surfacetype": 1
      }
    ],
    "id": 16141
  },
  {
    "type": 1,
    "icao": "EBOT",
    "lat": 51.31779100000001,
    "lon": 5.0167515,
    "communications": [],
    "elevation": 75,
    "tower": true,
    "name": "Oud Turnhout",
    "runways": [
      {
        "type": 100,
        "width": 18.29,
        "surfaceType": null,
        "numberStart": "05",
        "numberEnd": "23",
        "latStart": 51.31490285,
        "lonStart": 5.01330309,
        "latEnd": 51.31842915,
        "lonEnd": 5.02002691,
        "length": 0,
        "surfacetype": 2
      },
      {
        "type": 100,
        "width": 30.48,
        "surfaceType": null,
        "numberStart": "10",
        "numberEnd": "28",
        "latStart": 51.31927324,
        "lonStart": 5.01359635,
        "latEnd": 51.31855876,
        "lonEnd": 5.02007965,
        "length": 0,
        "surfacetype": 3
      }
    ],
    "id": 16145
  },
  {
    "type": 1,
    "icao": "EBSF",
    "lat": 51,
    "lon": 5.060001,
    "communications": [],
    "elevation": 100,
    "tower": true,
    "name": "Schaffen",
    "runways": [
      {
        "type": 100,
        "width": 60.96,
        "surfaceType": null,
        "numberStart": "06",
        "numberEnd": "24",
        "latStart": 50.99842553,
        "lonStart": 5.05566765,
        "latEnd": 51.00157447,
        "lonEnd": 5.06433435,
        "length": 0,
        "surfacetype": 3
      }
    ],
    "id": 16146
  },
  {
    "type": 1,
    "icao": "EHDP",
    "lat": 51.516670000000005,
    "lon": 5.85853,
    "communications": [],
    "elevation": 96,
    "tower": true,
    "name": "De Peel",
    "runways": [
      {
        "type": 100,
        "width": 45.11,
        "surfaceType": null,
        "numberStart": "06",
        "numberEnd": "24",
        "latStart": 51.51128422,
        "lonStart": 5.84291628,
        "latEnd": 51.52205578,
        "lonEnd": 5.87414372,
        "length": 0,
        "surfacetype": 2
      }
    ],
    "id": 16420
  },
  {
    "type": 1,
    "icao": "EHNR",
    "lat": 51.683375325,
    "lon": 5.54800408,
    "communications": [
      {
        "type": 54,
        "frequency": 12997,
        "name": "Nistelrode"
      }
    ],
    "elevation": 25,
    "tower": true,
    "name": "Nistelrode",
    "runways": [
      {
        "type": 100,
        "width": 118.87,
        "surfaceType": null,
        "numberStart": "11",
        "numberEnd": "29",
        "latStart": 51.68462533,
        "lonStart": 5.54189272,
        "latEnd": 51.68212532,
        "lonEnd": 5.55411544,
        "length": 0,
        "surfacetype": 3
      }
    ],
    "id": 16426
  },
  {
    "type": 1,
    "icao": "EHVK",
    "lat": 51.654625321249995,
    "lon": 5.70332718125,
    "communications": [
      {
        "type": 51,
        "frequency": 13235,
        "name": "Dutch Mill"
      },
      {
        "type": 54,
        "frequency": 13607,
        "name": "Volkel Tower"
      },
      {
        "type": 55,
        "frequency": 12210,
        "name": "Volkel Arrival"
      },
      {
        "type": 56,
        "frequency": 12317,
        "name": "Rapcon South"
      }
    ],
    "elevation": 71,
    "tower": true,
    "name": "Volkel",
    "runways": [
      {
        "type": 100,
        "width": 45.11,
        "surfaceType": null,
        "numberStart": "6L",
        "numberEnd": "24R",
        "latStart": 51.64997302,
        "lonStart": 5.68928018,
        "latEnd": 51.66442342,
        "lonEnd": 5.72637968,
        "length": 0,
        "surfacetype": 1
      },
      {
        "type": 100,
        "width": 22.86,
        "surfaceType": null,
        "numberStart": "6R",
        "numberEnd": "24L",
        "latStart": 51.64837642,
        "lonStart": 5.69090017,
        "latEnd": 51.66281842,
        "lonEnd": 5.72797174,
        "length": 0,
        "surfacetype": 2
      },
      {
        "type": 100,
        "width": 22.86,
        "surfaceType": null,
        "numberStart": "5",
        "numberEnd": "23",
        "latStart": 51.64977737,
        "lonStart": 5.69688018,
        "latEnd": 51.65414459,
        "lonEnd": 5.70833356,
        "length": 0,
        "surfacetype": 3
      },
      {
        "type": 102,
        "width": 18,
        "surfaceType": 2,
        "numberStart": "H1",
        "numberEnd": null,
        "latStart": 51.65369263,
        "lonStart": 5.69257075,
        "latEnd": null,
        "lonEnd": null,
        "length": 18
      },
      {
        "type": 102,
        "width": 39.9,
        "surfaceType": 3,
        "numberStart": "H2",
        "numberEnd": null,
        "latStart": 51.6537967,
        "lonStart": 5.69430119,
        "latEnd": null,
        "lonEnd": null,
        "length": 39.9
      }
    ],
    "id": 16429
  }
]