[
  {
    "type": 1,
    "icao": "5M9",
    "lat": 37.33431950000001,
    "lon": -88.1151265,
    "communications": [
      {
        "type": 51,
        "frequency": 12290,
        "name": "CTAF"
      }
    ],
    "elevation": 652,
    "tower": false,
    "name": "MARION CRITTENDEN CO",
    "runways": [
      {
        "type": 100,
        "width": 22.86,
        "surfaceType": null,
        "numberStart": "07",
        "numberEnd": "25",
        "latStart": 37.331861,
        "lonStart": -88.122039,
        "latEnd": 37.336778,
        "lonEnd": -88.108214,
        "length": 0,
        "surfacetype": 1
      }
    ],
    "id": 185
  },
  {
    "type": 1,
    "icao": "KPAH",
    "lat": 37.06032,
    "lon": -88.77288275000001,
    "communications": [
      {
        "type": 50,
        "frequency": 11837,
        "name": "ASOS"
      },
      {
        "type": 51,
        "frequency": 11960,
        "name": "CTAF"
      },
      {
        "type": 51,
        "frequency": 12300,
        "name": "UNICOM"
      },
      {
        "type": 53,
        "frequency": 12170,
        "name": "GND"
      },
      {
        "type": 54,
        "frequency": 11960,
        "name": "PADUCAH TWR"
      }
    ],
    "elevation": 410,
    "tower": true,
    "name": "BARKLEY RGNL",
    "runways": [
      {
        "type": 100,
        "width": 45.72,
        "surfaceType": null,
        "numberStart": "04",
        "numberEnd": "22",
        "latStart": 37.053481,
        "lonStart": -88.781478,
        "latEnd": 37.066386,
        "lonEnd": -88.766092,
        "length": 0,
        "surfacetype": 1
      },
      {
        "type": 100,
        "width": 45.72,
        "surfaceType": null,
        "numberStart": "14",
        "numberEnd": "32",
        "latStart": 37.066444,
        "lonStart": -88.778108,
        "latEnd": 37.054969,
        "lonEnd": -88.765853,
        "length": 0,
        "surfacetype": 1
      }
    ],
    "id": 3098
  },
  {
    "type": 1,
    "icao": "M34",
    "lat": 37.0095,
    "lon": -88.29586649999999,
    "communications": [
      {
        "type": 50,
        "frequency": 11907,
        "name": "AWOS 3"
      },
      {
        "type": 51,
        "frequency": 12280,
        "name": "CTAF/UNICOM"
      }
    ],
    "elevation": 349,
    "tower": false,
    "name": "KENTUCKY DAM STATE PARK",
    "runways": [
      {
        "type": 100,
        "width": 30.48,
        "surfaceType": null,
        "numberStart": "09",
        "numberEnd": "27",
        "latStart": 37.009394,
        "lonStart": -88.302714,
        "latEnd": 37.009606,
        "lonEnd": -88.289019,
        "length": 0,
        "surfacetype": 1
      }
    ],
    "id": 4077
  },
  {
    "type": 1,
    "icao": "2IL5",
    "lat": 37.93421277,
    "lon": -88.23170612,
    "communications": [],
    "elevation": 470,
    "tower": false,
    "name": "Sutton",
    "runways": [
      {
        "type": 100,
        "width": 21.34,
        "surfaceType": null,
        "numberStart": "06",
        "numberEnd": "24",
        "latStart": 37.93263556,
        "lonStart": -88.23516974,
        "latEnd": 37.93578998,
        "lonEnd": -88.2282425,
        "length": 0,
        "surfacetype": 3
      }
    ],
    "id": 7010
  },
  {
    "type": 17,
    "icao": "4IS2",
    "lat": 37.92366,
    "lon": -88.80617445,
    "communications": [],
    "elevation": 620,
    "tower": false,
    "name": "[H] Memorial Hospital",
    "runways": [
      {
        "type": 102,
        "width": 12.5,
        "surfaceType": 2,
        "numberStart": "H1",
        "numberEnd": null,
        "latStart": 37.92366,
        "lonStart": -88.80617445,
        "latEnd": null,
        "lonEnd": null,
        "length": 12.5
      }
    ],
    "id": 8120
  },
  {
    "type": 17,
    "icao": "4IS4",
    "lat": 37.73060333,
    "lon": -88.52366139,
    "communications": [],
    "elevation": 395,
    "tower": false,
    "name": "[H] Harrisburg Medical Center",
    "runways": [
      {
        "type": 102,
        "width": 15.2,
        "surfaceType": 2,
        "numberStart": "H1",
        "numberEnd": null,
        "latStart": 37.73060333,
        "lonStart": -88.52366139,
        "latEnd": null,
        "lonEnd": null,
        "length": 15.2
      }
    ],
    "id": 8122
  },
  {
    "type": 17,
    "icao": "6IL1",
    "lat": 37.83838111,
    "lon": -88.58283139,
    "communications": [],
    "elevation": 438,
    "tower": false,
    "name": "[H] Kerr-Mcgee Coal Corporation",
    "runways": [
      {
        "type": 102,
        "width": 12.2,
        "surfaceType": 2,
        "numberStart": "H1",
        "numberEnd": null,
        "latStart": 37.83838111,
        "lonStart": -88.58283139,
        "latEnd": null,
        "lonEnd": null,
        "length": 12.2
      }
    ],
    "id": 9136
  },
  {
    "type": 17,
    "icao": "9H9",
    "lat": 37.64004944,
    "lon": -88.70894667,
    "communications": [],
    "elevation": 451,
    "tower": false,
    "name": "[H] Peabody-Will Scarlet",
    "runways": [
      {
        "type": 102,
        "width": 27.4,
        "surfaceType": 3,
        "numberStart": "H1",
        "numberEnd": null,
        "latStart": 37.64004944,
        "lonStart": -88.70894667,
        "latEnd": null,
        "lonEnd": null,
        "length": 27.4
      }
    ],
    "id": 10520
  },
  {
    "type": 1,
    "icao": "23KY",
    "lat": 37.230833329999996,
    "lon": -88.31861112,
    "communications": [],
    "elevation": 500,
    "tower": false,
    "name": "Barnes Farm",
    "runways": [
      {
        "type": 100,
        "width": 22.86,
        "surfaceType": null,
        "numberStart": "05",
        "numberEnd": "23",
        "latStart": 37.22854123,
        "lonStart": -88.32204192,
        "latEnd": 37.23312543,
        "lonEnd": -88.31518032,
        "length": 0,
        "surfacetype": 3
      }
    ],
    "id": 11433
  },
  {
    "type": 17,
    "icao": "25KY",
    "lat": 37.07505555,
    "lon": -88.62560417,
    "communications": [],
    "elevation": 339,
    "tower": false,
    "name": "[H] Western Baptist Hospital",
    "runways": [
      {
        "type": 102,
        "width": 15.2,
        "surfaceType": 2,
        "numberStart": "H1",
        "numberEnd": null,
        "latStart": 37.07505555,
        "lonStart": -88.62560417,
        "latEnd": null,
        "lonEnd": null,
        "length": 15.2
      }
    ],
    "id": 11516
  },
  {
    "type": 17,
    "icao": "58IS",
    "lat": 37.72366083,
    "lon": -88.95701528,
    "communications": [],
    "elevation": 462,
    "tower": false,
    "name": "[H] Va Medical Center",
    "runways": [
      {
        "type": 102,
        "width": 15.2,
        "surfaceType": 2,
        "numberStart": "H1",
        "numberEnd": null,
        "latStart": 37.72366083,
        "lonStart": -88.95701528,
        "latEnd": null,
        "lonEnd": null,
        "length": 15.2
      }
    ],
    "id": 12795
  },
  {
    "type": 17,
    "icao": "91LL",
    "lat": 37.84171222,
    "lon": -88.17253667,
    "communications": [],
    "elevation": 375,
    "tower": false,
    "name": "[H] Downen",
    "runways": [
      {
        "type": 102,
        "width": 45.7,
        "surfaceType": 3,
        "numberStart": "H1",
        "numberEnd": null,
        "latStart": 37.84171222,
        "lonStart": -88.17253667,
        "latEnd": null,
        "lonEnd": null,
        "length": 121.9
      }
    ],
    "id": 14065
  },
  {
    "type": 1,
    "icao": "95IL",
    "lat": 37.48616111,
    "lon": -88.40004028,
    "communications": [],
    "elevation": 485,
    "tower": false,
    "name": "Stone Lra",
    "runways": [
      {
        "type": 100,
        "width": 30.48,
        "surfaceType": null,
        "numberStart": "03",
        "numberEnd": "21",
        "latStart": 37.48292822,
        "lonStart": -88.40248832,
        "latEnd": 37.489394,
        "lonEnd": -88.39759224,
        "length": 0,
        "surfacetype": 3
      }
    ],
    "id": 14196
  },
  {
    "type": 1,
    "icao": "99IL",
    "lat": 37.478384160000004,
    "lon": -88.80339445,
    "communications": [],
    "elevation": 669,
    "tower": false,
    "name": "Covey-Simpson",
    "runways": [
      {
        "type": 100,
        "width": 15.24,
        "surfaceType": null,
        "numberStart": "04",
        "numberEnd": "22",
        "latStart": 37.47683154,
        "lonStart": -88.80509518,
        "latEnd": 37.47993678,
        "lonEnd": -88.80169372,
        "length": 0,
        "surfacetype": 3
      }
    ],
    "id": 14326
  },
  {
    "type": 1,
    "icao": "H16",
    "lat": 37.99866,
    "lon": -88.81811917,
    "communications": [],
    "elevation": 455,
    "tower": false,
    "name": "Bessie Rla",
    "runways": [
      {
        "type": 100,
        "width": 21.34,
        "surfaceType": null,
        "numberStart": "18",
        "numberEnd": "36",
        "latStart": 38.00030554,
        "lonStart": -88.81808272,
        "latEnd": 37.99701446,
        "lonEnd": -88.81815562,
        "length": 0,
        "surfacetype": 3
      }
    ],
    "id": 17820
  },
  {
    "type": 17,
    "icao": "IL61",
    "lat": 37.39755194,
    "lon": -88.77422528,
    "communications": [],
    "elevation": 508,
    "tower": false,
    "name": "[H] Vienna Correctional Center",
    "runways": [
      {
        "type": 102,
        "width": 18.3,
        "surfaceType": 2,
        "numberStart": "H1",
        "numberEnd": null,
        "latStart": 37.39755194,
        "lonStart": -88.77422528,
        "latEnd": null,
        "lonEnd": null,
        "length": 18.3
      }
    ],
    "id": 18461
  },
  {
    "type": 17,
    "icao": "IS98",
    "lat": 37.72949388,
    "lon": -88.90506834,
    "communications": [],
    "elevation": 438,
    "tower": false,
    "name": "[H] Fabick Five",
    "runways": [
      {
        "type": 102,
        "width": 12.2,
        "surfaceType": 1,
        "numberStart": "H1",
        "numberEnd": null,
        "latStart": 37.72949388,
        "lonStart": -88.90506834,
        "latEnd": null,
        "lonEnd": null,
        "length": 12.2
      }
    ],
    "id": 18671
  },
  {
    "type": 16,
    "icao": "K45",
    "lat": 37.05361111,
    "lon": -88.09472223,
    "communications": [],
    "elevation": 357,
    "tower": false,
    "name": "[S] Kuttawa Harbor",
    "runways": [
      {
        "type": 101,
        "width": 91.44,
        "surfaceType": null,
        "numberStart": "02",
        "numberEnd": "20",
        "latStart": 37.0478116,
        "lonStart": -88.09736716,
        "latEnd": 37.05941062,
        "lonEnd": -88.0920773,
        "length": 0
      },
      {
        "type": 101,
        "width": 121.92,
        "surfaceType": null,
        "numberStart": "09",
        "numberEnd": "27",
        "latStart": 37.05361111,
        "lonStart": -88.10675176,
        "latEnd": 37.05361111,
        "lonEnd": -88.0826927,
        "length": 0
      },
      {
        "type": 101,
        "width": 121.92,
        "surfaceType": null,
        "numberStart": "13",
        "numberEnd": "31",
        "latStart": 37.06242688,
        "lonStart": -88.10788674,
        "latEnd": 37.04479534,
        "lonEnd": -88.08155772,
        "length": 0
      }
    ],
    "id": 18720
  },
  {
    "type": 1,
    "icao": "KHSB",
    "lat": 37.810922,
    "lon": -88.54964375,
    "communications": [
      {
        "type": 50,
        "frequency": 13592,
        "name": "AWOS 3"
      },
      {
        "type": 51,
        "frequency": 12280,
        "name": "CTAF/UNICOM"
      }
    ],
    "elevation": 396,
    "tower": false,
    "name": "HARRISBURG RALEIGH",
    "runways": [
      {
        "type": 100,
        "width": 22.86,
        "surfaceType": null,
        "numberStart": "06",
        "numberEnd": "24",
        "latStart": 37.808964,
        "lonStart": -88.559469,
        "latEnd": 37.815194,
        "lonEnd": -88.543928,
        "length": 0,
        "surfacetype": 1
      },
      {
        "type": 100,
        "width": 22.86,
        "surfaceType": null,
        "numberStart": "14",
        "numberEnd": "32",
        "latStart": 37.812711,
        "lonStart": -88.550606,
        "latEnd": 37.806819,
        "lonEnd": -88.544572,
        "length": 0,
        "surfacetype": 1
      }
    ],
    "id": 19309
  },
  {
    "type": 17,
    "icao": "KY01",
    "lat": 37.06033333,
    "lon": -88.64838278,
    "communications": [],
    "elevation": 444,
    "tower": false,
    "name": "[H] Lourdes Hospital",
    "runways": [
      {
        "type": 102,
        "width": 12.2,
        "surfaceType": 2,
        "numberStart": "H1",
        "numberEnd": null,
        "latStart": 37.06033333,
        "lonStart": -88.64838278,
        "latEnd": null,
        "lonEnd": null,
        "length": 12.2
      }
    ],
    "id": 19983
  },
  {
    "type": 1,
    "icao": "M30",
    "lat": 37.1829415,
    "lon": -88.7506685,
    "communications": [
      {
        "type": 50,
        "frequency": 12417,
        "name": "AWOS 3"
      },
      {
        "type": 51,
        "frequency": 12280,
        "name": "CTAF/UNICOM"
      }
    ],
    "elevation": 384,
    "tower": false,
    "name": "METROPOLIS MUNI",
    "runways": [
      {
        "type": 100,
        "width": 22.86,
        "surfaceType": null,
        "numberStart": "18",
        "numberEnd": "36",
        "latStart": 37.188436,
        "lonStart": -88.750606,
        "latEnd": 37.177447,
        "lonEnd": -88.750731,
        "length": 0,
        "surfacetype": 1
      }
    ],
    "id": 20974
  }
]