[
  {
    "type": 1,
    "icao": "LGPZ",
    "lat": 38.925465,
    "lon": 20.765310999999997,
    "communications": [
      {
        "type": 54,
        "frequency": 12210,
        "name": "TWR"
      },
      {
        "type": 54,
        "frequency": 12045,
        "name": "TWR"
      },
      {
        "type": 55,
        "frequency": 12045,
        "name": "APP"
      },
      {
        "type": 55,
        "frequency": 12210,
        "name": "APP"
      }
    ],
    "elevation": 11,
    "tower": true,
    "name": "AKTIO",
    "runways": [
      {
        "type": 100,
        "width": 45.11,
        "surfaceType": null,
        "numberStart": "07L",
        "numberEnd": "25R",
        "latStart": 38.920597,
        "lonStart": 20.749975,
        "latEnd": 38.930333,
        "lonEnd": 20.780647,
        "length": 0,
        "surfacetype": 1
      }
    ],
    "id": 132
  },
  {
    "type": 1,
    "icao": "LGKF",
    "lat": 38.1200695,
    "lon": 20.500479040000002,
    "communications": [
      {
        "type": 54,
        "frequency": 12225,
        "name": "AFIS INFO"
      }
    ],
    "elevation": 59,
    "tower": true,
    "name": "Kefallinia",
    "runways": [
      {
        "type": 100,
        "width": 45.11,
        "surfaceType": null,
        "numberStart": "14",
        "numberEnd": "32",
        "latStart": 38.129175,
        "lonStart": 20.4927885,
        "latEnd": 38.110964,
        "lonEnd": 20.50816958,
        "length": 0,
        "surfacetype": 1
      }
    ],
    "id": 13694
  }
]