[
  {
    "type": 1,
    "icao": "SVVA",
    "lat": 10.1497335,
    "lon": -28.896482999999996,
    "communications": [
      {
        "type": 50,
        "frequency": 12780,
        "name": "ATIS"
      },
      {
        "type": 53,
        "frequency": 12190,
        "name": "GND"
      },
      {
        "type": 54,
        "frequency": 11890,
        "name": "VALENCIA TWR"
      }
    ],
    "elevation": 1416,
    "tower": true,
    "name": "ARTURO MICHELENA INTL",
    "runways": [
      {
        "type": 100,
        "width": 49.99,
        "surfaceType": null,
        "numberStart": "10",
        "numberEnd": "28",
        "latStart": 10.1504,
        "lonStart": -67.942033,
        "latEnd": 10.149067,
        "lonEnd": -67.914767,
        "length": 0,
        "surfacetype": 1
      }
    ],
    "id": 410
  },
  {
    "type": 1,
    "icao": "SVFM",
    "lat": 10.4850335,
    "lon": -28.184600875,
    "communications": [
      {
        "type": 50,
        "frequency": 12740,
        "name": "ATIS"
      },
      {
        "type": 53,
        "frequency": 12180,
        "name": "GND"
      },
      {
        "type": 54,
        "frequency": 11880,
        "name": "MIRANDA TWR"
      }
    ],
    "elevation": 2735,
    "tower": true,
    "name": "Caracas Generalisimo Francisco De Mira",
    "runways": [
      {
        "type": 100,
        "width": 42.67,
        "surfaceType": null,
        "numberStart": "11",
        "numberEnd": "29",
        "latStart": 10.48692916,
        "lonStart": -66.85233959,
        "latEnd": 10.48313784,
        "lonEnd": -66.83469352,
        "length": 0,
        "surfacetype": 1
      }
    ],
    "id": 4523
  },
  {
    "type": 1,
    "icao": "SVMI",
    "lat": 10.60315452,
    "lon": -28.200076292500004,
    "communications": [
      {
        "type": 50,
        "frequency": 11480,
        "name": "ATIS"
      },
      {
        "type": 52,
        "frequency": 11950,
        "name": "CLD"
      },
      {
        "type": 53,
        "frequency": 12190,
        "name": "GND"
      },
      {
        "type": 54,
        "frequency": 11840,
        "name": "MAIQUETIA TWR"
      },
      {
        "type": 55,
        "frequency": 12040,
        "name": "MAIQUETIA APP"
      },
      {
        "type": 56,
        "frequency": 11840,
        "name": "MAIQUETIA DEP"
      },
      {
        "type": 51,
        "frequency": 12880,
        "name": "MAIQUETIA UNICOM"
      }
    ],
    "elevation": 229,
    "tower": true,
    "name": "Caracas Simon Bolivar Intl",
    "runways": [
      {
        "type": 100,
        "width": 45.11,
        "surfaceType": null,
        "numberStart": "10",
        "numberEnd": "28",
        "latStart": 10.60379977,
        "lonStart": -67.01273666,
        "latEnd": 10.60481877,
        "lonEnd": -66.9804336,
        "length": 0,
        "surfacetype": 1
      },
      {
        "type": 100,
        "width": 44.2,
        "surfaceType": null,
        "numberStart": "09",
        "numberEnd": "27",
        "latStart": 10.59872477,
        "lonStart": -66.99766205,
        "latEnd": 10.60527477,
        "lonEnd": -66.97109305,
        "length": 0,
        "surfacetype": 1
      }
    ],
    "id": 4524
  },
  {
    "type": 1,
    "icao": "SVBL",
    "lat": 10.183544715,
    "lon": -28.692871785,
    "communications": [
      {
        "type": 54,
        "frequency": 12430,
        "name": "TWR"
      },
      {
        "type": 55,
        "frequency": 12080,
        "name": "APP"
      },
      {
        "type": 51,
        "frequency": 11930,
        "name": "LIBERTADOR OPS"
      },
      {
        "type": 50,
        "frequency": 13275,
        "name": "ATIS"
      },
      {
        "type": 54,
        "frequency": 12230,
        "name": "TWR"
      },
      {
        "type": 54,
        "frequency": 12250,
        "name": "Tower"
      }
    ],
    "elevation": 1450,
    "tower": true,
    "name": "EL LIBERTADOR AB",
    "runways": [
      {
        "type": 100,
        "width": 47.85,
        "surfaceType": null,
        "numberStart": "09",
        "numberEnd": "27",
        "latStart": 10.181333,
        "lonStart": -67.5715,
        "latEnd": 10.18575643,
        "lonEnd": -67.54065178,
        "length": 0,
        "surfacetype": 2
      }
    ],
    "id": 6701
  },
  {
    "type": 1,
    "icao": "SVEP",
    "lat": 10.197591500000001,
    "lon": -28.624751500000002,
    "communications": [],
    "elevation": 1555,
    "tower": false,
    "name": "EL PALMAR",
    "runways": [
      {
        "type": 100,
        "width": 14.94,
        "surfaceType": null,
        "numberStart": "08",
        "numberEnd": "26",
        "latStart": 10.195261,
        "lonStart": -67.449425,
        "latEnd": 10.199922,
        "lonEnd": -67.438989,
        "length": 0,
        "surfacetype": 4
      }
    ],
    "id": 6706
  },
  {
    "type": 1,
    "icao": "SVPC",
    "lat": 10.4805,
    "lon": -28.801594499999997,
    "communications": [
      {
        "type": 53,
        "frequency": 12190,
        "name": "GND"
      },
      {
        "type": 54,
        "frequency": 11850,
        "name": "PUERTO CABELLO TWR"
      }
    ],
    "elevation": 32,
    "tower": true,
    "name": "GENERAL BARTOLOME SALOM INTL",
    "runways": [
      {
        "type": 100,
        "width": 44.2,
        "surfaceType": null,
        "numberStart": "10",
        "numberEnd": "28",
        "latStart": 10.481536,
        "lonStart": -68.082653,
        "latEnd": 10.479464,
        "lonEnd": -68.063397,
        "length": 0,
        "surfacetype": 1
      }
    ],
    "id": 9922
  },
  {
    "type": 1,
    "icao": "SVWB",
    "lat": 10.4794705,
    "lon": -28.9993725,
    "communications": [],
    "elevation": 49,
    "tower": true,
    "name": "LA BANANERA",
    "runways": [
      {
        "type": 100,
        "width": 15.24,
        "surfaceType": null,
        "numberStart": "09",
        "numberEnd": "27",
        "latStart": 10.479419,
        "lonStart": -68.478267,
        "latEnd": 10.479522,
        "lonEnd": -68.467367,
        "length": 0,
        "surfacetype": 1
      }
    ],
    "id": 14253
  },
  {
    "type": 1,
    "icao": "SVBS",
    "lat": 10.24989175,
    "lon": -28.703816500000002,
    "communications": [
      {
        "type": 50,
        "frequency": 12760,
        "name": "ATIS"
      },
      {
        "type": 53,
        "frequency": 12170,
        "name": "GND"
      },
      {
        "type": 54,
        "frequency": 11805,
        "name": "TWR"
      }
    ],
    "elevation": 1338,
    "tower": true,
    "name": "MARISCAL SUCRE",
    "runways": [
      {
        "type": 100,
        "width": 39.93,
        "surfaceType": null,
        "numberStart": "10",
        "numberEnd": "28",
        "latStart": 10.252983,
        "lonStart": -67.6615,
        "latEnd": 10.24825,
        "lonEnd": -67.643067,
        "length": 0,
        "surfacetype": 1
      },
      {
        "type": 100,
        "width": 39.93,
        "surfaceType": null,
        "numberStart": "05",
        "numberEnd": "23",
        "latStart": 10.245267,
        "lonStart": -67.655083,
        "latEnd": 10.253067,
        "lonEnd": -67.64545,
        "length": 0,
        "surfacetype": 1
      }
    ],
    "id": 15845
  },
  {
    "type": 1,
    "icao": "SVMP",
    "lat": 10.13316105,
    "lon": -28.329796,
    "communications": [
      {
        "type": 53,
        "frequency": 12190,
        "name": "GND"
      },
      {
        "type": 54,
        "frequency": 12200,
        "name": "TWR"
      }
    ],
    "elevation": 574,
    "tower": true,
    "name": "METROPOLITANO",
    "runways": [
      {
        "type": 100,
        "width": 29.87,
        "surfaceType": null,
        "numberStart": "08",
        "numberEnd": "26",
        "latStart": 10.13171704,
        "lonStart": -66.79419706,
        "latEnd": 10.13460506,
        "lonEnd": -66.78150241,
        "length": 0,
        "surfacetype": 1
      }
    ],
    "id": 16059
  },
  {
    "type": 1,
    "icao": "SV04",
    "lat": 10.7839405,
    "lon": -28.7812915,
    "communications": [],
    "elevation": 19,
    "tower": false,
    "name": "PUNTA BRAVA",
    "runways": [
      {
        "type": 100,
        "width": 21.34,
        "surfaceType": null,
        "numberStart": "08",
        "numberEnd": "26",
        "latStart": 10.782706,
        "lonStart": -68.347758,
        "latEnd": 10.785175,
        "lonEnd": -68.339547,
        "length": 0,
        "surfacetype": 1
      }
    ],
    "id": 19603
  }
]