[
  {
    "type": 1,
    "icao": "WMKA",
    "lat": 6.19046626,
    "lon": 100.3990415,
    "communications": [
      {
        "type": 53,
        "frequency": 12160,
        "name": "ALOR STAR GND"
      },
      {
        "type": 54,
        "frequency": 12230,
        "name": "ALOR STAR TWR"
      },
      {
        "type": 55,
        "frequency": 12230,
        "name": "ALOR STAR APP"
      }
    ],
    "elevation": 15,
    "tower": true,
    "name": "Alor Setar Sultan Abdul Halim",
    "runways": [
      {
        "type": 100,
        "width": 46.02,
        "surfaceType": null,
        "numberStart": "04",
        "numberEnd": "22",
        "latStart": 6.18065851,
        "lonStart": 100.39006221,
        "latEnd": 6.20027401,
        "lonEnd": 100.40802079,
        "length": 0,
        "surfacetype": 1
      }
    ],
    "id": 912
  },
  {
    "type": 1,
    "icao": "VTSA",
    "lat": 6.6614015,
    "lon": 100.08031500000001,
    "communications": [],
    "elevation": 18,
    "tower": true,
    "name": "Khoun Khan",
    "runways": [
      {
        "type": 100,
        "width": 39.93,
        "surfaceType": null,
        "numberStart": "17",
        "numberEnd": "35",
        "latStart": 6.666414,
        "lonStart": 100.079772,
        "latEnd": 6.656389,
        "lonEnd": 100.080858,
        "length": 0,
        "surfacetype": 1
      }
    ],
    "id": 13828
  },
  {
    "type": 1,
    "icao": "VTSS",
    "lat": 6.9325135,
    "lon": 100.3929765,
    "communications": [
      {
        "type": 50,
        "frequency": 12880,
        "name": "ATIS"
      },
      {
        "type": 53,
        "frequency": 12190,
        "name": "GND"
      },
      {
        "type": 54,
        "frequency": 11810,
        "name": "TWR"
      },
      {
        "type": 55,
        "frequency": 12670,
        "name": "APP"
      }
    ],
    "elevation": 90,
    "tower": true,
    "name": "Songkhla Hat Yai Intl",
    "runways": [
      {
        "type": 100,
        "width": 45.11,
        "surfaceType": null,
        "numberStart": "08",
        "numberEnd": "26",
        "latStart": 6.930833,
        "lonStart": 100.3793,
        "latEnd": 6.934194,
        "lonEnd": 100.406653,
        "length": 0,
        "surfacetype": 1
      }
    ],
    "id": 23842
  }
]