[
  {
    "type": 17,
    "icao": "WV04",
    "lat": 37.79955861,
    "lon": -81.16815528,
    "communications": [],
    "elevation": 2338,
    "tower": false,
    "name": "[H] Appalachian Regional Hospital",
    "runways": [
      {
        "type": 102,
        "width": 12.2,
        "surfaceType": 1,
        "numberStart": "H1",
        "numberEnd": null,
        "latStart": 37.79955861,
        "lonStart": -81.16815528,
        "latEnd": null,
        "lonEnd": null,
        "length": 12.2
      }
    ],
    "id": 28156
  },
  {
    "type": 17,
    "icao": "WV33",
    "lat": 37.79289166,
    "lon": -81.21232334,
    "communications": [],
    "elevation": 2500,
    "tower": false,
    "name": "[H] Beckley Hotel",
    "runways": [
      {
        "type": 102,
        "width": 22.9,
        "surfaceType": 1,
        "numberStart": "H1",
        "numberEnd": null,
        "latStart": 37.79289166,
        "lonStart": -81.21232334,
        "latEnd": null,
        "lonEnd": null,
        "length": 61
      }
    ],
    "id": 28403
  },
  {
    "type": 17,
    "icao": "WV34",
    "lat": 37.25456166,
    "lon": -81.23370889,
    "communications": [],
    "elevation": 2500,
    "tower": false,
    "name": "[H] Bluefield Regional Medical Center",
    "runways": [
      {
        "type": 102,
        "width": 15.2,
        "surfaceType": 2,
        "numberStart": "H1",
        "numberEnd": null,
        "latStart": 37.25456166,
        "lonStart": -81.23370889,
        "latEnd": null,
        "lonEnd": null,
        "length": 15.2
      }
    ],
    "id": 28502
  },
  {
    "type": 17,
    "icao": "30VA",
    "lat": 37.0945575,
    "lon": -81.82095056,
    "communications": [],
    "elevation": 1963,
    "tower": false,
    "name": "[H] Clinch Valley Medical Center",
    "runways": [
      {
        "type": 102,
        "width": 18.3,
        "surfaceType": 1,
        "numberStart": "H1",
        "numberEnd": null,
        "latStart": 37.0945575,
        "lonStart": -81.82095056,
        "latEnd": null,
        "lonEnd": null,
        "length": 19.8
      }
    ],
    "id": 29009
  },
  {
    "type": 17,
    "icao": "WV26",
    "lat": 37.72456083,
    "lon": -81.09704056,
    "communications": [],
    "elevation": 2548,
    "tower": false,
    "name": "[H] Glade Springs",
    "runways": [
      {
        "type": 102,
        "width": 18.3,
        "surfaceType": 1,
        "numberStart": "H1",
        "numberEnd": null,
        "latStart": 37.72456083,
        "lonStart": -81.09704056,
        "latEnd": null,
        "lonEnd": null,
        "length": 45.7
      }
    ],
    "id": 29935
  },
  {
    "type": 17,
    "icao": "WV03",
    "lat": 37.78344861,
    "lon": -81.11648667,
    "communications": [],
    "elevation": 2180,
    "tower": false,
    "name": "[H] Lee Norse Nr 2",
    "runways": [
      {
        "type": 102,
        "width": 30.5,
        "surfaceType": 3,
        "numberStart": "H1",
        "numberEnd": null,
        "latStart": 37.78344861,
        "lonStart": -81.11648667,
        "latEnd": null,
        "lonEnd": null,
        "length": 30.5
      }
    ],
    "id": 30867
  },
  {
    "type": 17,
    "icao": "WV45",
    "lat": 37.36261805,
    "lon": -81.11370334,
    "communications": [],
    "elevation": 2410,
    "tower": false,
    "name": "[H] Princeton Community Hospital",
    "runways": [
      {
        "type": 102,
        "width": 18.3,
        "surfaceType": 1,
        "numberStart": "H1",
        "numberEnd": null,
        "latStart": 37.36261805,
        "lonStart": -81.11370334,
        "latEnd": null,
        "lonEnd": null,
        "length": 18.3
      }
    ],
    "id": 32159
  },
  {
    "type": 17,
    "icao": "WV60",
    "lat": 37.74844777,
    "lon": -81.22232278,
    "communications": [],
    "elevation": 2258,
    "tower": false,
    "name": "[H] Walker Iii",
    "runways": [
      {
        "type": 102,
        "width": 3.7,
        "surfaceType": 1,
        "numberStart": "H1",
        "numberEnd": null,
        "latStart": 37.74844777,
        "lonStart": -81.22232278,
        "latEnd": null,
        "lonEnd": null,
        "length": 4.9
      }
    ],
    "id": 33707
  },
  {
    "type": 17,
    "icao": "WV54",
    "lat": 37.77194444,
    "lon": -81.93277778,
    "communications": [],
    "elevation": 700,
    "tower": false,
    "name": "[H] Walker Vi",
    "runways": [
      {
        "type": 102,
        "width": 6.1,
        "surfaceType": 2,
        "numberStart": "H1",
        "numberEnd": null,
        "latStart": 37.77194444,
        "lonStart": -81.93277778,
        "latEnd": null,
        "lonEnd": null,
        "length": 6.1
      }
    ],
    "id": 33710
  }
]