[
  {
    "type": 17,
    "icao": "OK76",
    "lat": 36.11620305,
    "lon": -96.02610917,
    "communications": [],
    "elevation": 910,
    "tower": false,
    "name": "[H] Channel 8",
    "runways": [
      {
        "type": 102,
        "width": 18.3,
        "surfaceType": 2,
        "numberStart": "H1",
        "numberEnd": null,
        "latStart": 36.11620305,
        "lonStart": -96.02610917,
        "latEnd": null,
        "lonEnd": null,
        "length": 18.3
      }
    ],
    "id": 28887
  },
  {
    "type": 17,
    "icao": "8OK3",
    "lat": 36.31673333,
    "lon": -96.50030167,
    "communications": [],
    "elevation": 959,
    "tower": false,
    "name": "[H] Cleveland Area Hospital",
    "runways": [
      {
        "type": 102,
        "width": 7.6,
        "surfaceType": 2,
        "numberStart": "H1",
        "numberEnd": null,
        "latStart": 36.31673333,
        "lonStart": -96.50030167,
        "latEnd": null,
        "lonEnd": null,
        "length": 9.1
      }
    ],
    "id": 29006
  },
  {
    "type": 17,
    "icao": "68OK",
    "lat": 36.56671388,
    "lon": -96.71697695,
    "communications": [],
    "elevation": 958,
    "tower": false,
    "name": "[H] Fairfax",
    "runways": [
      {
        "type": 102,
        "width": 18.3,
        "surfaceType": 1,
        "numberStart": "H1",
        "numberEnd": null,
        "latStart": 36.56671388,
        "lonStart": -96.71697695,
        "latEnd": null,
        "lonEnd": null,
        "length": 18.3
      }
    ],
    "id": 29640
  },
  {
    "type": 17,
    "icao": "OL01",
    "lat": 36.12897527,
    "lon": -96.14417001,
    "communications": [],
    "elevation": 652,
    "tower": false,
    "name": "[H] Hissom Memorial Center",
    "runways": [
      {
        "type": 102,
        "width": 18.3,
        "surfaceType": 2,
        "numberStart": "H1",
        "numberEnd": null,
        "latStart": 36.12897527,
        "lonStart": -96.14417001,
        "latEnd": null,
        "lonEnd": null,
        "length": 18.3
      }
    ],
    "id": 30255
  },
  {
    "type": 17,
    "icao": "OK61",
    "lat": 36.10342638,
    "lon": -96.00360806,
    "communications": [],
    "elevation": 628,
    "tower": false,
    "name": "[H] Major",
    "runways": [
      {
        "type": 102,
        "width": 12.2,
        "surfaceType": 3,
        "numberStart": "H1",
        "numberEnd": null,
        "latStart": 36.10342638,
        "lonStart": -96.00360806,
        "latEnd": null,
        "lonEnd": null,
        "length": 12.2
      }
    ],
    "id": 31049
  },
  {
    "type": 17,
    "icao": "78OK",
    "lat": 36.66673166,
    "lon": -96.33361945,
    "communications": [],
    "elevation": 877,
    "tower": false,
    "name": "[H] Pawhuska",
    "runways": [
      {
        "type": 102,
        "width": 15.2,
        "surfaceType": 1,
        "numberStart": "H1",
        "numberEnd": null,
        "latStart": 36.66673166,
        "lonStart": -96.33361945,
        "latEnd": null,
        "lonEnd": null,
        "length": 15.2
      }
    ],
    "id": 31935
  },
  {
    "type": 17,
    "icao": "9OK2",
    "lat": 36.33338777,
    "lon": -96.80031195,
    "communications": [],
    "elevation": 924,
    "tower": false,
    "name": "[H] Pawnee Municipal Hospital",
    "runways": [
      {
        "type": 102,
        "width": 6.1,
        "surfaceType": 2,
        "numberStart": "H1",
        "numberEnd": null,
        "latStart": 36.33338777,
        "lonStart": -96.80031195,
        "latEnd": null,
        "lonEnd": null,
        "length": 6.1
      }
    ],
    "id": 31936
  },
  {
    "type": 17,
    "icao": "82OK",
    "lat": 36.00009055,
    "lon": -96.09194334,
    "communications": [],
    "elevation": 750,
    "tower": false,
    "name": "[H] W D Robinson",
    "runways": [
      {
        "type": 102,
        "width": 12.2,
        "surfaceType": 1,
        "numberStart": "H1",
        "numberEnd": null,
        "latStart": 36.00009055,
        "lonStart": -96.09194334,
        "latEnd": null,
        "lonEnd": null,
        "length": 12.2
      }
    ],
    "id": 33666
  }
]