[
  {
    "type": 17,
    "icao": "YAGR",
    "lat": -16.01656404,
    "lon": 145.84999542,
    "communications": [],
    "elevation": 8,
    "tower": false,
    "name": "[H] AGINCOURT REEF",
    "runways": [
      {
        "type": 102,
        "width": 14.9,
        "surfaceType": 2,
        "numberStart": "H23",
        "numberEnd": null,
        "latStart": -16.01656404,
        "lonStart": 145.84999542,
        "latEnd": null,
        "lonEnd": null,
        "length": 14.9
      }
    ],
    "id": 27973
  },
  {
    "type": 17,
    "icao": "YMAM",
    "lat": -16.7333251,
    "lon": 145.51075726,
    "communications": [],
    "elevation": 1341,
    "tower": false,
    "name": "[H] MONA MONA",
    "runways": [
      {
        "type": 102,
        "width": 18,
        "surfaceType": 3,
        "numberStart": "H13",
        "numberEnd": null,
        "latStart": -16.7333251,
        "lonStart": 145.51075726,
        "latEnd": null,
        "lonEnd": null,
        "length": 18
      }
    ],
    "id": 31009
  },
  {
    "type": 17,
    "icao": "YPAE",
    "lat": -16.78590818,
    "lon": 145.6652317,
    "communications": [],
    "elevation": 162,
    "tower": false,
    "name": "[H] PARADISE PALMS",
    "runways": [
      {
        "type": 102,
        "width": 18,
        "surfaceType": 3,
        "numberStart": "H4",
        "numberEnd": null,
        "latStart": -16.78590818,
        "lonStart": 145.6652317,
        "latEnd": null,
        "lonEnd": null,
        "length": 18
      }
    ],
    "id": 31809
  },
  {
    "type": 17,
    "icao": "YSSP",
    "lat": -16.84774432,
    "lon": 145.71547451,
    "communications": [],
    "elevation": 20,
    "tower": false,
    "name": "[H] SKYSAFARI BASE",
    "runways": [
      {
        "type": 102,
        "width": 18,
        "surfaceType": 3,
        "numberStart": "H57",
        "numberEnd": null,
        "latStart": -16.84774432,
        "lonStart": 145.71547451,
        "latEnd": null,
        "lonEnd": null,
        "length": 18
      }
    ],
    "id": 32486
  },
  {
    "type": 17,
    "icao": "YYBH",
    "lat": -16.91015076,
    "lon": 145.8720064,
    "communications": [],
    "elevation": 7,
    "tower": false,
    "name": "[H] YARRABAH",
    "runways": [
      {
        "type": 102,
        "width": 15.9,
        "surfaceType": 1,
        "numberStart": "H1",
        "numberEnd": null,
        "latStart": -16.91015076,
        "lonStart": 145.8720064,
        "latEnd": null,
        "lonEnd": null,
        "length": 15.9
      }
    ],
    "id": 33920
  }
]