[
  {
    "type": 1,
    "icao": "EHHS",
    "lat": 51.682468400000005,
    "lon": 3.69979,
    "communications": [],
    "elevation": 25,
    "tower": false,
    "name": "Haamstede Gliders",
    "runways": [
      {
        "type": 100,
        "width": 18.29,
        "surfaceType": null,
        "numberStart": "06",
        "numberEnd": "24",
        "latStart": 51.68159545,
        "lonStart": 3.69702677,
        "latEnd": 51.68334135,
        "lonEnd": 3.70255323,
        "length": 0,
        "surfacetype": 2
      }
    ],
    "id": 11269
  },
  {
    "type": 1,
    "icao": "EHMZ",
    "lat": 51.512288,
    "lon": 3.7325749999999998,
    "communications": [
      {
        "type": 54,
        "frequency": 11925,
        "name": "Midden-Zeeland Radio"
      }
    ],
    "elevation": 6,
    "tower": true,
    "name": "Midden Zeeland",
    "runways": [
      {
        "type": 100,
        "width": 29.87,
        "surfaceType": null,
        "numberStart": "09",
        "numberEnd": "27",
        "latStart": 51.512445,
        "lonStart": 3.739801,
        "latEnd": 51.512131,
        "lonEnd": 3.725349,
        "length": 0,
        "surfacetype": 3
      }
    ],
    "id": 17149
  },
  {
    "type": 1,
    "icao": "EBUL",
    "lat": 51.1441335,
    "lon": 3.4743635,
    "communications": [
      {
        "type": 54,
        "frequency": 12737,
        "name": "RDO"
      }
    ],
    "elevation": 95,
    "tower": false,
    "name": "URSEL",
    "runways": [
      {
        "type": 100,
        "width": 45.11,
        "surfaceType": null,
        "numberStart": "07",
        "numberEnd": "25",
        "latStart": 51.139864,
        "lonStart": 3.458394,
        "latEnd": 51.148403,
        "lonEnd": 3.490333,
        "length": 0,
        "surfacetype": 2
      }
    ],
    "id": 25833
  }
]