[
  {
    "type": 1,
    "icao": "LEVB",
    "lat": 39.577132915,
    "lon": 21.350647675,
    "communications": [],
    "elevation": 234,
    "tower": false,
    "name": "Aerodrom - Villafranca de Bonany",
    "runways": [
      {
        "type": 100,
        "width": 14.45,
        "surfaceType": null,
        "numberStart": "7",
        "numberEnd": "25",
        "latStart": 39.57644405,
        "lonStart": 3.12347357,
        "latEnd": 39.57782178,
        "lonEnd": 3.12772652,
        "length": 0,
        "surfacetype": 3
      }
    ],
    "id": 641
  },
  {
    "type": 1,
    "icao": "LEPA",
    "lat": 39.55163882,
    "lon": 21.1401532875,
    "communications": [
      {
        "type": 55,
        "frequency": 11940,
        "name": "APP"
      },
      {
        "type": 54,
        "frequency": 11830,
        "name": "TWR"
      },
      {
        "type": 50,
        "frequency": 11925,
        "name": "ATIS"
      },
      {
        "type": 53,
        "frequency": 12190,
        "name": "GMC N"
      },
      {
        "type": 53,
        "frequency": 12170,
        "name": "GMC S"
      }
    ],
    "elevation": 24,
    "tower": true,
    "name": "Palma de Mallorca",
    "runways": [
      {
        "type": 100,
        "width": 45.11,
        "surfaceType": null,
        "numberStart": "06L",
        "numberEnd": "24R",
        "latStart": 39.54715256,
        "lonStart": 2.71074093,
        "latEnd": 39.56280899,
        "lonEnd": 2.74384248,
        "length": 0,
        "surfacetype": 1
      },
      {
        "type": 100,
        "width": 45.11,
        "surfaceType": null,
        "numberStart": "06R",
        "numberEnd": "24L",
        "latStart": 39.54125901,
        "lonStart": 2.73172851,
        "latEnd": 39.55533472,
        "lonEnd": 2.76152883,
        "length": 0,
        "surfacetype": 1
      }
    ],
    "id": 19678
  },
  {
    "type": 1,
    "icao": "LESB",
    "lat": 39.598910525,
    "lon": 21.149489695000003,
    "communications": [
      {
        "type": 54,
        "frequency": 11830,
        "name": "PALMA TWR"
      },
      {
        "type": 55,
        "frequency": 11940,
        "name": "PALMA APP"
      }
    ],
    "elevation": 134,
    "tower": true,
    "name": "Son Bonet",
    "runways": [
      {
        "type": 100,
        "width": 23,
        "surfaceType": null,
        "numberStart": "05",
        "numberEnd": "23",
        "latStart": 39.59468809,
        "lonStart": 2.69584643,
        "latEnd": 39.60313296,
        "lonEnd": 2.70941885,
        "length": 0,
        "surfacetype": 1
      }
    ],
    "id": 23837
  },
  {
    "type": 16,
    "icao": "LEPO",
    "lat": 39.907738155000004,
    "lon": 21.504948815000002,
    "communications": [],
    "elevation": 0,
    "tower": false,
    "name": "[S] Pollensa",
    "runways": [
      {
        "type": 100,
        "width": 18.07,
        "surfaceType": null,
        "numberStart": "14",
        "numberEnd": "32",
        "latStart": 39.90790602,
        "lonStart": 3.10232734,
        "latEnd": 39.90757029,
        "lonEnd": 3.10264547,
        "length": 0,
        "surfacetype": 15
      }
    ],
    "id": 34364
  }
]