[
  {
    "type": 1,
    "icao": "AR2",
    "lat": 49.66807300666667,
    "lon": -116.81666572666667,
    "communications": [],
    "elevation": 1758,
    "tower": false,
    "name": "Crawford Bay",
    "runways": [
      {
        "type": 100,
        "width": 22.86,
        "surfaceType": null,
        "numberStart": "14",
        "numberEnd": "32",
        "latStart": 49.67023137,
        "lonStart": -116.81824261,
        "latEnd": 49.66311223,
        "lonEnd": -116.81508859,
        "length": 0,
        "surfacetype": 3
      },
      {
        "type": 102,
        "width": 5,
        "surfaceType": 2,
        "numberStart": "H1",
        "numberEnd": null,
        "latStart": 49.67087542,
        "lonStart": -116.81666598,
        "latEnd": null,
        "lonEnd": null,
        "length": 5
      }
    ],
    "id": 14600
  },
  {
    "type": 1,
    "icao": "CAJ3",
    "lat": 49.036944500000004,
    "lon": -116.4983345,
    "communications": [
      {
        "type": 51,
        "frequency": 12280,
        "name": "CTAF/UNICOM"
      }
    ],
    "elevation": 2069,
    "tower": false,
    "name": "ART SUTCLIFFE FLD",
    "runways": [
      {
        "type": 100,
        "width": 22.86,
        "surfaceType": null,
        "numberStart": "15",
        "numberEnd": "33",
        "latStart": 49.042222,
        "lonStart": -116.5,
        "latEnd": 49.031667,
        "lonEnd": -116.496669,
        "length": 0,
        "surfacetype": 1
      }
    ],
    "id": 15082
  },
  {
    "type": 1,
    "icao": "CBR2",
    "lat": 49.9036125,
    "lon": -116.935278,
    "communications": [
      {
        "type": 51,
        "frequency": 12320,
        "name": "CTAF"
      }
    ],
    "elevation": 2354,
    "tower": false,
    "name": "KASLO",
    "runways": [
      {
        "type": 100,
        "width": 18.29,
        "surfaceType": null,
        "numberStart": "07",
        "numberEnd": "25",
        "latStart": 49.903522,
        "lonStart": -116.943125,
        "latEnd": 49.903703,
        "lonEnd": -116.927431,
        "length": 0,
        "surfacetype": 1
      }
    ],
    "id": 15102
  }
]