[
  {
    "type": 1,
    "icao": "SCAS",
    "lat": -45.399058615,
    "lon": -72.670073175,
    "communications": [
      {
        "type": 54,
        "frequency": 12700,
        "name": "INFO"
      }
    ],
    "elevation": 29,
    "tower": false,
    "name": "Cabo Primero Juan RomC!n",
    "runways": [
      {
        "type": 100,
        "width": 22.86,
        "surfaceType": null,
        "numberStart": "07",
        "numberEnd": "25",
        "latStart": -45.40029562,
        "lonStart": -72.67801934,
        "latEnd": -45.39782161,
        "lonEnd": -72.66212701,
        "length": 0,
        "surfacetype": 1
      }
    ],
    "id": 4296
  },
  {
    "type": 1,
    "icao": "SCCY",
    "lat": -45.594224525,
    "lon": -72.10618979,
    "communications": [
      {
        "type": 54,
        "frequency": 12670,
        "name": "AFIS"
      },
      {
        "type": 53,
        "frequency": 545400,
        "name": "GND"
      }
    ],
    "elevation": 1020,
    "tower": true,
    "name": "Teniente Vidal",
    "runways": [
      {
        "type": 100,
        "width": 29.87,
        "surfaceType": null,
        "numberStart": "03",
        "numberEnd": "21",
        "latStart": -45.59910833,
        "lonStart": -72.11326901,
        "latEnd": -45.58934072,
        "lonEnd": -72.09911057,
        "length": 0,
        "surfacetype": 1
      }
    ],
    "id": 25160
  }
]