[
  {
    "type": 1,
    "icao": "MP21",
    "lat": 8.7703875,
    "lon": -82.6643555,
    "communications": [],
    "elevation": 5000,
    "tower": false,
    "name": "ALVARO BERROA",
    "runways": [
      {
        "type": 100,
        "width": 20.12,
        "surfaceType": null,
        "numberStart": "12",
        "numberEnd": "30",
        "latStart": 8.775039,
        "lonStart": -82.672094,
        "latEnd": 8.765736,
        "lonEnd": -82.656617,
        "length": 0,
        "surfacetype": 1
      }
    ],
    "id": 254
  },
  {
    "type": 1,
    "icao": "MRCC",
    "lat": 8.601557,
    "lon": -82.9686135,
    "communications": [],
    "elevation": 25,
    "tower": false,
    "name": "COTO 47",
    "runways": [
      {
        "type": 100,
        "width": 20.12,
        "surfaceType": null,
        "numberStart": "18",
        "numberEnd": "36",
        "latStart": 8.606117,
        "lonStart": -82.968583,
        "latEnd": 8.596997,
        "lonEnd": -82.968644,
        "length": 0,
        "surfacetype": 1
      }
    ],
    "id": 4183
  },
  {
    "type": 1,
    "icao": "MPDA",
    "lat": 8.3910015,
    "lon": -82.434978,
    "communications": [
      {
        "type": 53,
        "frequency": 12170,
        "name": "GND"
      },
      {
        "type": 54,
        "frequency": 11870,
        "name": "MALEK TWR"
      },
      {
        "type": 54,
        "frequency": 12260,
        "name": "MALEK TWR"
      },
      {
        "type": 55,
        "frequency": 11970,
        "name": "PANAMA APP"
      },
      {
        "type": 55,
        "frequency": 11920,
        "name": "PANAMA APP"
      },
      {
        "type": 55,
        "frequency": 12330,
        "name": "PANAMA APP"
      },
      {
        "type": 55,
        "frequency": 12120,
        "name": "PANAMA APP"
      }
    ],
    "elevation": 89,
    "tower": true,
    "name": "ENRIQUE MALEK INTL",
    "runways": [
      {
        "type": 100,
        "width": 45.11,
        "surfaceType": null,
        "numberStart": "04",
        "numberEnd": "22",
        "latStart": 8.383497,
        "lonStart": -82.440842,
        "latEnd": 8.398506,
        "lonEnd": -82.429114,
        "length": 0,
        "surfacetype": 1
      }
    ],
    "id": 6781
  },
  {
    "type": 1,
    "icao": "MP01",
    "lat": 8.355,
    "lon": -82.836389,
    "communications": [],
    "elevation": 52,
    "tower": false,
    "name": "FINCA CEIBA",
    "runways": [
      {
        "type": 100,
        "width": 8.53,
        "surfaceType": null,
        "numberStart": "18",
        "numberEnd": "36",
        "latStart": 8.359294,
        "lonStart": -82.83645,
        "latEnd": 8.350706,
        "lonEnd": -82.836328,
        "length": 0,
        "surfacetype": 1
      }
    ],
    "id": 7556
  },
  {
    "type": 1,
    "icao": "MP03",
    "lat": 8.345632,
    "lon": -82.50426949999999,
    "communications": [],
    "elevation": 31,
    "tower": false,
    "name": "LA CABEZONA",
    "runways": [
      {
        "type": 100,
        "width": 9.14,
        "surfaceType": null,
        "numberStart": "05",
        "numberEnd": "23",
        "latStart": 8.342775,
        "lonStart": -82.508289,
        "latEnd": 8.348489,
        "lonEnd": -82.50025,
        "length": 0,
        "surfacetype": 1
      }
    ],
    "id": 14256
  },
  {
    "type": 1,
    "icao": "MRSV",
    "lat": 8.826111000000001,
    "lon": -82.95888500000001,
    "communications": [],
    "elevation": 3228,
    "tower": false,
    "name": "SAN VITO DE JAVA",
    "runways": [
      {
        "type": 100,
        "width": 10.97,
        "surfaceType": null,
        "numberStart": "08",
        "numberEnd": "26",
        "latStart": 8.825447,
        "lonStart": -82.96331,
        "latEnd": 8.826775,
        "lonEnd": -82.95446,
        "length": 0,
        "surfacetype": 1
      }
    ],
    "id": 22010
  }
]