[
  {
    "type": 1,
    "icao": "MM21",
    "lat": 25.736003,
    "lon": -100.225914,
    "communications": [],
    "elevation": 1560,
    "tower": false,
    "name": "LA ENCARNACION",
    "runways": [
      {
        "type": 100,
        "width": 11.28,
        "surfaceType": null,
        "numberStart": "15",
        "numberEnd": "33",
        "latStart": 25.740364,
        "lonStart": -100.227675,
        "latEnd": 25.731642,
        "lonEnd": -100.224153,
        "length": 0,
        "surfacetype": 1
      }
    ],
    "id": 21411
  },
  {
    "type": 1,
    "icao": "MMAN",
    "lat": 25.865834,
    "lon": -100.23995299999999,
    "communications": [
      {
        "type": 50,
        "frequency": 12755,
        "name": "ATIS"
      },
      {
        "type": 54,
        "frequency": 11860,
        "name": "TWR"
      },
      {
        "type": 55,
        "frequency": 11975,
        "name": "MONTERREY APP"
      },
      {
        "type": 55,
        "frequency": 12140,
        "name": "MONTERREY APP"
      }
    ],
    "elevation": 1476,
    "tower": true,
    "name": "DEL NORTE INTL",
    "runways": [
      {
        "type": 100,
        "width": 45.11,
        "surfaceType": null,
        "numberStart": "02",
        "numberEnd": "20",
        "latStart": 25.856033,
        "lonStart": -100.243906,
        "latEnd": 25.871442,
        "lonEnd": -100.233139,
        "length": 0,
        "surfacetype": 1
      },
      {
        "type": 100,
        "width": 45.11,
        "surfaceType": null,
        "numberStart": "11",
        "numberEnd": "29",
        "latStart": 25.871619,
        "lonStart": -100.247861,
        "latEnd": 25.864242,
        "lonEnd": -100.234906,
        "length": 0,
        "surfacetype": 1
      }
    ],
    "id": 21458
  },
  {
    "type": 1,
    "icao": "MMIO",
    "lat": 25.54212275,
    "lon": -100.93030125000001,
    "communications": [
      {
        "type": 54,
        "frequency": 11840,
        "name": "SALTILLO TWR"
      },
      {
        "type": 55,
        "frequency": 12740,
        "name": "SALTILLO APP"
      }
    ],
    "elevation": 4778,
    "tower": true,
    "name": "PLAN DE GUADALUPE INTL",
    "runways": [
      {
        "type": 100,
        "width": 45.11,
        "surfaceType": null,
        "numberStart": "17",
        "numberEnd": "35",
        "latStart": 25.551458,
        "lonStart": -100.928464,
        "latEnd": 25.525303,
        "lonEnd": -100.928597,
        "length": 0,
        "surfacetype": 1
      },
      {
        "type": 100,
        "width": 45.11,
        "surfaceType": null,
        "numberStart": "03",
        "numberEnd": "21",
        "latStart": 25.542233,
        "lonStart": -100.935475,
        "latEnd": 25.549497,
        "lonEnd": -100.928669,
        "length": 0,
        "surfacetype": 1
      }
    ],
    "id": 21478
  },
  {
    "type": 1,
    "icao": "MMMY",
    "lat": 25.77865225,
    "lon": -100.10585199999998,
    "communications": [
      {
        "type": 50,
        "frequency": 12770,
        "name": "ATIS"
      },
      {
        "type": 53,
        "frequency": 12190,
        "name": "GND"
      },
      {
        "type": 54,
        "frequency": 11810,
        "name": "MONTERREY TWR"
      },
      {
        "type": 55,
        "frequency": 11975,
        "name": "MONTERREY APP"
      },
      {
        "type": 55,
        "frequency": 12140,
        "name": "MONTERREY APP"
      }
    ],
    "elevation": 1278,
    "tower": true,
    "name": "General Mariano Escobedo Intl",
    "runways": [
      {
        "type": 100,
        "width": 45.11,
        "surfaceType": null,
        "numberStart": "11",
        "numberEnd": "29",
        "latStart": 25.784128,
        "lonStart": -100.117203,
        "latEnd": 25.770031,
        "lonEnd": -100.091444,
        "length": 0,
        "surfacetype": 1
      },
      {
        "type": 100,
        "width": 29.87,
        "surfaceType": null,
        "numberStart": "16",
        "numberEnd": "34",
        "latStart": 25.788094,
        "lonStart": -100.109633,
        "latEnd": 25.772356,
        "lonEnd": -100.105128,
        "length": 0,
        "surfacetype": 1
      }
    ],
    "id": 21489
  }
]