[
  {
    "type": 1,
    "icao": "AK60",
    "lat": 57.88509972,
    "lon": -49.611271125,
    "communications": [],
    "elevation": 240,
    "tower": false,
    "name": "Fort Jensen",
    "runways": [
      {
        "type": 100,
        "width": 38.1,
        "surfaceType": null,
        "numberStart": "06",
        "numberEnd": "24",
        "latStart": 57.88398038,
        "lonStart": -157.10876131,
        "latEnd": 57.88621906,
        "lonEnd": -157.08487925,
        "length": 0,
        "surfacetype": 5
      }
    ],
    "id": 9601
  },
  {
    "type": 1,
    "icao": "PAPN",
    "lat": 57.580381,
    "lon": -49.99996649999999,
    "communications": [
      {
        "type": 50,
        "frequency": 11837,
        "name": "AWOS 3"
      },
      {
        "type": 51,
        "frequency": 12290,
        "name": "CTAF"
      }
    ],
    "elevation": 57,
    "tower": false,
    "name": "PILOT POINT",
    "runways": [
      {
        "type": 100,
        "width": 22.86,
        "surfaceType": null,
        "numberStart": "07",
        "numberEnd": "25",
        "latStart": 57.580381,
        "lonStart": -157.580314,
        "latEnd": 57.580381,
        "lonEnd": -157.5636,
        "length": 0,
        "surfacetype": 5
      }
    ],
    "id": 19381
  },
  {
    "type": 1,
    "icao": "9A8",
    "lat": 57.5278675,
    "lon": -49.93913535,
    "communications": [],
    "elevation": 24,
    "tower": false,
    "name": "Ugashik New",
    "runways": [
      {
        "type": 100,
        "width": 18.9,
        "surfaceType": null,
        "numberStart": "06",
        "numberEnd": "24",
        "latStart": 57.52715303,
        "lonStart": -157.40685267,
        "latEnd": 57.52858197,
        "lonEnd": -157.39175845,
        "length": 0,
        "surfacetype": 5
      }
    ],
    "id": 25878
  }
]