[
  {
    "type": 1,
    "icao": "KAWO",
    "lat": 48.160247504999994,
    "lon": -65.38789678166665,
    "communications": [
      {
        "type": 50,
        "frequency": 13562,
        "name": "AWOS 3"
      },
      {
        "type": 51,
        "frequency": 12270,
        "name": "CTAF/UNICOM"
      }
    ],
    "elevation": 464,
    "tower": false,
    "name": "Arlington Municipal",
    "runways": [
      {
        "type": 100,
        "width": 22.86,
        "surfaceType": null,
        "numberStart": "11",
        "numberEnd": "29",
        "latStart": 48.161695,
        "lonStart": -122.1688259,
        "latEnd": 48.15586079,
        "lonEnd": -122.15735011,
        "length": 0,
        "surfacetype": 1
      },
      {
        "type": 100,
        "width": 32.92,
        "surfaceType": null,
        "numberStart": "16",
        "numberEnd": "34",
        "latStart": 48.16932235,
        "lonStart": -122.15653615,
        "latEnd": 48.15474397,
        "lonEnd": -122.15617888,
        "length": 0,
        "surfacetype": 1
      },
      {
        "type": 102,
        "width": 18.9,
        "surfaceType": 1,
        "numberStart": "H1",
        "numberEnd": null,
        "latStart": 48.16392771,
        "lonStart": -122.1529339,
        "latEnd": null,
        "lonEnd": null,
        "length": 18.9
      },
      {
        "type": 102,
        "width": 13.1,
        "surfaceType": 1,
        "numberStart": "H2",
        "numberEnd": null,
        "latStart": 48.15593521,
        "lonStart": -122.1596895,
        "latEnd": null,
        "lonEnd": null,
        "length": 14
      }
    ],
    "id": 1186
  },
  {
    "type": 1,
    "icao": "0S9",
    "lat": 48.054670609999995,
    "lon": -65.85737057,
    "communications": [
      {
        "type": 51,
        "frequency": 12300,
        "name": "CTAF/UNICOM"
      }
    ],
    "elevation": 107,
    "tower": false,
    "name": "JEFFERSON CO INTL",
    "runways": [
      {
        "type": 100,
        "width": 22.86,
        "surfaceType": null,
        "numberStart": "09",
        "numberEnd": "27",
        "latStart": 48.054778,
        "lonStart": -122.816606,
        "latEnd": 48.052839,
        "lonEnd": -122.804681,
        "length": 0,
        "surfacetype": 1
      },
      {
        "type": 102,
        "width": 20,
        "surfaceType": 1,
        "numberStart": "H1",
        "numberEnd": null,
        "latStart": 48.05639483,
        "lonStart": -122.80834471,
        "latEnd": null,
        "lonEnd": null,
        "length": 20
      }
    ],
    "id": 12717
  },
  {
    "type": 1,
    "icao": "KORS",
    "lat": 48.70815140333334,
    "lon": -65.70525272333333,
    "communications": [
      {
        "type": 51,
        "frequency": 12825,
        "name": "CTAF"
      },
      {
        "type": 50,
        "frequency": 13542,
        "name": "AWOS"
      },
      {
        "type": 55,
        "frequency": 11820,
        "name": "APP"
      },
      {
        "type": 56,
        "frequency": 11820,
        "name": "DEP"
      }
    ],
    "elevation": 24,
    "tower": false,
    "name": "Orcas Island",
    "runways": [
      {
        "type": 100,
        "width": 18.29,
        "surfaceType": null,
        "numberStart": "16",
        "numberEnd": "34",
        "latStart": 48.71229558,
        "lonStart": -122.91058255,
        "latEnd": 48.704341,
        "lonEnd": -122.91063036,
        "length": 0,
        "surfacetype": 1
      },
      {
        "type": 102,
        "width": 15.2,
        "surfaceType": 2,
        "numberStart": "H1",
        "numberEnd": null,
        "latStart": 48.70781763,
        "lonStart": -122.90951662,
        "latEnd": null,
        "lonEnd": null,
        "length": 15.2
      }
    ],
    "id": 19011
  }
]