[
  {
    "type": 1,
    "icao": "OS62",
    "lat": 36.0967415,
    "lon": 37.0068845,
    "communications": [
      {
        "type": 54,
        "frequency": 11810,
        "name": "DEIR ZZOR TWR"
      }
    ],
    "elevation": 1145,
    "tower": true,
    "name": "JIRAH",
    "runways": [
      {
        "type": 100,
        "width": 39.62,
        "surfaceType": null,
        "numberStart": "10",
        "numberEnd": "28",
        "latStart": 36.099225,
        "lonStart": 37.919511,
        "latEnd": 36.094258,
        "lonEnd": 37.953419,
        "length": 0,
        "surfacetype": 1
      }
    ],
    "id": 12756
  },
  {
    "type": 1,
    "icao": "LTAJ",
    "lat": 36.9473495,
    "lon": 37.20282900000001,
    "communications": [
      {
        "type": 54,
        "frequency": 12190,
        "name": "TWR"
      },
      {
        "type": 54,
        "frequency": 12210,
        "name": "TWR"
      },
      {
        "type": 54,
        "frequency": 12010,
        "name": "TWR"
      },
      {
        "type": 55,
        "frequency": 12210,
        "name": "APP"
      },
      {
        "type": 55,
        "frequency": 12190,
        "name": "APP"
      },
      {
        "type": 55,
        "frequency": 12010,
        "name": "APP"
      }
    ],
    "elevation": 2315,
    "tower": true,
    "name": "OGUZELI",
    "runways": [
      {
        "type": 100,
        "width": 30.48,
        "surfaceType": null,
        "numberStart": "10R",
        "numberEnd": "28L",
        "latStart": 36.950081,
        "lonStart": 37.461547,
        "latEnd": 36.943092,
        "lonEnd": 37.494069,
        "length": 0,
        "surfacetype": 2
      },
      {
        "type": 100,
        "width": 45.11,
        "surfaceType": null,
        "numberStart": "10L",
        "numberEnd": "28R",
        "latStart": 36.951606,
        "lonStart": 37.462058,
        "latEnd": 36.944619,
        "lonEnd": 37.494583,
        "length": 0,
        "surfacetype": 2
      }
    ],
    "id": 18616
  }
]