[
  {
    "type": 1,
    "icao": "FADK",
    "lat": -28.368402500000002,
    "lon": 1.9412530000000014,
    "communications": [],
    "elevation": 210,
    "tower": false,
    "name": "DUKUDUKU",
    "runways": [
      {
        "type": 100,
        "width": 46.02,
        "surfaceType": null,
        "numberStart": "04",
        "numberEnd": "22",
        "latStart": -28.373508,
        "lonStart": 32.245803,
        "latEnd": -28.363297,
        "lonEnd": 32.250469,
        "length": 0,
        "surfacetype": 2
      }
    ],
    "id": 5895
  },
  {
    "type": 1,
    "icao": "FAUL",
    "lat": -28.31939925,
    "lon": 1.550254999999999,
    "communications": [
      {
        "type": 51,
        "frequency": 12480,
        "name": "CTAF"
      }
    ],
    "elevation": 1720,
    "tower": false,
    "name": "PRINCE MANGOSUTHU BUTHELEZI",
    "runways": [
      {
        "type": 100,
        "width": 22.86,
        "surfaceType": null,
        "numberStart": "05",
        "numberEnd": "23",
        "latStart": -28.325511,
        "lonStart": 31.412714,
        "latEnd": -28.313203,
        "lonEnd": 31.422167,
        "length": 0,
        "surfacetype": 1
      },
      {
        "type": 100,
        "width": 17.98,
        "surfaceType": null,
        "numberStart": "02",
        "numberEnd": "20",
        "latStart": -28.324164,
        "lonStart": 31.416228,
        "latEnd": -28.314719,
        "lonEnd": 31.417006,
        "length": 0,
        "surfacetype": 1
      }
    ],
    "id": 19554
  },
  {
    "type": 1,
    "icao": "FARB",
    "lat": -28.741039,
    "lon": 1.6760962849999999,
    "communications": [
      {
        "type": 54,
        "frequency": 11890,
        "name": "TWR"
      },
      {
        "type": 55,
        "frequency": 11890,
        "name": "APP"
      }
    ],
    "elevation": 109,
    "tower": true,
    "name": "Richards Bay",
    "runways": [
      {
        "type": 100,
        "width": 21.03,
        "surfaceType": null,
        "numberStart": "05",
        "numberEnd": "23",
        "latStart": -28.74588724,
        "lonStart": 32.08838333,
        "latEnd": -28.73619076,
        "lonEnd": 32.09584267,
        "length": 0,
        "surfacetype": 1
      }
    ],
    "id": 21433
  }
]