[
  {
    "type": 1,
    "icao": "4K5",
    "lat": 57.922876110000004,
    "lon": -152.50051112,
    "communications": [],
    "elevation": 55,
    "tower": false,
    "name": "Ouzinkie",
    "runways": [
      {
        "type": 100,
        "width": 24.38,
        "surfaceType": null,
        "numberStart": "11",
        "numberEnd": "29",
        "latStart": 57.92478861,
        "lonStart": -152.50451075,
        "latEnd": 57.92096361,
        "lonEnd": -152.49651149,
        "length": 0,
        "surfacetype": 5
      }
    ],
    "id": 8140
  },
  {
    "type": 16,
    "icao": "9Z3",
    "lat": 57.80258388,
    "lon": -152.38273167,
    "communications": [],
    "elevation": 129,
    "tower": false,
    "name": "[S] Kodiak Lily Lake",
    "runways": [
      {
        "type": 101,
        "width": 91.44,
        "surfaceType": null,
        "numberStart": "05",
        "numberEnd": "23",
        "latStart": 57.80145852,
        "lonStart": -152.38770724,
        "latEnd": 57.80370924,
        "lonEnd": -152.3777561,
        "length": 0
      }
    ],
    "id": 10875
  },
  {
    "type": 16,
    "icao": "9Z4",
    "lat": 57.78786027,
    "lon": -152.39995612,
    "communications": [],
    "elevation": 0,
    "tower": false,
    "name": "[S] Inner Harbor",
    "runways": [
      {
        "type": 101,
        "width": 30.48,
        "surfaceType": null,
        "numberStart": "05",
        "numberEnd": "23",
        "latStart": 57.78518085,
        "lonStart": -152.41179788,
        "latEnd": 57.79053969,
        "lonEnd": -152.38811436,
        "length": 0
      }
    ],
    "id": 10876
  },
  {
    "type": 17,
    "icao": "AK74",
    "lat": 57.80786166,
    "lon": -152.35411612,
    "communications": [],
    "elevation": 41,
    "tower": false,
    "name": "[H] Kodiak Emergency Spruce Cape",
    "runways": [
      {
        "type": 102,
        "width": 18.9,
        "surfaceType": 1,
        "numberStart": "H1",
        "numberEnd": null,
        "latStart": 57.80786166,
        "lonStart": -152.35411612,
        "latEnd": null,
        "lonEnd": null,
        "length": 18.9
      }
    ],
    "id": 14476
  },
  {
    "type": 1,
    "icao": "ORI",
    "lat": 57.885377500000004,
    "lon": -152.84610112000001,
    "communications": [],
    "elevation": 52,
    "tower": false,
    "name": "Port Lions",
    "runways": [
      {
        "type": 100,
        "width": 22.86,
        "surfaceType": null,
        "numberStart": "06",
        "numberEnd": "24",
        "latStart": 57.88495758,
        "lonStart": -152.85172157,
        "latEnd": 57.88579742,
        "lonEnd": -152.84048067,
        "length": 0,
        "surfacetype": 5
      }
    ],
    "id": 23733
  },
  {
    "type": 1,
    "icao": "PADQ",
    "lat": 57.74963233333333,
    "lon": -152.492882,
    "communications": [
      {
        "type": 50,
        "frequency": 13550,
        "name": "ATIS"
      },
      {
        "type": 51,
        "frequency": 11980,
        "name": "CTAF"
      },
      {
        "type": 51,
        "frequency": 12280,
        "name": "UNICOM"
      },
      {
        "type": 53,
        "frequency": 12190,
        "name": "GND"
      },
      {
        "type": 54,
        "frequency": 11980,
        "name": "TWR"
      },
      {
        "type": 55,
        "frequency": 12510,
        "name": "ANCHORAGE CNTR"
      }
    ],
    "elevation": 78,
    "tower": true,
    "name": "KODIAK",
    "runways": [
      {
        "type": 100,
        "width": 46.02,
        "surfaceType": null,
        "numberStart": "08",
        "numberEnd": "26",
        "latStart": 57.752189,
        "lonStart": -152.518994,
        "latEnd": 57.751464,
        "lonEnd": -152.480411,
        "length": 0,
        "surfacetype": 1
      },
      {
        "type": 100,
        "width": 46.02,
        "surfaceType": null,
        "numberStart": "11",
        "numberEnd": "29",
        "latStart": 57.754919,
        "lonStart": -152.502267,
        "latEnd": 57.746022,
        "lonEnd": -152.480206,
        "length": 0,
        "surfacetype": 1
      },
      {
        "type": 100,
        "width": 46.02,
        "surfaceType": null,
        "numberStart": "18",
        "numberEnd": "36",
        "latStart": 57.752944,
        "lonStart": -152.482831,
        "latEnd": 57.740256,
        "lonEnd": -152.492583,
        "length": 0,
        "surfacetype": 1
      }
    ],
    "id": 23914
  },
  {
    "type": 1,
    "icao": "PAKD",
    "lat": 57.80591750000001,
    "lon": -152.37384139,
    "communications": [],
    "elevation": 139,
    "tower": false,
    "name": "Kodiak Municipal",
    "runways": [
      {
        "type": 100,
        "width": 12.19,
        "surfaceType": null,
        "numberStart": "02",
        "numberEnd": "20",
        "latStart": 57.80339596,
        "lonStart": -152.37810275,
        "latEnd": 57.80843904,
        "lonEnd": -152.36958003,
        "length": 0,
        "surfacetype": 1
      }
    ],
    "id": 23962
  }
]