[
  {
    "type": 1,
    "icao": "OJAQ",
    "lat": 29.6110055,
    "lon": 32.3186415,
    "communications": [
      {
        "type": 53,
        "frequency": 12190,
        "name": "GND"
      },
      {
        "type": 54,
        "frequency": 11810,
        "name": "TWR"
      },
      {
        "type": 55,
        "frequency": 11920,
        "name": "APP"
      }
    ],
    "elevation": 174,
    "tower": true,
    "name": "AQABA KING HUSSEIN INTL",
    "runways": [
      {
        "type": 100,
        "width": 45.11,
        "surfaceType": null,
        "numberStart": "01",
        "numberEnd": "19",
        "latStart": 29.598047,
        "lonStart": 35.013319,
        "latEnd": 29.623964,
        "lonEnd": 35.022383,
        "length": 0,
        "surfacetype": 1
      }
    ],
    "id": 351
  },
  {
    "type": 1,
    "icao": "LLET",
    "lat": 29.561268,
    "lon": 32.2621665,
    "communications": [
      {
        "type": 50,
        "frequency": 13255,
        "name": "INFO"
      },
      {
        "type": 54,
        "frequency": 11900,
        "name": "TWR"
      },
      {
        "type": 54,
        "frequency": 12180,
        "name": "TWR"
      }
    ],
    "elevation": 42,
    "tower": true,
    "name": "EILAT",
    "runways": [
      {
        "type": 100,
        "width": 27.13,
        "surfaceType": null,
        "numberStart": "03",
        "numberEnd": "21",
        "latStart": 29.553703,
        "lonStart": 34.9555,
        "latEnd": 29.568833,
        "lonEnd": 34.964722,
        "length": 0,
        "surfacetype": 1
      }
    ],
    "id": 6672
  },
  {
    "type": 1,
    "icao": "LLOV",
    "lat": 29.94025075,
    "lon": 32.44116525,
    "communications": [
      {
        "type": 54,
        "frequency": 12990,
        "name": "TWR"
      }
    ],
    "elevation": 1492,
    "tower": true,
    "name": "OVDA",
    "runways": [
      {
        "type": 100,
        "width": 45.11,
        "surfaceType": null,
        "numberStart": "02R",
        "numberEnd": "20L",
        "latStart": 29.927164,
        "lonStart": 34.931731,
        "latEnd": 29.95215,
        "lonEnd": 34.943342,
        "length": 0,
        "surfacetype": 1
      },
      {
        "type": 100,
        "width": 45.11,
        "surfaceType": null,
        "numberStart": "02L",
        "numberEnd": "20R",
        "latStart": 29.930028,
        "lonStart": 34.929119,
        "latEnd": 29.951661,
        "lonEnd": 34.939203,
        "length": 0,
        "surfacetype": 1
      }
    ],
    "id": 18749
  },
  {
    "type": 1,
    "icao": "HETB",
    "lat": 29.588393,
    "lon": 32.18282625,
    "communications": [
      {
        "type": 53,
        "frequency": 12190,
        "name": "GND"
      },
      {
        "type": 54,
        "frequency": 12080,
        "name": "TWR"
      },
      {
        "type": 54,
        "frequency": 12030,
        "name": "TWR"
      },
      {
        "type": 55,
        "frequency": 12280,
        "name": "RADAR"
      }
    ],
    "elevation": 2415,
    "tower": true,
    "name": "TABA INTL",
    "runways": [
      {
        "type": 100,
        "width": 45.11,
        "surfaceType": null,
        "numberStart": "04L",
        "numberEnd": "22R",
        "latStart": 29.575428,
        "lonStart": 34.763161,
        "latEnd": 29.602311,
        "lonEnd": 34.790697,
        "length": 0,
        "surfacetype": 1
      },
      {
        "type": 100,
        "width": 45.11,
        "surfaceType": null,
        "numberStart": "04R",
        "numberEnd": "22L",
        "latStart": 29.574444,
        "lonStart": 34.764444,
        "latEnd": 29.601389,
        "lonEnd": 34.791944,
        "length": 0,
        "surfacetype": 1
      }
    ],
    "id": 24523
  },
  {
    "type": 1,
    "icao": "LL63",
    "lat": 29.9061915,
    "lon": 32.487454,
    "communications": [],
    "elevation": 298,
    "tower": false,
    "name": "YOTVATA",
    "runways": [
      {
        "type": 100,
        "width": 17.98,
        "surfaceType": null,
        "numberStart": "02",
        "numberEnd": "20",
        "latStart": 29.901994,
        "lonStart": 35.064519,
        "latEnd": 29.910389,
        "lonEnd": 35.068725,
        "length": 0,
        "surfacetype": 1
      }
    ],
    "id": 27716
  }
]