[
  {
    "type": 1,
    "icao": "CYKA",
    "lat": 50.701874794999995,
    "lon": -34.8749119875,
    "communications": [
      {
        "type": 54,
        "frequency": 12300,
        "name": "SHELL AERO CNTR"
      }
    ],
    "elevation": 1133,
    "tower": false,
    "name": "Kamloops",
    "runways": [
      {
        "type": 100,
        "width": 45.11,
        "surfaceType": null,
        "numberStart": "08",
        "numberEnd": "26",
        "latStart": 50.70431488,
        "lonStart": -120.45711317,
        "latEnd": 50.70053537,
        "lonEnd": -120.43185329,
        "length": 0,
        "surfacetype": 1
      },
      {
        "type": 100,
        "width": 14.94,
        "surfaceType": null,
        "numberStart": "04",
        "numberEnd": "22",
        "latStart": 50.69945593,
        "lonStart": -120.44626315,
        "latEnd": 50.703193,
        "lonEnd": -120.43560816,
        "length": 0,
        "surfacetype": 1
      }
    ],
    "id": 13573
  },
  {
    "type": 1,
    "icao": "CZAM",
    "lat": 50.6827775,
    "lon": -34.2773445,
    "communications": [
      {
        "type": 51,
        "frequency": 12290,
        "name": "CTAF/UNICOM"
      }
    ],
    "elevation": 1751,
    "tower": false,
    "name": "SALMON ARM",
    "runways": [
      {
        "type": 100,
        "width": 22.86,
        "surfaceType": null,
        "numberStart": "14",
        "numberEnd": "32",
        "latStart": 50.688186,
        "lonStart": -119.232058,
        "latEnd": 50.677369,
        "lonEnd": -119.225164,
        "length": 0,
        "surfacetype": 1
      }
    ],
    "id": 21936
  },
  {
    "type": 1,
    "icao": "CYVK",
    "lat": 50.2480555,
    "lon": -34.5438725,
    "communications": [
      {
        "type": 51,
        "frequency": 12280,
        "name": "CTAF"
      }
    ],
    "elevation": 1140,
    "tower": false,
    "name": "VERNON",
    "runways": [
      {
        "type": 100,
        "width": 22.86,
        "surfaceType": null,
        "numberStart": "05",
        "numberEnd": "23",
        "latStart": 50.246528,
        "lonStart": -119.337328,
        "latEnd": 50.249583,
        "lonEnd": -119.323783,
        "length": 0,
        "surfacetype": 1
      }
    ],
    "id": 26074
  }
]