[
  {
    "type": 1,
    "icao": "WI1G",
    "lat": -7.9165945,
    "lon": 110.5642905,
    "communications": [],
    "elevation": 702,
    "tower": false,
    "name": "GADING WONOSARI",
    "runways": [
      {
        "type": 100,
        "width": 44.2,
        "surfaceType": null,
        "numberStart": "10",
        "numberEnd": "28",
        "latStart": -7.915917,
        "lonStart": 110.558853,
        "latEnd": -7.917272,
        "lonEnd": 110.569728,
        "length": 0,
        "surfacetype": 1
      }
    ],
    "id": 9858
  },
  {
    "type": 1,
    "icao": "WARQ",
    "lat": -7.5160885,
    "lon": 110.7568915,
    "communications": [
      {
        "type": 50,
        "frequency": 12220,
        "name": "ATIS"
      },
      {
        "type": 54,
        "frequency": 11810,
        "name": "MARMO TWR"
      },
      {
        "type": 54,
        "frequency": 12270,
        "name": "MARMO TWR"
      },
      {
        "type": 55,
        "frequency": 12030,
        "name": "SEMARANG TCA"
      },
      {
        "type": 55,
        "frequency": 12340,
        "name": "YOGYA APP"
      },
      {
        "type": 55,
        "frequency": 12020,
        "name": "YOGYA APP"
      }
    ],
    "elevation": 421,
    "tower": true,
    "name": "Solo Adi Sumarmo Wiryokusumo",
    "runways": [
      {
        "type": 100,
        "width": 45.11,
        "surfaceType": null,
        "numberStart": "08",
        "numberEnd": "26",
        "latStart": -7.518633,
        "lonStart": 110.745289,
        "latEnd": -7.513544,
        "lonEnd": 110.768494,
        "length": 0,
        "surfacetype": 1
      }
    ],
    "id": 23819
  },
  {
    "type": 1,
    "icao": "WARJ",
    "lat": -7.788545333333334,
    "lon": 110.43206116666668,
    "communications": [
      {
        "type": 50,
        "frequency": 12850,
        "name": "ATIS"
      },
      {
        "type": 53,
        "frequency": 11850,
        "name": "ADI GND"
      },
      {
        "type": 54,
        "frequency": 12240,
        "name": "ADI TWR"
      },
      {
        "type": 54,
        "frequency": 11810,
        "name": "ADI TWR"
      },
      {
        "type": 55,
        "frequency": 12340,
        "name": "YOGYA DIRECTOR"
      },
      {
        "type": 55,
        "frequency": 12020,
        "name": "YOGYA DIRECTOR"
      }
    ],
    "elevation": 350,
    "tower": true,
    "name": "Yogyakarta Adi Sucipto",
    "runways": [
      {
        "type": 100,
        "width": 45.11,
        "surfaceType": null,
        "numberStart": "09",
        "numberEnd": "27",
        "latStart": -7.788558,
        "lonStart": 110.421797,
        "latEnd": -7.7878,
        "lonEnd": 110.441719,
        "length": 0,
        "surfacetype": 1
      },
      {
        "type": 100,
        "width": 45.11,
        "surfaceType": null,
        "numberStart": "09L",
        "numberEnd": "27R",
        "latStart": -7.78855807,
        "lonStart": 110.42180368,
        "latEnd": -7.78779993,
        "lonEnd": 110.44172232,
        "length": 0,
        "surfacetype": 1
      },
      {
        "type": 100,
        "width": 80.77,
        "surfaceType": null,
        "numberStart": "09R",
        "numberEnd": "27L",
        "latStart": -7.789481,
        "lonStart": 110.426611,
        "latEnd": -7.789075,
        "lonEnd": 110.438714,
        "length": 0,
        "surfacetype": 3
      }
    ],
    "id": 27783
  }
]