[
  {
    "type": 1,
    "icao": "KCEZ",
    "lat": 37.304085177999994,
    "lon": -79.44234961,
    "communications": [
      {
        "type": 50,
        "frequency": 13562,
        "name": "ASOS"
      },
      {
        "type": 51,
        "frequency": 12280,
        "name": "CTAF/UNICOM"
      }
    ],
    "elevation": 5916,
    "tower": false,
    "name": "CORTEZ MUNI",
    "runways": [
      {
        "type": 100,
        "width": 30.48,
        "surfaceType": null,
        "numberStart": "03",
        "numberEnd": "21",
        "latStart": 37.29560325,
        "lonStart": -108.63625708,
        "latEnd": 37.31040925,
        "lonEnd": -108.61983508,
        "length": 0,
        "surfacetype": 1
      },
      {
        "type": 102,
        "width": 14.2,
        "surfaceType": 2,
        "numberStart": "H1",
        "numberEnd": null,
        "latStart": 37.30462109,
        "lonStart": -108.62884956,
        "latEnd": null,
        "lonEnd": null,
        "length": 13.1
      },
      {
        "type": 102,
        "width": 14.2,
        "surfaceType": 2,
        "numberStart": "H3",
        "numberEnd": null,
        "latStart": 37.30478491,
        "lonStart": -108.62866569,
        "latEnd": null,
        "lonEnd": null,
        "length": 13.1
      },
      {
        "type": 102,
        "width": 25.3,
        "surfaceType": 2,
        "numberStart": "H2",
        "numberEnd": null,
        "latStart": 37.30500739,
        "lonStart": -108.62838497,
        "latEnd": null,
        "lonEnd": null,
        "length": 18
      }
    ],
    "id": 4175
  },
  {
    "type": 17,
    "icao": "5VA1",
    "lat": 37.79179361,
    "lon": -79.88255251,
    "communications": [],
    "elevation": 1136,
    "tower": false,
    "name": "[H] Alleghany Regional Hospital",
    "runways": [
      {
        "type": 102,
        "width": 21.3,
        "surfaceType": 2,
        "numberStart": "H1",
        "numberEnd": null,
        "latStart": 37.79179361,
        "lonStart": -79.88255251,
        "latEnd": null,
        "lonEnd": null,
        "length": 22
      }
    ],
    "id": 28085
  },
  {
    "type": 17,
    "icao": "18VA",
    "lat": 37.10375361,
    "lon": -79.30113473,
    "communications": [],
    "elevation": 548,
    "tower": false,
    "name": "[H] English",
    "runways": [
      {
        "type": 102,
        "width": 15.2,
        "surfaceType": 1,
        "numberStart": "H1",
        "numberEnd": null,
        "latStart": 37.10375361,
        "lonStart": -79.30113473,
        "latEnd": null,
        "lonEnd": null,
        "length": 15.2
      }
    ],
    "id": 29555
  },
  {
    "type": 17,
    "icao": "VA03",
    "lat": 37.35236305,
    "lon": -79.51669889,
    "communications": [],
    "elevation": 798,
    "tower": false,
    "name": "[H] Hospital",
    "runways": [
      {
        "type": 102,
        "width": 9.1,
        "surfaceType": 2,
        "numberStart": "H1",
        "numberEnd": null,
        "latStart": 37.35236305,
        "lonStart": -79.51669889,
        "latEnd": null,
        "lonEnd": null,
        "length": 9.1
      }
    ],
    "id": 30317
  },
  {
    "type": 17,
    "icao": "50VA",
    "lat": 37.41736416,
    "lon": -79.17252473,
    "communications": [],
    "elevation": 700,
    "tower": false,
    "name": "[H] L G Hospital",
    "runways": [
      {
        "type": 102,
        "width": 12.2,
        "surfaceType": 2,
        "numberStart": "H1",
        "numberEnd": null,
        "latStart": 37.41736416,
        "lonStart": -79.17252473,
        "latEnd": null,
        "lonEnd": null,
        "length": 12.2
      }
    ],
    "id": 30778
  },
  {
    "type": 17,
    "icao": "9VA5",
    "lat": 37.25208194,
    "lon": -79.94975945,
    "communications": [],
    "elevation": 945,
    "tower": false,
    "name": "[H] Roanoke Memorial Hospital",
    "runways": [
      {
        "type": 102,
        "width": 12.2,
        "surfaceType": 2,
        "numberStart": "H1",
        "numberEnd": null,
        "latStart": 37.25208194,
        "lonStart": -79.94975945,
        "latEnd": null,
        "lonEnd": null,
        "length": 12.2
      }
    ],
    "id": 32378
  },
  {
    "type": 17,
    "icao": "8VA7",
    "lat": 37.77846527,
    "lon": -79.44226001,
    "communications": [],
    "elevation": 1200,
    "tower": false,
    "name": "[H] Stonewall Jackson Hospital",
    "runways": [
      {
        "type": 102,
        "width": 9.1,
        "surfaceType": 3,
        "numberStart": "H1",
        "numberEnd": null,
        "latStart": 37.77846527,
        "lonStart": -79.44226001,
        "latEnd": null,
        "lonEnd": null,
        "length": 9.1
      }
    ],
    "id": 33096
  },
  {
    "type": 17,
    "icao": "VA55",
    "lat": 37.36485722,
    "lon": -79.900595,
    "communications": [],
    "elevation": 1278,
    "tower": false,
    "name": "[H] Summit",
    "runways": [
      {
        "type": 102,
        "width": 61,
        "surfaceType": 2,
        "numberStart": "H1",
        "numberEnd": null,
        "latStart": 37.36485722,
        "lonStart": -79.900595,
        "latEnd": null,
        "lonEnd": null,
        "length": 61
      }
    ],
    "id": 33128
  }
]