[
  {
    "type": 1,
    "icao": "KMLD",
    "lat": 42.170482500000006,
    "lon": -112.289338125,
    "communications": [
      {
        "type": 51,
        "frequency": 12290,
        "name": "CTAF"
      }
    ],
    "elevation": 4502,
    "tower": false,
    "name": "MALAD CITY",
    "runways": [
      {
        "type": 100,
        "width": 18.29,
        "surfaceType": null,
        "numberStart": "16",
        "numberEnd": "34",
        "latStart": 42.17735093,
        "lonStart": -112.28934786,
        "latEnd": 42.16361407,
        "lonEnd": -112.28932839,
        "length": 0,
        "surfacetype": 1
      }
    ],
    "id": 2978
  },
  {
    "type": 1,
    "icao": "KPIH",
    "lat": 42.909707104999995,
    "lon": -112.596868905,
    "communications": [
      {
        "type": 50,
        "frequency": 13562,
        "name": "ASOS"
      },
      {
        "type": 51,
        "frequency": 11910,
        "name": "CTAF"
      },
      {
        "type": 51,
        "frequency": 12295,
        "name": "UNICOM"
      },
      {
        "type": 52,
        "frequency": 12655,
        "name": "CLNC DEL"
      },
      {
        "type": 53,
        "frequency": 12190,
        "name": "GND"
      },
      {
        "type": 54,
        "frequency": 11910,
        "name": "TWR"
      }
    ],
    "elevation": 4452,
    "tower": true,
    "name": "POCATELLO RGNL",
    "runways": [
      {
        "type": 100,
        "width": 45.72,
        "surfaceType": null,
        "numberStart": "03",
        "numberEnd": "21",
        "latStart": 42.90169285,
        "lonStart": -112.60079859,
        "latEnd": 42.91930415,
        "lonEnd": -112.57685899,
        "length": 0,
        "surfacetype": 1
      },
      {
        "type": 100,
        "width": 30.48,
        "surfaceType": null,
        "numberStart": "17",
        "numberEnd": "35",
        "latStart": 42.91872186,
        "lonStart": -112.60492002,
        "latEnd": 42.89910956,
        "lonEnd": -112.60489802,
        "length": 0,
        "surfacetype": 1
      }
    ],
    "id": 3124
  },
  {
    "type": 1,
    "icao": "U36",
    "lat": 42.921097200000006,
    "lon": -112.880908215,
    "communications": [
      {
        "type": 51,
        "frequency": 12290,
        "name": "CTAF"
      }
    ],
    "elevation": 4470,
    "tower": false,
    "name": "ABERDEEN MUNI",
    "runways": [
      {
        "type": 100,
        "width": 15.24,
        "surfaceType": null,
        "numberStart": "07",
        "numberEnd": "25",
        "latStart": 42.92030537,
        "lonStart": -112.88773418,
        "latEnd": 42.92188903,
        "lonEnd": -112.87408225,
        "length": 0,
        "surfacetype": 1
      }
    ],
    "id": 5044
  },
  {
    "type": 1,
    "icao": "ID26",
    "lat": 42.60825111,
    "lon": -112.03246056,
    "communications": [],
    "elevation": 5268,
    "tower": false,
    "name": "Lava Hot Springs",
    "runways": [
      {
        "type": 100,
        "width": 30.48,
        "surfaceType": null,
        "numberStart": "14",
        "numberEnd": "32",
        "latStart": 42.61247728,
        "lonStart": -112.03513814,
        "latEnd": 42.60402494,
        "lonEnd": -112.02978298,
        "length": 0,
        "surfacetype": 4
      }
    ],
    "id": 18256
  },
  {
    "type": 17,
    "icao": "ID64",
    "lat": 42.86769194,
    "lon": -112.43108945,
    "communications": [],
    "elevation": 4548,
    "tower": false,
    "name": "[H] Bannock Regional Medical Center",
    "runways": [
      {
        "type": 102,
        "width": 6.4,
        "surfaceType": 2,
        "numberStart": "H1",
        "numberEnd": null,
        "latStart": 42.86769194,
        "lonStart": -112.43108945,
        "latEnd": null,
        "lonEnd": null,
        "length": 9.1
      }
    ],
    "id": 18292
  },
  {
    "type": 1,
    "icao": "U01",
    "lat": 42.79731700000001,
    "lon": -112.8251875,
    "communications": [
      {
        "type": 51,
        "frequency": 12280,
        "name": "CTAF/UNICOM"
      }
    ],
    "elevation": 4418,
    "tower": false,
    "name": "AMERICAN FALLS",
    "runways": [
      {
        "type": 100,
        "width": 15.24,
        "surfaceType": null,
        "numberStart": "03",
        "numberEnd": "21",
        "latStart": 42.793142,
        "lonStart": -112.832339,
        "latEnd": 42.801492,
        "lonEnd": -112.818036,
        "length": 0,
        "surfacetype": 1
      }
    ],
    "id": 30172
  },
  {
    "type": 1,
    "icao": "U58",
    "lat": 42.426249999999996,
    "lon": -112.1091665,
    "communications": [
      {
        "type": 51,
        "frequency": 12290,
        "name": "CTAF"
      }
    ],
    "elevation": 4906,
    "tower": false,
    "name": "DOWNEY",
    "runways": [
      {
        "type": 100,
        "width": 15.24,
        "surfaceType": null,
        "numberStart": "17",
        "numberEnd": "35",
        "latStart": 42.431111,
        "lonStart": -112.108611,
        "latEnd": 42.421389,
        "lonEnd": -112.109722,
        "length": 0,
        "surfacetype": 1
      }
    ],
    "id": 30190
  }
]