[
  {
    "type": 1,
    "icao": "VHHH",
    "lat": 22.30899455,
    "lon": 113.91461000999999,
    "communications": [
      {
        "type": 50,
        "frequency": 12820,
        "name": "ATIS"
      },
      {
        "type": 52,
        "frequency": 12465,
        "name": "CLNC DEL"
      },
      {
        "type": 52,
        "frequency": 12990,
        "name": "CLNC DEL"
      },
      {
        "type": 53,
        "frequency": 12160,
        "name": "GND"
      },
      {
        "type": 53,
        "frequency": 12255,
        "name": "GND"
      },
      {
        "type": 54,
        "frequency": 11820,
        "name": "TWR"
      },
      {
        "type": 54,
        "frequency": 11840,
        "name": "TWR"
      },
      {
        "type": 54,
        "frequency": 11870,
        "name": "TWR"
      },
      {
        "type": 54,
        "frequency": 12100,
        "name": "FLIGHT SERVICE"
      },
      {
        "type": 54,
        "frequency": 12240,
        "name": "FLIGHT SERVICE"
      },
      {
        "type": 55,
        "frequency": 11910,
        "name": "APP"
      },
      {
        "type": 55,
        "frequency": 11935,
        "name": "APP"
      },
      {
        "type": 55,
        "frequency": 13370,
        "name": "APP"
      },
      {
        "type": 55,
        "frequency": 12060,
        "name": "ZONE CON"
      },
      {
        "type": 56,
        "frequency": 12380,
        "name": "DEP"
      },
      {
        "type": 56,
        "frequency": 12405,
        "name": "DEP"
      }
    ],
    "elevation": 27,
    "tower": true,
    "name": "Hong Kong Intl",
    "runways": [
      {
        "type": 100,
        "width": 60.05,
        "surfaceType": null,
        "numberStart": "07L",
        "numberEnd": "25R",
        "latStart": 22.31048105,
        "lonStart": 113.89638651,
        "latEnd": 22.32170905,
        "lonEnd": 113.93123351,
        "length": 0,
        "surfacetype": 1
      },
      {
        "type": 100,
        "width": 60.05,
        "surfaceType": null,
        "numberStart": "07R",
        "numberEnd": "25L",
        "latStart": 22.29627905,
        "lonStart": 113.89798651,
        "latEnd": 22.30750905,
        "lonEnd": 113.93283351,
        "length": 0,
        "surfacetype": 1
      }
    ],
    "id": 5152
  },
  {
    "type": 1,
    "icao": "VMMC",
    "lat": 22.149364845,
    "lon": 113.59141197,
    "communications": [
      {
        "type": 50,
        "frequency": 12640,
        "name": "ATIS"
      },
      {
        "type": 53,
        "frequency": 12197,
        "name": "GND"
      },
      {
        "type": 54,
        "frequency": 11800,
        "name": "TWR"
      },
      {
        "type": 55,
        "frequency": 12630,
        "name": "HONG KONG RDR"
      }
    ],
    "elevation": 20,
    "tower": true,
    "name": "Macau Intl",
    "runways": [
      {
        "type": 100,
        "width": 45.11,
        "surfaceType": null,
        "numberStart": "16",
        "numberEnd": "34",
        "latStart": 22.16370769,
        "lonStart": 113.58613194,
        "latEnd": 22.135022,
        "lonEnd": 113.596692,
        "length": 0,
        "surfacetype": 2
      }
    ],
    "id": 5162
  },
  {
    "type": 1,
    "icao": "ZGSD",
    "lat": 22.006755384999998,
    "lon": 113.376688185,
    "communications": [
      {
        "type": 50,
        "frequency": 12845,
        "name": "ATIS"
      },
      {
        "type": 54,
        "frequency": 11865,
        "name": "Tower"
      },
      {
        "type": 53,
        "frequency": 12165,
        "name": "Ground"
      }
    ],
    "elevation": 26,
    "tower": true,
    "name": "Zhuhai Jinwan",
    "runways": [
      {
        "type": 100,
        "width": 45,
        "surfaceType": null,
        "numberStart": "05",
        "numberEnd": "23",
        "latStart": 21.99393296,
        "lonStart": 113.36308048,
        "latEnd": 22.01957781,
        "lonEnd": 113.39029589,
        "length": 0,
        "surfacetype": 1
      }
    ],
    "id": 5628
  },
  {
    "type": 1,
    "icao": "ZGSZ",
    "lat": 22.63922546,
    "lon": 113.80197154499999,
    "communications": [
      {
        "type": 50,
        "frequency": 12685,
        "name": "ATIS Arr"
      },
      {
        "type": 50,
        "frequency": 12745,
        "name": "ATIS Dep"
      },
      {
        "type": 52,
        "frequency": 12195,
        "name": "CLD"
      },
      {
        "type": 53,
        "frequency": 12180,
        "name": "GND West"
      },
      {
        "type": 53,
        "frequency": 12165,
        "name": "GND East"
      },
      {
        "type": 54,
        "frequency": 11845,
        "name": "TWR 15/33"
      },
      {
        "type": 54,
        "frequency": 13035,
        "name": "TWR 16/34"
      },
      {
        "type": 55,
        "frequency": 12035,
        "name": "ZHUHAI APP"
      },
      {
        "type": 55,
        "frequency": 12425,
        "name": "ZHUHAI APP"
      }
    ],
    "elevation": 13,
    "tower": true,
    "name": "Shenzen Baoan Intl",
    "runways": [
      {
        "type": 100,
        "width": 50,
        "surfaceType": null,
        "numberStart": "16",
        "numberEnd": "34",
        "latStart": 22.65447688,
        "lonStart": 113.78488598,
        "latEnd": 22.62389437,
        "lonEnd": 113.80163823,
        "length": 0,
        "surfacetype": 2
      },
      {
        "type": 100,
        "width": 45.11,
        "surfaceType": null,
        "numberStart": "15",
        "numberEnd": "33",
        "latStart": 22.65297112,
        "lonStart": 113.80317833,
        "latEnd": 22.62555947,
        "lonEnd": 113.81818364,
        "length": 0,
        "surfacetype": 2
      }
    ],
    "id": 5629
  }
]