[
  {
    "type": 1,
    "icao": "EGKB",
    "lat": 51.3267663425,
    "lon": 0.03288566749999999,
    "communications": [
      {
        "type": 50,
        "frequency": 12187,
        "name": "ATIS"
      },
      {
        "type": 54,
        "frequency": 13480,
        "name": "TWR"
      },
      {
        "type": 55,
        "frequency": 12940,
        "name": "APP"
      },
      {
        "type": 55,
        "frequency": 13270,
        "name": "THAMES RDR"
      }
    ],
    "elevation": 598,
    "tower": true,
    "name": "Biggin Hill",
    "runways": [
      {
        "type": 100,
        "width": 45.11,
        "surfaceType": null,
        "numberStart": "03",
        "numberEnd": "21",
        "latStart": 51.32367388,
        "lonStart": 0.02685702,
        "latEnd": 51.33824506,
        "lonEnd": 0.0380475,
        "length": 0,
        "surfacetype": 1
      },
      {
        "type": 100,
        "width": 17.98,
        "surfaceType": null,
        "numberStart": "11",
        "numberEnd": "29",
        "latStart": 51.32351546,
        "lonStart": 0.02785747,
        "latEnd": 51.32163097,
        "lonEnd": 0.03878068,
        "length": 0,
        "surfacetype": 1
      }
    ],
    "id": 1557
  },
  {
    "type": 1,
    "icao": "EGKE",
    "lat": 51.207644290000005,
    "lon": 0.8284598475,
    "communications": [],
    "elevation": 600,
    "tower": false,
    "name": "Challock",
    "runways": [
      {
        "type": 100,
        "width": 12.43,
        "surfaceType": null,
        "numberStart": "18",
        "numberEnd": "36",
        "latStart": 51.20805201,
        "lonStart": 0.82914653,
        "latEnd": 51.20479764,
        "lonEnd": 0.82946619,
        "length": 0,
        "surfacetype": 3
      },
      {
        "type": 100,
        "width": 39.93,
        "surfaceType": null,
        "numberStart": "2",
        "numberEnd": "20",
        "latStart": 51.20616695,
        "lonStart": 0.82568088,
        "latEnd": 51.21156056,
        "lonEnd": 0.82954579,
        "length": 0,
        "surfacetype": 3
      }
    ],
    "id": 1558
  },
  {
    "type": 1,
    "icao": "EGKH",
    "lat": 51.15671504749999,
    "lon": 0.6465358925,
    "communications": [
      {
        "type": 54,
        "frequency": 12200,
        "name": "Lashenden Radio"
      }
    ],
    "elevation": 70,
    "tower": true,
    "name": "Lashenden Headcorn",
    "runways": [
      {
        "type": 100,
        "width": 29.87,
        "surfaceType": null,
        "numberStart": "10",
        "numberEnd": "28",
        "latStart": 51.15738405,
        "lonStart": 0.63729818,
        "latEnd": 51.1550911,
        "lonEnd": 0.65117533,
        "length": 0,
        "surfacetype": 3
      },
      {
        "type": 100,
        "width": 16.5,
        "surfaceType": null,
        "numberStart": "03",
        "numberEnd": "21",
        "latStart": 51.15610977,
        "lonStart": 0.64796119,
        "latEnd": 51.15827527,
        "lonEnd": 0.64970887,
        "length": 0,
        "surfacetype": 3
      }
    ],
    "id": 1559
  },
  {
    "type": 1,
    "icao": "EGLC",
    "lat": 51.505230604999994,
    "lon": 0.055175249999999995,
    "communications": [
      {
        "type": 50,
        "frequency": 13635,
        "name": "City Information"
      },
      {
        "type": 53,
        "frequency": 12182,
        "name": "City Ground"
      },
      {
        "type": 54,
        "frequency": 11807,
        "name": "City Tower"
      },
      {
        "type": 55,
        "frequency": 13270,
        "name": "City Approach"
      }
    ],
    "elevation": 19,
    "tower": true,
    "name": "London City",
    "runways": [
      {
        "type": 100,
        "width": 29.87,
        "surfaceType": null,
        "numberStart": "09",
        "numberEnd": "27",
        "latStart": 51.50557275,
        "lonStart": 0.0443354,
        "latEnd": 51.50488846,
        "lonEnd": 0.0660151,
        "length": 0,
        "surfacetype": 2
      }
    ],
    "id": 1563
  },
  {
    "type": 1,
    "icao": "EGMC",
    "lat": 51.571442295,
    "lon": 0.695607485,
    "communications": [
      {
        "type": 50,
        "frequency": 13605,
        "name": "Southend Information"
      },
      {
        "type": 54,
        "frequency": 12772,
        "name": "Southend Tower"
      },
      {
        "type": 55,
        "frequency": 13077,
        "name": "Southend Approach"
      },
      {
        "type": 55,
        "frequency": 12895,
        "name": "Southend Radar"
      }
    ],
    "elevation": 48,
    "tower": true,
    "name": "Southend",
    "runways": [
      {
        "type": 100,
        "width": 36.88,
        "surfaceType": null,
        "numberStart": "05",
        "numberEnd": "23",
        "latStart": 51.56722809,
        "lonStart": 0.68624337,
        "latEnd": 51.5756565,
        "lonEnd": 0.7049716,
        "length": 0,
        "surfacetype": 1
      }
    ],
    "id": 1572
  },
  {
    "type": 1,
    "icao": "EGSG",
    "lat": 51.654906995,
    "lon": 0.1570952375,
    "communications": [
      {
        "type": 54,
        "frequency": 12280,
        "name": "Stapleford Radio"
      }
    ],
    "elevation": 185,
    "tower": true,
    "name": "Stapleford",
    "runways": [
      {
        "type": 100,
        "width": 17.98,
        "surfaceType": null,
        "numberStart": "03R",
        "numberEnd": "21L",
        "latStart": 51.65198048,
        "lonStart": 0.15550351,
        "latEnd": 51.65632563,
        "lonEnd": 0.16043463,
        "length": 0,
        "surfacetype": 1
      },
      {
        "type": 100,
        "width": 46.02,
        "surfaceType": null,
        "numberStart": "10",
        "numberEnd": "28",
        "latStart": 51.65612314,
        "lonStart": 0.1511995,
        "latEnd": 51.65519873,
        "lonEnd": 0.16124331,
        "length": 0,
        "surfacetype": 3
      }
    ],
    "id": 1612
  },
  {
    "type": 1,
    "icao": "EGSL",
    "lat": 51.8950079075,
    "lon": 0.4500329475,
    "communications": [
      {
        "type": 54,
        "frequency": 13055,
        "name": "Andrewsfield Radio"
      }
    ],
    "elevation": 286,
    "tower": true,
    "name": "Andrewsfield",
    "runways": [
      {
        "type": 100,
        "width": 17.98,
        "surfaceType": null,
        "numberStart": "09R",
        "numberEnd": "27L",
        "latStart": 51.89465222,
        "lonStart": 0.44484423,
        "latEnd": 51.8952024,
        "lonEnd": 0.45524382,
        "length": 0,
        "surfacetype": 3
      },
      {
        "type": 100,
        "width": 17.98,
        "surfaceType": null,
        "numberStart": "09L",
        "numberEnd": "27R",
        "latStart": 51.89481303,
        "lonStart": 0.44482183,
        "latEnd": 51.89536398,
        "lonEnd": 0.45522191,
        "length": 0,
        "surfacetype": 3
      }
    ],
    "id": 1614
  },
  {
    "type": 1,
    "icao": "EGSR",
    "lat": 51.91335074333333,
    "lon": 0.6802646399999999,
    "communications": [
      {
        "type": 54,
        "frequency": 12242,
        "name": "Earls Colne Radio"
      }
    ],
    "elevation": 227,
    "tower": true,
    "name": "Earls Colne",
    "runways": [
      {
        "type": 100,
        "width": 29.87,
        "surfaceType": null,
        "numberStart": "06",
        "numberEnd": "24",
        "latStart": 51.91185029,
        "lonStart": 0.67565099,
        "latEnd": 51.91633007,
        "lonEnd": 0.6883834,
        "length": 0,
        "surfacetype": 3
      },
      {
        "type": 102,
        "width": 10,
        "surfaceType": 1,
        "numberStart": "H1",
        "numberEnd": null,
        "latStart": 51.91187187,
        "lonStart": 0.67675953,
        "latEnd": null,
        "lonEnd": null,
        "length": 10
      }
    ],
    "id": 1617
  },
  {
    "type": 1,
    "icao": "EGSS",
    "lat": 51.885128555,
    "lon": 0.23491053,
    "communications": [
      {
        "type": 50,
        "frequency": 12717,
        "name": "Stansted Information"
      },
      {
        "type": 52,
        "frequency": 12195,
        "name": "Stansted Delivery"
      },
      {
        "type": 53,
        "frequency": 12172,
        "name": "Stansted Ground"
      },
      {
        "type": 54,
        "frequency": 12380,
        "name": "Stansted Tower"
      },
      {
        "type": 54,
        "frequency": 12555,
        "name": "Stansted Tower"
      },
      {
        "type": 55,
        "frequency": 12062,
        "name": "Essex Radar"
      }
    ],
    "elevation": 348,
    "tower": true,
    "name": "London Stansted",
    "runways": [
      {
        "type": 100,
        "width": 46.02,
        "surfaceType": null,
        "numberStart": "04",
        "numberEnd": "22",
        "latStart": 51.87506358,
        "lonStart": 0.21981063,
        "latEnd": 51.89519353,
        "lonEnd": 0.25001043,
        "length": 0,
        "surfacetype": 1
      }
    ],
    "id": 1618
  },
  {
    "type": 1,
    "icao": "EGTO",
    "lat": 51.35215790666666,
    "lon": 0.5042957333333334,
    "communications": [
      {
        "type": 50,
        "frequency": 12225,
        "name": "Rochester Information"
      }
    ],
    "elevation": 424,
    "tower": false,
    "name": "Rochester",
    "runways": [
      {
        "type": 100,
        "width": 35.05,
        "surfaceType": null,
        "numberStart": "16",
        "numberEnd": "34",
        "latStart": 51.35593397,
        "lonStart": 0.50036594,
        "latEnd": 51.34776911,
        "lonEnd": 0.50543076,
        "length": 0,
        "surfacetype": 3
      },
      {
        "type": 100,
        "width": 32,
        "surfaceType": null,
        "numberStart": "02L",
        "numberEnd": "20R",
        "latStart": 51.3492806,
        "lonStart": 0.50284874,
        "latEnd": 51.35623876,
        "lonEnd": 0.50719746,
        "length": 0,
        "surfacetype": 3
      },
      {
        "type": 100,
        "width": 21.03,
        "surfaceType": null,
        "numberStart": "02R",
        "numberEnd": "20L",
        "latStart": 51.348931,
        "lonStart": 0.50315475,
        "latEnd": 51.354794,
        "lonEnd": 0.50677675,
        "length": 0,
        "surfacetype": 3
      }
    ],
    "id": 1627
  },
  {
    "type": 1,
    "icao": "EG14",
    "lat": 51.292587104999996,
    "lon": 0.999928295,
    "communications": [],
    "elevation": 299,
    "tower": false,
    "name": "Canterbury",
    "runways": [
      {
        "type": 100,
        "width": 11.89,
        "surfaceType": null,
        "numberStart": "02",
        "numberEnd": "20",
        "latStart": 51.28988503,
        "lonStart": 0.99859655,
        "latEnd": 51.29528918,
        "lonEnd": 1.00126004,
        "length": 0,
        "surfacetype": 1
      }
    ],
    "id": 16240
  },
  {
    "type": 1,
    "icao": "EG76",
    "lat": 51.97405852,
    "lon": 0.84987458,
    "communications": [],
    "elevation": 180,
    "tower": false,
    "name": "Nayland",
    "runways": [
      {
        "type": 100,
        "width": 17.98,
        "surfaceType": null,
        "numberStart": "14",
        "numberEnd": "32",
        "latStart": 51.97545945,
        "lonStart": 0.84804234,
        "latEnd": 51.97265759,
        "lonEnd": 0.85170682,
        "length": 0,
        "surfacetype": 3
      }
    ],
    "id": 16277
  },
  {
    "type": 1,
    "icao": "EG83",
    "lat": 51.88548944,
    "lon": 0.52173956,
    "communications": [],
    "elevation": 225,
    "tower": false,
    "name": "Rayne Hall Farm",
    "runways": [
      {
        "type": 100,
        "width": 20.12,
        "surfaceType": null,
        "numberStart": "09",
        "numberEnd": "27",
        "latStart": 51.88522321,
        "lonStart": 0.51609715,
        "latEnd": 51.88575567,
        "lonEnd": 0.52738197,
        "length": 0,
        "surfacetype": 3
      }
    ],
    "id": 16281
  },
  {
    "type": 1,
    "icao": "EG93",
    "lat": 51.444876345,
    "lon": 0.6322032,
    "communications": [],
    "elevation": 10,
    "tower": false,
    "name": "Stoke Airfield",
    "runways": [
      {
        "type": 100,
        "width": 11.89,
        "surfaceType": null,
        "numberStart": "06",
        "numberEnd": "24",
        "latStart": 51.44369471,
        "lonStart": 0.62966893,
        "latEnd": 51.44605798,
        "lonEnd": 0.63473747,
        "length": 0,
        "surfacetype": 15
      }
    ],
    "id": 16285
  },
  {
    "type": 1,
    "icao": "EGMF",
    "lat": 51.33224447,
    "lon": 0.599930975,
    "communications": [],
    "elevation": 420,
    "tower": false,
    "name": "Farthing Corner",
    "runways": [
      {
        "type": 100,
        "width": 20.12,
        "surfaceType": null,
        "numberStart": "5",
        "numberEnd": "23",
        "latStart": 51.33130051,
        "lonStart": 0.59780549,
        "latEnd": 51.33318843,
        "lonEnd": 0.60205646,
        "length": 0,
        "surfacetype": 3
      }
    ],
    "id": 16344
  },
  {
    "type": 1,
    "icao": "EGML",
    "lat": 51.52948473000001,
    "lon": 0.24443684,
    "communications": [],
    "elevation": 52,
    "tower": false,
    "name": "Damyns Hall",
    "runways": [
      {
        "type": 100,
        "width": 20.12,
        "surfaceType": null,
        "numberStart": "14",
        "numberEnd": "32",
        "latStart": 51.53222817,
        "lonStart": 0.24116132,
        "latEnd": 51.52864167,
        "lonEnd": 0.24567967,
        "length": 0,
        "surfacetype": 3
      },
      {
        "type": 100,
        "width": 20.12,
        "surfaceType": null,
        "numberStart": "03",
        "numberEnd": "21",
        "latStart": 51.52601383,
        "lonStart": 0.24290794,
        "latEnd": 51.53105525,
        "lonEnd": 0.24799843,
        "length": 0,
        "surfacetype": 3
      }
    ],
    "id": 16346
  },
  {
    "type": 1,
    "icao": "EGMT",
    "lat": 51.53751116000001,
    "lon": 0.368009925,
    "communications": [],
    "elevation": 20,
    "tower": false,
    "name": "Thurrock",
    "runways": [
      {
        "type": 100,
        "width": 29.87,
        "surfaceType": null,
        "numberStart": "07C",
        "numberEnd": "25C",
        "latStart": 51.53652472,
        "lonStart": 0.36356046,
        "latEnd": 51.5386162,
        "lonEnd": 0.37299654,
        "length": 0,
        "surfacetype": 3
      },
      {
        "type": 100,
        "width": 29.87,
        "surfaceType": null,
        "numberStart": "07R",
        "numberEnd": "25L",
        "latStart": 51.53627035,
        "lonStart": 0.36370628,
        "latEnd": 51.53833434,
        "lonEnd": 0.37302939,
        "length": 0,
        "surfacetype": 3
      },
      {
        "type": 100,
        "width": 29.87,
        "surfaceType": null,
        "numberStart": "07L",
        "numberEnd": "25R",
        "latStart": 51.53643817,
        "lonStart": 0.36187143,
        "latEnd": 51.53888318,
        "lonEnd": 0.37289545,
        "length": 0,
        "surfacetype": 3
      }
    ],
    "id": 16347
  },
  {
    "type": 1,
    "icao": "EGSX",
    "lat": 51.721382260000006,
    "lon": 0.15128686249999998,
    "communications": [
      {
        "type": 54,
        "frequency": 12352,
        "name": "North Weald Radio"
      }
    ],
    "elevation": 321,
    "tower": true,
    "name": "North Weald",
    "runways": [
      {
        "type": 100,
        "width": 45.11,
        "surfaceType": null,
        "numberStart": "02",
        "numberEnd": "20",
        "latStart": 51.71387406,
        "lonStart": 0.15076001,
        "latEnd": 51.73007752,
        "lonEnd": 0.15812736,
        "length": 0,
        "surfacetype": 1
      },
      {
        "type": 100,
        "width": 35.05,
        "surfaceType": null,
        "numberStart": "13",
        "numberEnd": "31",
        "latStart": 51.72236567,
        "lonStart": 0.14398851,
        "latEnd": 51.71921179,
        "lonEnd": 0.15227157,
        "length": 0,
        "surfacetype": 1
      }
    ],
    "id": 16375
  },
  {
    "type": 1,
    "icao": "EGX6",
    "lat": 51.403248315,
    "lon": 0.8484446649999999,
    "communications": [],
    "elevation": 110,
    "tower": false,
    "name": "Eastchurch",
    "runways": [
      {
        "type": 100,
        "width": 9.14,
        "surfaceType": null,
        "numberStart": "09",
        "numberEnd": "27",
        "latStart": 51.40296084,
        "lonStart": 0.84503717,
        "latEnd": 51.40353579,
        "lonEnd": 0.85185216,
        "length": 0,
        "surfacetype": 3
      }
    ],
    "id": 16400
  }
]