[
  {
    "type": 1,
    "icao": "SCCF",
    "lat": -22.500116665,
    "lon": -45.70947361,
    "communications": [
      {
        "type": 53,
        "frequency": 12180,
        "name": "Ground"
      },
      {
        "type": 54,
        "frequency": 11870,
        "name": "Calama Tower"
      },
      {
        "type": 55,
        "frequency": 12090,
        "name": "Antofagasta Radar"
      }
    ],
    "elevation": 7631,
    "tower": true,
    "name": "El Loa",
    "runways": [
      {
        "type": 100,
        "width": 45,
        "surfaceType": null,
        "numberStart": "10",
        "numberEnd": "28",
        "latStart": -22.49910833,
        "lonStart": -68.91782222,
        "latEnd": -22.501125,
        "lonEnd": -68.88834722,
        "length": 0,
        "surfacetype": 1
      }
    ],
    "id": 7041
  },
  {
    "type": 1,
    "icao": "SCPE",
    "lat": -22.921742000000002,
    "lon": -45.5466335,
    "communications": [],
    "elevation": 7960,
    "tower": true,
    "name": "SAN PEDRO DE ATACAMA",
    "runways": [
      {
        "type": 100,
        "width": 19.81,
        "surfaceType": null,
        "numberStart": "14",
        "numberEnd": "32",
        "latStart": -22.915556,
        "lonStart": -68.165339,
        "latEnd": -22.927928,
        "lonEnd": -68.151531,
        "length": 0,
        "surfacetype": 1
      }
    ],
    "id": 22002
  },
  {
    "type": 17,
    "icao": "SIAE",
    "lat": -22.78611111,
    "lon": -45.17055556,
    "communications": [],
    "elevation": 540,
    "tower": false,
    "name": "[H] BASF Guaratingueta",
    "runways": [
      {
        "type": 102,
        "width": 19.5,
        "surfaceType": 2,
        "numberStart": "H1",
        "numberEnd": null,
        "latStart": -22.78611111,
        "lonStart": -45.17055556,
        "latEnd": null,
        "lonEnd": null,
        "length": 19.5
      }
    ],
    "id": 28264
  },
  {
    "type": 17,
    "icao": "SWQA",
    "lat": -22.73222222,
    "lon": -45.55972222,
    "communications": [],
    "elevation": 5600,
    "tower": false,
    "name": "[H] Bonini",
    "runways": [
      {
        "type": 102,
        "width": 18,
        "surfaceType": 2,
        "numberStart": "H1",
        "numberEnd": null,
        "latStart": -22.73222222,
        "lonStart": -45.55972222,
        "latEnd": null,
        "lonEnd": null,
        "length": 18
      }
    ],
    "id": 28529
  },
  {
    "type": 17,
    "icao": "SJHI",
    "lat": -22.74527778,
    "lon": -45.53138889,
    "communications": [],
    "elevation": 1848,
    "tower": false,
    "name": "[H] Flow Water",
    "runways": [
      {
        "type": 102,
        "width": 21,
        "surfaceType": 2,
        "numberStart": "H1",
        "numberEnd": null,
        "latStart": -22.74527778,
        "lonStart": -45.53138889,
        "latEnd": null,
        "lonEnd": null,
        "length": 21
      }
    ],
    "id": 29771
  },
  {
    "type": 17,
    "icao": "SNHH",
    "lat": -22.42666667,
    "lon": -45.47805556,
    "communications": [],
    "elevation": 840,
    "tower": false,
    "name": "[H] Helibras",
    "runways": [
      {
        "type": 102,
        "width": 29.9,
        "surfaceType": 2,
        "numberStart": "H1",
        "numberEnd": null,
        "latStart": -22.42666667,
        "lonStart": -45.47805556,
        "latEnd": null,
        "lonEnd": null,
        "length": 29.9
      }
    ],
    "id": 30179
  },
  {
    "type": 17,
    "icao": "SIJC",
    "lat": -22.71777778,
    "lon": -45.56777778,
    "communications": [],
    "elevation": 1640,
    "tower": false,
    "name": "[H] Hotel Campos do Jordao",
    "runways": [
      {
        "type": 102,
        "width": 21,
        "surfaceType": 2,
        "numberStart": "H1",
        "numberEnd": null,
        "latStart": -22.71777778,
        "lonStart": -45.56777778,
        "latEnd": null,
        "lonEnd": null,
        "length": 21
      }
    ],
    "id": 30375
  },
  {
    "type": 17,
    "icao": "SIMP",
    "lat": -22.21861111,
    "lon": -45.91638889,
    "communications": [],
    "elevation": 826,
    "tower": false,
    "name": "[H] Marques Plaza Hotel",
    "runways": [
      {
        "type": 102,
        "width": 19.5,
        "surfaceType": 2,
        "numberStart": "H1",
        "numberEnd": null,
        "latStart": -22.21861111,
        "lonStart": -45.91638889,
        "latEnd": null,
        "lonEnd": null,
        "length": 19.5
      }
    ],
    "id": 31099
  },
  {
    "type": 17,
    "icao": "SIHY",
    "lat": -22.74638889,
    "lon": -45.55472222,
    "communications": [],
    "elevation": 1858,
    "tower": false,
    "name": "[H] Mont Blanc",
    "runways": [
      {
        "type": 102,
        "width": 18,
        "surfaceType": 2,
        "numberStart": "H1",
        "numberEnd": null,
        "latStart": -22.74638889,
        "lonStart": -45.55472222,
        "latEnd": null,
        "lonEnd": null,
        "length": 18
      }
    ],
    "id": 31422
  },
  {
    "type": 17,
    "icao": "SDWP",
    "lat": -22.73472222,
    "lon": -45.60638889,
    "communications": [],
    "elevation": 1770,
    "tower": false,
    "name": "[H] Palacio Boa Vista",
    "runways": [
      {
        "type": 102,
        "width": 29.9,
        "surfaceType": 1,
        "numberStart": "H1",
        "numberEnd": null,
        "latStart": -22.73472222,
        "lonStart": -45.60638889,
        "latEnd": null,
        "lonEnd": null,
        "length": 29.9
      }
    ],
    "id": 31856
  },
  {
    "type": 17,
    "icao": "SNER",
    "lat": -22.4125,
    "lon": -45.43611111,
    "communications": [],
    "elevation": 2984,
    "tower": false,
    "name": "[H] Prefeitura Municipal de Itajuba",
    "runways": [
      {
        "type": 102,
        "width": 22.6,
        "surfaceType": 2,
        "numberStart": "H1",
        "numberEnd": null,
        "latStart": -22.4125,
        "lonStart": -45.43611111,
        "latEnd": null,
        "lonEnd": null,
        "length": 22.6
      }
    ],
    "id": 32145
  },
  {
    "type": 17,
    "icao": "SJZJ",
    "lat": -22.69805556,
    "lon": -45.52972222,
    "communications": [],
    "elevation": 1590,
    "tower": false,
    "name": "[H] Rancho Doria",
    "runways": [
      {
        "type": 102,
        "width": 21,
        "surfaceType": 3,
        "numberStart": "H1",
        "numberEnd": null,
        "latStart": -22.69805556,
        "lonStart": -45.52972222,
        "latEnd": null,
        "lonEnd": null,
        "length": 21
      }
    ],
    "id": 32258
  },
  {
    "type": 17,
    "icao": "SIYL",
    "lat": -22.85388889,
    "lon": -45.23777778,
    "communications": [],
    "elevation": 563,
    "tower": false,
    "name": "[H] Sant. Nac. de N.S da Conc. Aparecida",
    "runways": [
      {
        "type": 102,
        "width": 28,
        "surfaceType": 1,
        "numberStart": "H1",
        "numberEnd": null,
        "latStart": -22.85388889,
        "lonStart": -45.23777778,
        "latEnd": null,
        "lonEnd": null,
        "length": 28
      }
    ],
    "id": 32556
  },
  {
    "type": 17,
    "icao": "SJAD",
    "lat": -22.75666667,
    "lon": -45.10861111,
    "communications": [],
    "elevation": 538,
    "tower": false,
    "name": "[H] Tecno Bag",
    "runways": [
      {
        "type": 102,
        "width": 20.1,
        "surfaceType": 2,
        "numberStart": "H1",
        "numberEnd": null,
        "latStart": -22.75666667,
        "lonStart": -45.10861111,
        "latEnd": null,
        "lonEnd": null,
        "length": 20.1
      }
    ],
    "id": 33224
  },
  {
    "type": 17,
    "icao": "SJVE",
    "lat": -22.74333333,
    "lon": -45.54416667,
    "communications": [],
    "elevation": 1729,
    "tower": false,
    "name": "[H] VR Campos do Jordao",
    "runways": [
      {
        "type": 102,
        "width": 24.1,
        "surfaceType": 2,
        "numberStart": "H1",
        "numberEnd": null,
        "latStart": -22.74333333,
        "lonStart": -45.54416667,
        "latEnd": null,
        "lonEnd": null,
        "length": 24.1
      }
    ],
    "id": 33557
  }
]