[
  {
    "type": 1,
    "icao": "VTPM",
    "lat": 16.699854000000002,
    "lon": 98.5450555,
    "communications": [
      {
        "type": 54,
        "frequency": 11835,
        "name": "TWR"
      },
      {
        "type": 55,
        "frequency": 12065,
        "name": "APP"
      }
    ],
    "elevation": 690,
    "tower": true,
    "name": "Tak Mae Sot",
    "runways": [
      {
        "type": 100,
        "width": 29.87,
        "surfaceType": null,
        "numberStart": "09",
        "numberEnd": "27",
        "latStart": 16.69975,
        "lonStart": 98.537969,
        "latEnd": 16.699958,
        "lonEnd": 98.552142,
        "length": 0,
        "surfacetype": 1
      }
    ],
    "id": 31077
  },
  {
    "type": 1,
    "icao": "VTV2",
    "lat": 16.02590934,
    "lon": 98.861442555,
    "communications": [
      {
        "type": 51,
        "frequency": 12700,
        "name": "UMPHANG"
      }
    ],
    "elevation": 1570,
    "tower": false,
    "name": "Umphang (STOL)",
    "runways": [
      {
        "type": 100,
        "width": 29.87,
        "surfaceType": null,
        "numberStart": "02",
        "numberEnd": "20",
        "latStart": 16.02327241,
        "lonStart": 98.86028989,
        "latEnd": 16.02854627,
        "lonEnd": 98.86259522,
        "length": 0,
        "surfacetype": 3
      }
    ],
    "id": 31131
  }
]