[
  {
    "type": 1,
    "icao": "SCOT",
    "lat": -30.6764045,
    "lon": -51.040187,
    "communications": [],
    "elevation": 787,
    "tower": true,
    "name": "Santa Rosa de TabalC-",
    "runways": [
      {
        "type": 100,
        "width": 11.89,
        "surfaceType": null,
        "numberStart": "07",
        "numberEnd": "25",
        "latStart": -30.678284,
        "lonStart": -71.405849,
        "latEnd": -30.674525,
        "lonEnd": -71.393887,
        "length": 0,
        "surfacetype": 1
      }
    ],
    "id": 22926
  },
  {
    "type": 17,
    "icao": "SJRN",
    "lat": -30.03138889,
    "lon": -51.17666667,
    "communications": [],
    "elevation": 126,
    "tower": false,
    "name": "[H] Carlos Gomes Center",
    "runways": [
      {
        "type": 102,
        "width": 21,
        "surfaceType": 2,
        "numberStart": "H1",
        "numberEnd": null,
        "latStart": -30.03138889,
        "lonStart": -51.17666667,
        "latEnd": null,
        "lonEnd": null,
        "length": 21
      }
    ],
    "id": 28787
  },
  {
    "type": 17,
    "icao": "SIAN",
    "lat": -30.03055556,
    "lon": -51.22027778,
    "communications": [],
    "elevation": 56,
    "tower": false,
    "name": "[H] Hospital Dom Vicente Scherer",
    "runways": [
      {
        "type": 102,
        "width": 24.1,
        "surfaceType": 2,
        "numberStart": "H1",
        "numberEnd": null,
        "latStart": -30.03055556,
        "lonStart": -51.22027778,
        "latEnd": null,
        "lonEnd": null,
        "length": 24.1
      }
    ],
    "id": 30326
  },
  {
    "type": 17,
    "icao": "SSHM",
    "lat": -30.02444444,
    "lon": -51.21111111,
    "communications": [],
    "elevation": 77,
    "tower": false,
    "name": "[H] Hospital Moinhos de Vento",
    "runways": [
      {
        "type": 102,
        "width": 18,
        "surfaceType": 2,
        "numberStart": "H1",
        "numberEnd": null,
        "latStart": -30.02444444,
        "lonStart": -51.21111111,
        "latEnd": null,
        "lonEnd": null,
        "length": 18
      }
    ],
    "id": 30339
  },
  {
    "type": 17,
    "icao": "SWSE",
    "lat": -30.02833333,
    "lon": -51.16277778,
    "communications": [],
    "elevation": 328,
    "tower": false,
    "name": "[H] Iguatemi Corporate",
    "runways": [
      {
        "type": 102,
        "width": 19.5,
        "surfaceType": 2,
        "numberStart": "H1",
        "numberEnd": null,
        "latStart": -30.02833333,
        "lonStart": -51.16277778,
        "latEnd": null,
        "lonEnd": null,
        "length": 19.5
      }
    ],
    "id": 30481
  }
]