[
  {
    "type": 1,
    "icao": "GGOV",
    "lat": 11.8901665,
    "lon": -1.8754307199999998,
    "communications": [
      {
        "type": 54,
        "frequency": 12430,
        "name": "TWR"
      },
      {
        "type": 55,
        "frequency": 12390,
        "name": "APP"
      },
      {
        "type": 55,
        "frequency": 12430,
        "name": "APP"
      }
    ],
    "elevation": 128,
    "tower": true,
    "name": "BISSAU OSWALDO VIEIRA INTL",
    "runways": [
      {
        "type": 100,
        "width": 45.11,
        "surfaceType": null,
        "numberStart": "03",
        "numberEnd": "21",
        "latStart": 11.87682548,
        "lonStart": -15.65436896,
        "latEnd": 11.90350752,
        "lonEnd": -15.64329695,
        "length": 0,
        "surfacetype": 1
      }
    ],
    "id": 1758
  },
  {
    "type": 1,
    "icao": "GGCF",
    "lat": 11.2879165,
    "lon": -1.9468744999999998,
    "communications": [],
    "elevation": 64,
    "tower": false,
    "name": "CUFAR",
    "runways": [
      {
        "type": 100,
        "width": 22.56,
        "surfaceType": null,
        "numberStart": "06",
        "numberEnd": "24",
        "latStart": 11.282416,
        "lonStart": -15.187166,
        "latEnd": 11.293417,
        "lonEnd": -15.173805,
        "length": 0,
        "surfacetype": 1
      }
    ],
    "id": 4264
  },
  {
    "type": 1,
    "icao": "GG64",
    "lat": 11.535627999999999,
    "lon": -1.6172265000000001,
    "communications": [],
    "elevation": 165,
    "tower": false,
    "name": "QUEBO",
    "runways": [
      {
        "type": 100,
        "width": 21.34,
        "surfaceType": null,
        "numberStart": "14",
        "numberEnd": "32",
        "latStart": 11.539406,
        "lonStart": -14.766303,
        "latEnd": 11.53185,
        "lonEnd": -14.758328,
        "length": 0,
        "surfacetype": 1
      }
    ],
    "id": 20662
  }
]