[
  {
    "type": 1,
    "icao": "RCSS",
    "lat": 25.069586,
    "lon": 73.304372,
    "communications": [
      {
        "type": 50,
        "frequency": 12740,
        "name": "ATIS"
      },
      {
        "type": 52,
        "frequency": 12120,
        "name": "CLNC DEL"
      },
      {
        "type": 53,
        "frequency": 12190,
        "name": "GND"
      },
      {
        "type": 54,
        "frequency": 12630,
        "name": "TWR"
      },
      {
        "type": 55,
        "frequency": 12510,
        "name": "TAIPEI APP"
      }
    ],
    "elevation": 18,
    "tower": true,
    "name": "Sungshan",
    "runways": [
      {
        "type": 100,
        "width": 60.05,
        "surfaceType": null,
        "numberStart": "10",
        "numberEnd": "28",
        "latStart": 25.07005,
        "lonStart": 121.539622,
        "latEnd": 25.069122,
        "lonEnd": 121.565517,
        "length": 0,
        "surfacetype": 1
      }
    ],
    "id": 24375
  },
  {
    "type": 1,
    "icao": "RCTP",
    "lat": 25.07773125,
    "lon": 73.15384775000001,
    "communications": [
      {
        "type": 50,
        "frequency": 12760,
        "name": "ATIS"
      },
      {
        "type": 52,
        "frequency": 12180,
        "name": "CLNC DEL"
      },
      {
        "type": 53,
        "frequency": 12170,
        "name": "GND"
      },
      {
        "type": 54,
        "frequency": 11870,
        "name": "TAIPEI TWR"
      },
      {
        "type": 55,
        "frequency": 12510,
        "name": "TAIPEI APP"
      }
    ],
    "elevation": 106,
    "tower": true,
    "name": "Taiwan Taoyuan International",
    "runways": [
      {
        "type": 100,
        "width": 60.05,
        "surfaceType": null,
        "numberStart": "05",
        "numberEnd": "23",
        "latStart": 25.073081,
        "lonStart": 121.215572,
        "latEnd": 25.094647,
        "lonEnd": 121.243133,
        "length": 0,
        "surfacetype": 2
      },
      {
        "type": 100,
        "width": 60.05,
        "surfaceType": null,
        "numberStart": "06",
        "numberEnd": "24",
        "latStart": 25.061728,
        "lonStart": 121.223703,
        "latEnd": 25.081469,
        "lonEnd": 121.248886,
        "length": 0,
        "surfacetype": 2
      }
    ],
    "id": 24973
  }
]