[
  {
    "type": 1,
    "icao": "KFLG",
    "lat": 35.14029348,
    "lon": -111.669263565,
    "communications": [
      {
        "type": 50,
        "frequency": 12580,
        "name": "Flagstaff ATIS"
      },
      {
        "type": 53,
        "frequency": 12190,
        "name": "Flagstaff GND"
      },
      {
        "type": 54,
        "frequency": 13455,
        "name": "Flagstaff TWR"
      }
    ],
    "elevation": 7011,
    "tower": true,
    "name": "Flagstaff Pulliam",
    "runways": [
      {
        "type": 100,
        "width": 45.72,
        "surfaceType": null,
        "numberStart": "03",
        "numberEnd": "21",
        "latStart": 35.13121354,
        "lonStart": -111.67894031,
        "latEnd": 35.14937342,
        "lonEnd": -111.65958682,
        "length": 0,
        "surfacetype": 1
      }
    ],
    "id": 2670
  },
  {
    "type": 17,
    "icao": "3AZ0",
    "lat": 35.20834444,
    "lon": -111.64349473,
    "communications": [],
    "elevation": 7016,
    "tower": false,
    "name": "[H] Flagstaff Medical Center East",
    "runways": [
      {
        "type": 102,
        "width": 24.4,
        "surfaceType": 1,
        "numberStart": "H1",
        "numberEnd": null,
        "latStart": 35.20834444,
        "lonStart": -111.64349473,
        "latEnd": null,
        "lonEnd": null,
        "length": 24.4
      }
    ],
    "id": 7434
  },
  {
    "type": 17,
    "icao": "AZ23",
    "lat": 35.2236225,
    "lon": -111.58321584,
    "communications": [],
    "elevation": 6833,
    "tower": false,
    "name": "[H] Flagstaff Mall",
    "runways": [
      {
        "type": 102,
        "width": 61,
        "surfaceType": 1,
        "numberStart": "H1",
        "numberEnd": null,
        "latStart": 35.2236225,
        "lonStart": -111.58321584,
        "latEnd": null,
        "lonEnd": null,
        "length": 61
      }
    ],
    "id": 14827
  },
  {
    "type": 1,
    "icao": "AZ77",
    "lat": 35.238333499999996,
    "lon": -111.9358345,
    "communications": [],
    "elevation": 6958,
    "tower": false,
    "name": "SUNRISE RANCH",
    "runways": [
      {
        "type": 100,
        "width": 30.48,
        "surfaceType": null,
        "numberStart": "12",
        "numberEnd": "30",
        "latStart": 35.241389,
        "lonStart": -111.939719,
        "latEnd": 35.235278,
        "lonEnd": -111.93195,
        "length": 0,
        "surfacetype": 1
      }
    ],
    "id": 14877
  }
]