[
  {
    "type": 1,
    "icao": "SJXI",
    "lat": -3.09,
    "lon": -21.378383035,
    "communications": [],
    "elevation": 51,
    "tower": false,
    "name": "Bomar",
    "runways": [
      {
        "type": 100,
        "width": 17.98,
        "surfaceType": null,
        "numberStart": "13",
        "numberEnd": "31",
        "latStart": -3.08884846,
        "lonStart": -39.66561453,
        "latEnd": -3.09115154,
        "lonEnd": -39.65882991,
        "length": 0,
        "surfacetype": 1
      }
    ],
    "id": 2956
  },
  {
    "type": 1,
    "icao": "SJDS",
    "lat": -3.92722222,
    "lon": -21.21697257,
    "communications": [],
    "elevation": 66,
    "tower": false,
    "name": "Fabrica Fortaleza",
    "runways": [
      {
        "type": 100,
        "width": 32,
        "surfaceType": null,
        "numberStart": "13",
        "numberEnd": "31",
        "latStart": -3.92567265,
        "lonStart": -38.50517335,
        "latEnd": -3.92877179,
        "lonEnd": -38.49593777,
        "length": 0,
        "surfacetype": 1
      }
    ],
    "id": 7742
  },
  {
    "type": 1,
    "icao": "SNFF",
    "lat": -3.80944444,
    "lon": -21.2147649,
    "communications": [],
    "elevation": 82,
    "tower": false,
    "name": "Feijo",
    "runways": [
      {
        "type": 100,
        "width": 17.98,
        "surfaceType": null,
        "numberStart": "13",
        "numberEnd": "31",
        "latStart": -3.80865459,
        "lonStart": -38.61929551,
        "latEnd": -3.81023429,
        "lonEnd": -38.61459338,
        "length": 0,
        "surfacetype": 5
      }
    ],
    "id": 9223
  },
  {
    "type": 1,
    "icao": "SBFZ",
    "lat": -3.7762835,
    "lon": -21.161437499999998,
    "communications": [
      {
        "type": 50,
        "frequency": 12770,
        "name": "ATIS"
      },
      {
        "type": 53,
        "frequency": 12195,
        "name": "GND"
      },
      {
        "type": 54,
        "frequency": 11850,
        "name": "FORTALEZA TWR"
      },
      {
        "type": 54,
        "frequency": 12900,
        "name": "FORTALEZA TWR"
      },
      {
        "type": 55,
        "frequency": 11920,
        "name": "FORTALEZA APP"
      },
      {
        "type": 55,
        "frequency": 13300,
        "name": "FORTALEZA APP"
      },
      {
        "type": 55,
        "frequency": 13455,
        "name": "FORTALEZA APP"
      }
    ],
    "elevation": 82,
    "tower": true,
    "name": "Pinto Martins",
    "runways": [
      {
        "type": 100,
        "width": 45.11,
        "surfaceType": null,
        "numberStart": "13",
        "numberEnd": "31",
        "latStart": -3.773342,
        "lonStart": -38.54365,
        "latEnd": -3.779225,
        "lonEnd": -38.521461,
        "length": 0,
        "surfacetype": 1
      }
    ],
    "id": 20180
  }
]