[
  {
    "type": 17,
    "icao": "4OH2",
    "lat": 39.97423388,
    "lon": -82.01819195,
    "communications": [],
    "elevation": 783,
    "tower": false,
    "name": "[H] Bethesda Hospital Helistop",
    "runways": [
      {
        "type": 102,
        "width": 12.2,
        "surfaceType": 1,
        "numberStart": "H1",
        "numberEnd": null,
        "latStart": 39.97423388,
        "lonStart": -82.01819195,
        "latEnd": null,
        "lonEnd": null,
        "length": 12.2
      }
    ],
    "id": 28452
  },
  {
    "type": 17,
    "icao": "54I",
    "lat": 39.53034805,
    "lon": -82.03333723,
    "communications": [],
    "elevation": 818,
    "tower": false,
    "name": "[H] Burr Oak Lodge",
    "runways": [
      {
        "type": 102,
        "width": 22.9,
        "surfaceType": 3,
        "numberStart": "H1",
        "numberEnd": null,
        "latStart": 39.53034805,
        "lonStart": -82.03333723,
        "latEnd": null,
        "lonEnd": null,
        "length": 22.9
      }
    ],
    "id": 28654
  },
  {
    "type": 17,
    "icao": "OI95",
    "lat": 39.95367527,
    "lon": -82.98129334,
    "communications": [],
    "elevation": 785,
    "tower": false,
    "name": "[H] Childrens Hospital",
    "runways": [
      {
        "type": 102,
        "width": 6.1,
        "surfaceType": 2,
        "numberStart": "H1",
        "numberEnd": null,
        "latStart": 39.95367527,
        "lonStart": -82.98129334,
        "latEnd": null,
        "lonEnd": null,
        "length": 6.1
      }
    ],
    "id": 28930
  },
  {
    "type": 17,
    "icao": "2OI9",
    "lat": 39.83950777,
    "lon": -82.90767862,
    "communications": [],
    "elevation": 725,
    "tower": false,
    "name": "[H] Comprix",
    "runways": [
      {
        "type": 102,
        "width": 30.5,
        "surfaceType": 3,
        "numberStart": "H1",
        "numberEnd": null,
        "latStart": 39.83950777,
        "lonStart": -82.90767862,
        "latEnd": null,
        "lonEnd": null,
        "length": 30.5
      }
    ],
    "id": 29103
  },
  {
    "type": 17,
    "icao": "OH47",
    "lat": 39.32423111,
    "lon": -82.95198389,
    "communications": [],
    "elevation": 619,
    "tower": false,
    "name": "[H] District 9",
    "runways": [
      {
        "type": 102,
        "width": 22.9,
        "surfaceType": 1,
        "numberStart": "H1",
        "numberEnd": null,
        "latStart": 39.32423111,
        "lonStart": -82.95198389,
        "latEnd": null,
        "lonEnd": null,
        "length": 22.9
      }
    ],
    "id": 29367
  },
  {
    "type": 17,
    "icao": "84OI",
    "lat": 39.12507194,
    "lon": -82.53821556,
    "communications": [],
    "elevation": 714,
    "tower": false,
    "name": "[H] Grant Lifeflight 2",
    "runways": [
      {
        "type": 102,
        "width": 6.1,
        "surfaceType": 2,
        "numberStart": "H1",
        "numberEnd": null,
        "latStart": 39.12507194,
        "lonStart": -82.53821556,
        "latEnd": null,
        "lonEnd": null,
        "length": 6.1
      }
    ],
    "id": 30002
  },
  {
    "type": 17,
    "icao": "97OH",
    "lat": 39.04146138,
    "lon": -82.62794223,
    "communications": [],
    "elevation": 706,
    "tower": false,
    "name": "[H] Jackson",
    "runways": [
      {
        "type": 102,
        "width": 7.3,
        "surfaceType": 2,
        "numberStart": "H1",
        "numberEnd": null,
        "latStart": 39.04146138,
        "lonStart": -82.62794223,
        "latEnd": null,
        "lonEnd": null,
        "length": 7.3
      }
    ],
    "id": 30572
  },
  {
    "type": 17,
    "icao": "5OH8",
    "lat": 39.95534194,
    "lon": -82.99712723,
    "communications": [],
    "elevation": 830,
    "tower": false,
    "name": "[H] Joseph Skilken & Co",
    "runways": [
      {
        "type": 102,
        "width": 12.2,
        "surfaceType": 1,
        "numberStart": "H1",
        "numberEnd": null,
        "latStart": 39.95534194,
        "lonStart": -82.99712723,
        "latEnd": null,
        "lonEnd": null,
        "length": 12.2
      }
    ],
    "id": 30650
  },
  {
    "type": 17,
    "icao": "83OI",
    "lat": 39.95450805,
    "lon": -82.52738056,
    "communications": [],
    "elevation": 898,
    "tower": false,
    "name": "[H] M P W",
    "runways": [
      {
        "type": 102,
        "width": 15.2,
        "surfaceType": 2,
        "numberStart": "H1",
        "numberEnd": null,
        "latStart": 39.95450805,
        "lonStart": -82.52738056,
        "latEnd": null,
        "lonEnd": null,
        "length": 15.2
      }
    ],
    "id": 30988
  },
  {
    "type": 17,
    "icao": "OH46",
    "lat": 39.39561888,
    "lon": -82.96934639,
    "communications": [],
    "elevation": 745,
    "tower": false,
    "name": "[H] Medical Center Hospital",
    "runways": [
      {
        "type": 102,
        "width": 6.1,
        "surfaceType": 1,
        "numberStart": "H1",
        "numberEnd": null,
        "latStart": 39.39561888,
        "lonStart": -82.96934639,
        "latEnd": null,
        "lonEnd": null,
        "length": 6.1
      }
    ],
    "id": 31193
  },
  {
    "type": 17,
    "icao": "5OH5",
    "lat": 39.05563194,
    "lon": -82.24153806,
    "communications": [],
    "elevation": 620,
    "tower": false,
    "name": "[H] Meigs Mine 1",
    "runways": [
      {
        "type": 102,
        "width": 18.3,
        "surfaceType": 4,
        "numberStart": "H1",
        "numberEnd": null,
        "latStart": 39.05563194,
        "lonStart": -82.24153806,
        "latEnd": null,
        "lonEnd": null,
        "length": 18.3
      }
    ],
    "id": 31215
  },
  {
    "type": 17,
    "icao": "7OH4",
    "lat": 39.12507472,
    "lon": -82.28320612,
    "communications": [],
    "elevation": 715,
    "tower": false,
    "name": "[H] Meigs Mine 2",
    "runways": [
      {
        "type": 102,
        "width": 18.3,
        "surfaceType": 2,
        "numberStart": "H1",
        "numberEnd": null,
        "latStart": 39.12507472,
        "lonStart": -82.28320612,
        "latEnd": null,
        "lonEnd": null,
        "length": 18.3
      }
    ],
    "id": 31216
  },
  {
    "type": 17,
    "icao": "OI63",
    "lat": 39.55978527,
    "lon": -82.77517139,
    "communications": [],
    "elevation": 950,
    "tower": false,
    "name": "[H] Mildon",
    "runways": [
      {
        "type": 102,
        "width": 22.9,
        "surfaceType": 3,
        "numberStart": "H1",
        "numberEnd": null,
        "latStart": 39.55978527,
        "lonStart": -82.77517139,
        "latEnd": null,
        "lonEnd": null,
        "length": 22.9
      }
    ],
    "id": 31362
  },
  {
    "type": 17,
    "icao": "28OI",
    "lat": 39.98061944,
    "lon": -82.84156501,
    "communications": [],
    "elevation": 841,
    "tower": false,
    "name": "[H] Mount Carmel East Hospital",
    "runways": [
      {
        "type": 102,
        "width": 15.2,
        "surfaceType": 1,
        "numberStart": "H1",
        "numberEnd": null,
        "latStart": 39.98061944,
        "lonStart": -82.84156501,
        "latEnd": null,
        "lonEnd": null,
        "length": 15.2
      }
    ],
    "id": 31467
  },
  {
    "type": 17,
    "icao": "OI96",
    "lat": 39.93506361,
    "lon": -82.83184195,
    "communications": [],
    "elevation": 796,
    "tower": false,
    "name": "[H] National",
    "runways": [
      {
        "type": 102,
        "width": 9.1,
        "surfaceType": 1,
        "numberStart": "H1",
        "numberEnd": null,
        "latStart": 39.93506361,
        "lonStart": -82.83184195,
        "latEnd": null,
        "lonEnd": null,
        "length": 9.1
      }
    ],
    "id": 31561
  },
  {
    "type": 17,
    "icao": "OH23",
    "lat": 39.32673944,
    "lon": -82.11431139,
    "communications": [],
    "elevation": 720,
    "tower": false,
    "name": "[H] O Bleness Memorial Hospital",
    "runways": [
      {
        "type": 102,
        "width": 12.2,
        "surfaceType": 2,
        "numberStart": "H1",
        "numberEnd": null,
        "latStart": 39.32673944,
        "lonStart": -82.11431139,
        "latEnd": null,
        "lonEnd": null,
        "length": 12.2
      }
    ],
    "id": 31697
  },
  {
    "type": 17,
    "icao": "OH53",
    "lat": 39.96256416,
    "lon": -82.99934973,
    "communications": [],
    "elevation": 1354,
    "tower": false,
    "name": "[H] Ohio Bldg Authority",
    "runways": [
      {
        "type": 102,
        "width": 16.8,
        "surfaceType": 1,
        "numberStart": "H1",
        "numberEnd": null,
        "latStart": 39.96256416,
        "lonStart": -82.99934973,
        "latEnd": null,
        "lonEnd": null,
        "length": 16.8
      }
    ],
    "id": 31731
  },
  {
    "type": 17,
    "icao": "2OI6",
    "lat": 39.97034194,
    "lon": -82.96240362,
    "communications": [],
    "elevation": 1020,
    "tower": false,
    "name": "[H] Park Medical Center",
    "runways": [
      {
        "type": 102,
        "width": 25.9,
        "surfaceType": 2,
        "numberStart": "H1",
        "numberEnd": null,
        "latStart": 39.97034194,
        "lonStart": -82.96240362,
        "latEnd": null,
        "lonEnd": null,
        "length": 25.9
      }
    ],
    "id": 31893
  }
]