[
  {
    "type": 1,
    "icao": "LTFJ",
    "lat": 40.8985715,
    "lon": 35.09883357,
    "communications": [
      {
        "type": 50,
        "frequency": 12855,
        "name": "ATIS"
      },
      {
        "type": 53,
        "frequency": 12175,
        "name": "GND"
      },
      {
        "type": 54,
        "frequency": 12092,
        "name": "TWR"
      },
      {
        "type": 54,
        "frequency": 12210,
        "name": "TWR"
      },
      {
        "type": 54,
        "frequency": 12262,
        "name": "TWR"
      },
      {
        "type": 54,
        "frequency": 11880,
        "name": "TWR"
      }
    ],
    "elevation": 312,
    "tower": true,
    "name": "SABIHA GOKCEN",
    "runways": [
      {
        "type": 100,
        "width": 45.11,
        "surfaceType": null,
        "numberStart": "06",
        "numberEnd": "24",
        "latStart": 40.89266427,
        "lonStart": 29.29318841,
        "latEnd": 40.90447873,
        "lonEnd": 29.32526473,
        "length": 0,
        "surfacetype": 2
      }
    ],
    "id": 21898
  },
  {
    "type": 1,
    "icao": "LTBX",
    "lat": 40.993013749999996,
    "lon": 35.10298525,
    "communications": [
      {
        "type": 54,
        "frequency": 12600,
        "name": "TWR"
      }
    ],
    "elevation": 400,
    "tower": true,
    "name": "SAMANDIRA",
    "runways": [
      {
        "type": 100,
        "width": 29.87,
        "surfaceType": null,
        "numberStart": "18",
        "numberEnd": "36",
        "latStart": 40.999314,
        "lonStart": 29.216531,
        "latEnd": 40.986619,
        "lonEnd": 29.21655,
        "length": 0,
        "surfacetype": 2
      },
      {
        "type": 100,
        "width": 15.24,
        "surfaceType": null,
        "numberStart": "04",
        "numberEnd": "22",
        "latStart": 40.990625,
        "lonStart": 29.213294,
        "latEnd": 40.995497,
        "lonEnd": 29.219703,
        "length": 0,
        "surfacetype": 2
      }
    ],
    "id": 21943
  },
  {
    "type": 1,
    "icao": "LTBQ",
    "lat": 40.735032000000004,
    "lon": 35.3996195,
    "communications": [
      {
        "type": 53,
        "frequency": 12195,
        "name": "GND"
      },
      {
        "type": 54,
        "frequency": 12210,
        "name": "TWR"
      },
      {
        "type": 55,
        "frequency": 12050,
        "name": "YESILKOY APP"
      },
      {
        "type": 55,
        "frequency": 12110,
        "name": "YESILKOY APP"
      },
      {
        "type": 55,
        "frequency": 12220,
        "name": "YESILKOY APP"
      }
    ],
    "elevation": 182,
    "tower": true,
    "name": "TOPEL",
    "runways": [
      {
        "type": 100,
        "width": 29.87,
        "surfaceType": null,
        "numberStart": "09",
        "numberEnd": "27",
        "latStart": 40.736511,
        "lonStart": 30.065686,
        "latEnd": 40.733553,
        "lonEnd": 30.100839,
        "length": 0,
        "surfacetype": 1
      }
    ],
    "id": 24798
  },
  {
    "type": 1,
    "icao": "LTBP",
    "lat": 40.68647025,
    "lon": 35.02893,
    "communications": [],
    "elevation": 5,
    "tower": false,
    "name": "YALOVA",
    "runways": [
      {
        "type": 100,
        "width": 39.62,
        "surfaceType": null,
        "numberStart": "08",
        "numberEnd": "26",
        "latStart": 40.684136,
        "lonStart": 29.371975,
        "latEnd": 40.685131,
        "lonEnd": 29.388519,
        "length": 0,
        "surfacetype": 1
      },
      {
        "type": 100,
        "width": 39.62,
        "surfaceType": null,
        "numberStart": "18",
        "numberEnd": "36",
        "latStart": 40.694372,
        "lonStart": 29.376372,
        "latEnd": 40.682242,
        "lonEnd": 29.375561,
        "length": 0,
        "surfacetype": 1
      }
    ],
    "id": 27662
  }
]