[
  {
    "type": 1,
    "icao": "LGSA",
    "lat": 35.531592,
    "lon": 29.83005,
    "communications": [
      {
        "type": 53,
        "frequency": 12170,
        "name": "GND"
      },
      {
        "type": 54,
        "frequency": 12210,
        "name": "TWR"
      },
      {
        "type": 55,
        "frequency": 12210,
        "name": "APP"
      }
    ],
    "elevation": 490,
    "tower": true,
    "name": "Khania Souda",
    "runways": [
      {
        "type": 100,
        "width": 45.11,
        "surfaceType": null,
        "numberStart": "11",
        "numberEnd": "29",
        "latStart": 35.537078,
        "lonStart": 24.133994,
        "latEnd": 35.526106,
        "lonEnd": 24.168375,
        "length": 0,
        "surfacetype": 1
      }
    ],
    "id": 13817
  },
  {
    "type": 1,
    "icao": "LG03",
    "lat": 35.528280550000005,
    "lon": 29.679950015000003,
    "communications": [],
    "elevation": 9,
    "tower": false,
    "name": "Maleme",
    "runways": [
      {
        "type": 100,
        "width": 24.38,
        "surfaceType": null,
        "numberStart": "13",
        "numberEnd": "31",
        "latStart": 35.53143929,
        "lonStart": 23.83477822,
        "latEnd": 35.52512181,
        "lonEnd": 23.84339954,
        "length": 0,
        "surfacetype": 2
      }
    ],
    "id": 16529
  },
  {
    "type": 1,
    "icao": "LG54",
    "lat": 35.063679,
    "lon": 29.908314,
    "communications": [
      {
        "type": 54,
        "frequency": 12210,
        "name": "TWR"
      }
    ],
    "elevation": 7,
    "tower": true,
    "name": "TYMPAKI",
    "runways": [
      {
        "type": 100,
        "width": 48.77,
        "surfaceType": null,
        "numberStart": "09",
        "numberEnd": "27",
        "latStart": 35.063286,
        "lonStart": 24.752556,
        "latEnd": 35.064072,
        "lonEnd": 24.782281,
        "length": 0,
        "surfacetype": 1
      }
    ],
    "id": 24935
  }
]