[
  {
    "type": 1,
    "icao": "YBAU",
    "lat": -10.14922771,
    "lon": 66.009365905,
    "communications": [
      {
        "type": 51,
        "frequency": 12650,
        "name": "CTAF"
      }
    ],
    "elevation": 43,
    "tower": false,
    "name": "Badu Is",
    "runways": [
      {
        "type": 100,
        "width": 12.19,
        "surfaceType": null,
        "numberStart": "12",
        "numberEnd": "30",
        "latStart": -10.14649306,
        "lonStart": 142.17069417,
        "latEnd": -10.15196236,
        "lonEnd": 142.17677904,
        "length": 0,
        "surfacetype": 1
      }
    ],
    "id": 2058
  },
  {
    "type": 1,
    "icao": "YCCT",
    "lat": -10.049988025,
    "lon": 66.50864480999999,
    "communications": [
      {
        "type": 51,
        "frequency": 12670,
        "name": "CTAF"
      }
    ],
    "elevation": 8,
    "tower": false,
    "name": "Coconut Island",
    "runways": [
      {
        "type": 100,
        "width": 18,
        "surfaceType": null,
        "numberStart": "09",
        "numberEnd": "27",
        "latStart": -10.04936905,
        "lonStart": 143.06789662,
        "latEnd": -10.050607,
        "lonEnd": 143.074601,
        "length": 0,
        "surfacetype": 1
      }
    ],
    "id": 5148
  },
  {
    "type": 1,
    "icao": "YWBS",
    "lat": -10.207406559999999,
    "lon": 66.30601445,
    "communications": [
      {
        "type": 51,
        "frequency": 12030,
        "name": "BRISBANE CENTRE MULT"
      },
      {
        "type": 51,
        "frequency": 12650,
        "name": "WARRABER MULT"
      }
    ],
    "elevation": 9,
    "tower": false,
    "name": "Warraber Island",
    "runways": [
      {
        "type": 100,
        "width": 17.98,
        "surfaceType": null,
        "numberStart": "12",
        "numberEnd": "30",
        "latStart": -10.20565523,
        "lonStart": 142.82118679,
        "latEnd": -10.20915789,
        "lonEnd": 142.82671531,
        "length": 0,
        "surfacetype": 1
      }
    ],
    "id": 26933
  },
  {
    "type": 16,
    "icao": "YPAU",
    "lat": -10.19195673,
    "lon": 66.07336148499999,
    "communications": [],
    "elevation": 0,
    "tower": false,
    "name": "[S] ST PAULS",
    "runways": [
      {
        "type": 101,
        "width": 14.94,
        "surfaceType": null,
        "numberStart": "9",
        "numberEnd": "27",
        "latStart": -10.192025,
        "lonStart": 142.33861143,
        "latEnd": -10.19188846,
        "lonEnd": 142.33885257,
        "length": 0
      }
    ],
    "id": 34416
  }
]