[
  {
    "type": 1,
    "icao": "SCDA",
    "lat": -20.535227775,
    "lon": -45.365408329999994,
    "communications": [
      {
        "type": 53,
        "frequency": 12170,
        "name": "GND"
      },
      {
        "type": 54,
        "frequency": 11890,
        "name": "IQUIQUE TWR"
      },
      {
        "type": 55,
        "frequency": 12270,
        "name": "IQUIQUE APP"
      },
      {
        "type": 55,
        "frequency": 12490,
        "name": "IQUIQUE APP"
      }
    ],
    "elevation": 155,
    "tower": true,
    "name": "DIEGO ARACENA INTL",
    "runways": [
      {
        "type": 100,
        "width": 45.11,
        "surfaceType": null,
        "numberStart": "18",
        "numberEnd": "36",
        "latStart": -20.52010833,
        "lonStart": -70.18046944,
        "latEnd": -20.55034722,
        "lonEnd": -70.18208889,
        "length": 0,
        "surfacetype": 1
      }
    ],
    "id": 5797
  },
  {
    "type": 1,
    "icao": "SCNV",
    "lat": -20.734843,
    "lon": -45.183436985,
    "communications": [],
    "elevation": 3170,
    "tower": false,
    "name": "Nueva Victoria",
    "runways": [
      {
        "type": 100,
        "width": 41.15,
        "surfaceType": null,
        "numberStart": "09",
        "numberEnd": "27",
        "latStart": -20.73518964,
        "lonStart": -69.63237761,
        "latEnd": -20.73449636,
        "lonEnd": -69.61928245,
        "length": 0,
        "surfacetype": 1
      }
    ],
    "id": 18538
  }
]