[
  {
    "type": 1,
    "icao": "KGMU",
    "lat": 34.84901025333333,
    "lon": -43.283404693333345,
    "communications": [
      {
        "type": 50,
        "frequency": 12707,
        "name": "ASOS"
      },
      {
        "type": 51,
        "frequency": 11990,
        "name": "CTAF"
      },
      {
        "type": 51,
        "frequency": 12295,
        "name": "UNICOM"
      },
      {
        "type": 53,
        "frequency": 12125,
        "name": "GND"
      },
      {
        "type": 54,
        "frequency": 11990,
        "name": "TWR"
      },
      {
        "type": 55,
        "frequency": 11880,
        "name": "GREER APP/DEP"
      }
    ],
    "elevation": 1047,
    "tower": true,
    "name": "GREENVILLE DOWNTOWN",
    "runways": [
      {
        "type": 100,
        "width": 30.48,
        "surfaceType": null,
        "numberStart": "01",
        "numberEnd": "19",
        "latStart": 34.8405,
        "lonStart": -82.348586,
        "latEnd": 34.855311,
        "lonEnd": -82.348214,
        "length": 0,
        "surfacetype": 1
      },
      {
        "type": 100,
        "width": 24.38,
        "surfaceType": null,
        "numberStart": "10",
        "numberEnd": "28",
        "latStart": 34.848086,
        "lonStart": -82.358811,
        "latEnd": 34.847828,
        "lonEnd": -82.345492,
        "length": 0,
        "surfacetype": 1
      },
      {
        "type": 102,
        "width": 15.24,
        "surfaceType": 2,
        "numberStart": "H1",
        "numberEnd": null,
        "latStart": 34.85178202,
        "lonStart": -82.34634825,
        "latEnd": null,
        "lonEnd": null,
        "length": 15.24
      },
      {
        "type": 102,
        "width": 15.24,
        "surfaceType": 2,
        "numberStart": "H2",
        "numberEnd": null,
        "latStart": 34.8505545,
        "lonStart": -82.34982191,
        "latEnd": null,
        "lonEnd": null,
        "length": 15.24
      }
    ],
    "id": 10160
  }
]