[
  {
    "type": 1,
    "icao": "SERB",
    "lat": -1.6534335,
    "lon": -40.155736000000005,
    "communications": [
      {
        "type": 54,
        "frequency": 12290,
        "name": "RIOBAMBA TWR"
      }
    ],
    "elevation": 9150,
    "tower": true,
    "name": "CHIMBORAZO",
    "runways": [
      {
        "type": 100,
        "width": 28.96,
        "surfaceType": null,
        "numberStart": "05",
        "numberEnd": "23",
        "latStart": -1.657492,
        "lonStart": -78.662097,
        "latEnd": -1.649375,
        "lonEnd": -78.650186,
        "length": 0,
        "surfacetype": 1
      }
    ],
    "id": 3895
  },
  {
    "type": 1,
    "icao": "SECM",
    "lat": -1.7062765,
    "lon": -40.541371,
    "communications": [],
    "elevation": 328,
    "tower": false,
    "name": "HACIENDA CLEMENTINA",
    "runways": [
      {
        "type": 100,
        "width": 10.97,
        "surfaceType": null,
        "numberStart": "01",
        "numberEnd": "19",
        "latStart": -1.710414,
        "lonStart": -79.380603,
        "latEnd": -1.702139,
        "lonEnd": -79.377272,
        "length": 0,
        "surfacetype": 1
      }
    ],
    "id": 10944
  },
  {
    "type": 1,
    "icao": "SELJ",
    "lat": -1.704382,
    "lon": -40.6274765,
    "communications": [],
    "elevation": 50,
    "tower": false,
    "name": "HACIENDA LA JULIA",
    "runways": [
      {
        "type": 100,
        "width": 14.94,
        "surfaceType": null,
        "numberStart": "03",
        "numberEnd": "21",
        "latStart": -1.708328,
        "lonStart": -79.554517,
        "latEnd": -1.700436,
        "lonEnd": -79.550006,
        "length": 0,
        "surfacetype": 1
      }
    ],
    "id": 10946
  },
  {
    "type": 1,
    "icao": "SEPV",
    "lat": -1.041647,
    "lon": -40.764121,
    "communications": [
      {
        "type": 54,
        "frequency": 12210,
        "name": "PORTOVIEJO TWR"
      }
    ],
    "elevation": 130,
    "tower": true,
    "name": "REALES TAMARINDOS",
    "runways": [
      {
        "type": 100,
        "width": 27.13,
        "surfaceType": null,
        "numberStart": "12",
        "numberEnd": "30",
        "latStart": -1.035333,
        "lonStart": -80.480281,
        "latEnd": -1.047961,
        "lonEnd": -80.464131,
        "length": 0,
        "surfacetype": 1
      }
    ],
    "id": 20868
  }
]