[
  {
    "type": 1,
    "icao": "MMAA",
    "lat": 16.75602036,
    "lon": -99.75162225499999,
    "communications": [
      {
        "type": 54,
        "frequency": 11850,
        "name": "ACAPULCO TWR"
      },
      {
        "type": 54,
        "frequency": 11990,
        "name": "ACAPULCO TWR"
      },
      {
        "type": 55,
        "frequency": 11990,
        "name": "ACAPULCO APP"
      },
      {
        "type": 56,
        "frequency": 11990,
        "name": "ACAPULCO DEP"
      },
      {
        "type": 50,
        "frequency": 12230,
        "name": "MMAA ATIS"
      }
    ],
    "elevation": 16,
    "tower": true,
    "name": "GENERAL JUAN N ALVAREZ INTL",
    "runways": [
      {
        "type": 100,
        "width": 45.11,
        "surfaceType": null,
        "numberStart": "10",
        "numberEnd": "28",
        "latStart": 16.75998779,
        "lonStart": -99.76308867,
        "latEnd": 16.75077596,
        "lonEnd": -99.7336397,
        "length": 0,
        "surfacetype": 2
      },
      {
        "type": 100,
        "width": 35.05,
        "surfaceType": null,
        "numberStart": "06",
        "numberEnd": "24",
        "latStart": 16.75365477,
        "lonStart": -99.76222684,
        "latEnd": 16.75966292,
        "lonEnd": -99.74753381,
        "length": 0,
        "surfacetype": 2
      }
    ],
    "id": 4107
  },
  {
    "type": 1,
    "icao": "MM41",
    "lat": 16.910245500000002,
    "lon": -99.988719,
    "communications": [],
    "elevation": 20,
    "tower": false,
    "name": "LEON GONZALES PIE DE LA CUESTA",
    "runways": [
      {
        "type": 100,
        "width": 45.72,
        "surfaceType": null,
        "numberStart": "10",
        "numberEnd": "28",
        "latStart": 16.913822,
        "lonStart": -99.998944,
        "latEnd": 16.906669,
        "lonEnd": -99.978494,
        "length": 0,
        "surfacetype": 1
      }
    ],
    "id": 21426
  }
]