[
  {
    "type": 1,
    "icao": "ORTL",
    "lat": 30.9355685,
    "lon": 46.089993,
    "communications": [
      {
        "type": 50,
        "frequency": 12270,
        "name": "INFO"
      },
      {
        "type": 53,
        "frequency": 11887,
        "name": "GND"
      },
      {
        "type": 54,
        "frequency": 12212,
        "name": "TWR"
      },
      {
        "type": 55,
        "frequency": 12020,
        "name": "APP"
      }
    ],
    "elevation": 20,
    "tower": true,
    "name": "ALI BASE",
    "runways": [
      {
        "type": 100,
        "width": 45.11,
        "surfaceType": null,
        "numberStart": "12L",
        "numberEnd": "30R",
        "latStart": 30.944694,
        "lonStart": 46.075894,
        "latEnd": 30.930369,
        "lonEnd": 46.106558,
        "length": 0,
        "surfacetype": 2
      },
      {
        "type": 100,
        "width": 45.11,
        "surfaceType": null,
        "numberStart": "12R",
        "numberEnd": "30L",
        "latStart": 30.94015,
        "lonStart": 46.074753,
        "latEnd": 30.927061,
        "lonEnd": 46.102767,
        "length": 0,
        "surfacetype": 2
      }
    ],
    "id": 23741
  }
]