[
  {
    "type": 1,
    "icao": "LTFB",
    "lat": 37.950736,
    "lon": 32.6349945,
    "communications": [
      {
        "type": 54,
        "frequency": 13100,
        "name": "TWR"
      }
    ],
    "elevation": 10,
    "tower": true,
    "name": "EFES",
    "runways": [
      {
        "type": 100,
        "width": 29.87,
        "surfaceType": null,
        "numberStart": "09",
        "numberEnd": "27",
        "latStart": 37.950572,
        "lonStart": 27.319089,
        "latEnd": 37.9509,
        "lonEnd": 27.338892,
        "length": 0,
        "surfacetype": 2
      }
    ],
    "id": 6663
  },
  {
    "type": 1,
    "icao": "LGIK",
    "lat": 37.682715,
    "lon": 32.0102945,
    "communications": [
      {
        "type": 54,
        "frequency": 12230,
        "name": "AFIS"
      }
    ],
    "elevation": 79,
    "tower": true,
    "name": "IKARIA",
    "runways": [
      {
        "type": 100,
        "width": 29.87,
        "surfaceType": null,
        "numberStart": "15",
        "numberEnd": "33",
        "latStart": 37.688194,
        "lonStart": 26.343353,
        "latEnd": 37.677236,
        "lonEnd": 26.350767,
        "length": 0,
        "surfacetype": 1
      }
    ],
    "id": 12267
  },
  {
    "type": 1,
    "icao": "LTBV",
    "lat": 37.1401095,
    "lon": 32.4022985,
    "communications": [
      {
        "type": 54,
        "frequency": 12600,
        "name": "BODRUM TWR"
      }
    ],
    "elevation": 202,
    "tower": true,
    "name": "IMSIK",
    "runways": [
      {
        "type": 100,
        "width": 29.87,
        "surfaceType": null,
        "numberStart": "06",
        "numberEnd": "24",
        "latStart": 37.1372,
        "lonStart": 27.661578,
        "latEnd": 37.143019,
        "lonEnd": 27.677644,
        "length": 0,
        "surfacetype": 1
      }
    ],
    "id": 12291
  },
  {
    "type": 1,
    "icao": "LTFE",
    "lat": 37.2511155,
    "lon": 32.448239,
    "communications": [
      {
        "type": 50,
        "frequency": 12850,
        "name": "ATIS"
      },
      {
        "type": 53,
        "frequency": 12195,
        "name": "GND"
      },
      {
        "type": 54,
        "frequency": 12420,
        "name": "TWR"
      },
      {
        "type": 54,
        "frequency": 12050,
        "name": "TWR"
      },
      {
        "type": 55,
        "frequency": 11950,
        "name": "MENDERES APP"
      },
      {
        "type": 55,
        "frequency": 12870,
        "name": "MENDERES APP"
      }
    ],
    "elevation": 21,
    "tower": true,
    "name": "MILAS BODRUM",
    "runways": [
      {
        "type": 100,
        "width": 45.11,
        "surfaceType": null,
        "numberStart": "11",
        "numberEnd": "29",
        "latStart": 37.254967,
        "lonStart": 27.649214,
        "latEnd": 37.247264,
        "lonEnd": 27.681486,
        "length": 0,
        "surfacetype": 2
      }
    ],
    "id": 16095
  },
  {
    "type": 1,
    "icao": "LGSM",
    "lat": 37.689012000000005,
    "lon": 32.293968,
    "communications": [
      {
        "type": 54,
        "frequency": 12410,
        "name": "TWR"
      },
      {
        "type": 54,
        "frequency": 12210,
        "name": "TWR"
      },
      {
        "type": 55,
        "frequency": 12210,
        "name": "APP"
      },
      {
        "type": 55,
        "frequency": 12410,
        "name": "APP"
      }
    ],
    "elevation": 19,
    "tower": true,
    "name": "SAMOS",
    "runways": [
      {
        "type": 100,
        "width": 45.11,
        "surfaceType": null,
        "numberStart": "09",
        "numberEnd": "27",
        "latStart": 37.689655,
        "lonStart": 26.899567,
        "latEnd": 37.688369,
        "lonEnd": 26.922678,
        "length": 0,
        "surfacetype": 1
      }
    ],
    "id": 21946
  }
]