[
  {
    "type": 1,
    "icao": "UNCC",
    "lat": 55.09175824999999,
    "lon": 69.000523805,
    "communications": [
      {
        "type": 53,
        "frequency": 12750,
        "name": "Severnyi Ground"
      },
      {
        "type": 54,
        "frequency": 12080,
        "name": "Severnyi Tower"
      },
      {
        "type": 55,
        "frequency": 12750,
        "name": "NOVOSIBIRSK APP"
      },
      {
        "type": 56,
        "frequency": 12400,
        "name": "Novosibirsk DEP"
      }
    ],
    "elevation": 558,
    "tower": true,
    "name": "Novosibirsk Severny",
    "runways": [
      {
        "type": 100,
        "width": 70.1,
        "surfaceType": null,
        "numberStart": "02R",
        "numberEnd": "20L",
        "latStart": 55.08425465,
        "lonStart": 82.90272937,
        "latEnd": 55.10421735,
        "lonEnd": 82.92050463,
        "length": 0,
        "surfacetype": 3
      },
      {
        "type": 100,
        "width": 35.05,
        "surfaceType": null,
        "numberStart": "02",
        "numberEnd": "20",
        "latStart": 55.08521817,
        "lonStart": 82.90188014,
        "latEnd": 55.09883383,
        "lonEnd": 82.91312186,
        "length": 0,
        "surfacetype": 2
      },
      {
        "type": 100,
        "width": 60.96,
        "surfaceType": null,
        "numberStart": "16",
        "numberEnd": "34",
        "latStart": 55.09649396,
        "lonStart": 82.91334048,
        "latEnd": 55.08839004,
        "lonEnd": 82.91583752,
        "length": 0,
        "surfacetype": 3
      },
      {
        "type": 100,
        "width": 57.91,
        "surfaceType": null,
        "numberStart": "07",
        "numberEnd": "25",
        "latStart": 55.08770979,
        "lonStart": 82.90585102,
        "latEnd": 55.08894821,
        "lonEnd": 82.91812298,
        "length": 0,
        "surfacetype": 3
      }
    ],
    "id": 18527
  },
  {
    "type": 1,
    "icao": "UNNE",
    "lat": 55.091440500000004,
    "lon": 69.05282872250001,
    "communications": [
      {
        "type": 53,
        "frequency": 12265,
        "name": "Sernistyi Transit"
      },
      {
        "type": 54,
        "frequency": 12475,
        "name": "Sernistyi Tower"
      },
      {
        "type": 55,
        "frequency": 12750,
        "name": "NOVOSIBIRSK APP"
      },
      {
        "type": 56,
        "frequency": 12400,
        "name": "Novosibirsk DEP"
      }
    ],
    "elevation": 665,
    "tower": true,
    "name": "Novosibirsk Yeltsovka",
    "runways": [
      {
        "type": 100,
        "width": 78.33,
        "surfaceType": null,
        "numberStart": "01",
        "numberEnd": "19",
        "latStart": 55.07937155,
        "lonStart": 83.00173529,
        "latEnd": 55.10813645,
        "lonEnd": 83.01694071,
        "length": 0,
        "surfacetype": 1
      },
      {
        "type": 100,
        "width": 60.05,
        "surfaceType": null,
        "numberStart": "01R",
        "numberEnd": "19L",
        "latStart": 55.08050817,
        "lonStart": 83.00369732,
        "latEnd": 55.09774583,
        "lonEnd": 83.01298068,
        "length": 0,
        "surfacetype": 3
      }
    ],
    "id": 18529
  }
]