[
  {
    "type": 1,
    "icao": "OIHS",
    "lat": 35.20162033333333,
    "lon": 41.919867,
    "communications": [
      {
        "type": 54,
        "frequency": 12330,
        "name": "NOGEH TWR"
      },
      {
        "type": 55,
        "frequency": 11910,
        "name": "NOGEH APP"
      },
      {
        "type": 55,
        "frequency": 12545,
        "name": "NOGEH APP"
      },
      {
        "type": 55,
        "frequency": 13410,
        "name": "NOGEH APP"
      }
    ],
    "elevation": 5609,
    "tower": true,
    "name": "HAMADAN MIL",
    "runways": [
      {
        "type": 100,
        "width": 45.11,
        "surfaceType": null,
        "numberStart": "13",
        "numberEnd": "31",
        "latStart": 35.214864,
        "lonStart": 48.656308,
        "latEnd": 35.188972,
        "lonEnd": 48.693975,
        "length": 0,
        "surfacetype": 1
      },
      {
        "type": 100,
        "width": 45.11,
        "surfaceType": null,
        "numberStart": "13R",
        "numberEnd": "31L",
        "latStart": 35.211067,
        "lonStart": 48.654256,
        "latEnd": 35.185986,
        "lonEnd": 48.691094,
        "length": 0,
        "surfacetype": 1
      },
      {
        "type": 100,
        "width": 45.11,
        "surfaceType": null,
        "numberStart": "05",
        "numberEnd": "23",
        "latStart": 35.195311,
        "lonStart": 48.620158,
        "latEnd": 35.213522,
        "lonEnd": 48.657261,
        "length": 0,
        "surfacetype": 1
      }
    ],
    "id": 10973
  },
  {
    "type": 1,
    "icao": "OICS",
    "lat": 35.2458555,
    "lon": 41.1309375,
    "communications": [
      {
        "type": 50,
        "frequency": 12845,
        "name": "INFO"
      },
      {
        "type": 54,
        "frequency": 12190,
        "name": "TWR"
      },
      {
        "type": 54,
        "frequency": 12290,
        "name": "TWR"
      }
    ],
    "elevation": 4522,
    "tower": true,
    "name": "SANANDAJ",
    "runways": [
      {
        "type": 100,
        "width": 45.11,
        "surfaceType": null,
        "numberStart": "01",
        "numberEnd": "19",
        "latStart": 35.234553,
        "lonStart": 47.004717,
        "latEnd": 35.257158,
        "lonEnd": 47.013775,
        "length": 0,
        "surfacetype": 1
      }
    ],
    "id": 22011
  }
]