[
  {
    "type": 1,
    "icao": "RPVW",
    "lat": 11.6743265,
    "lon": 125.47879449999999,
    "communications": [],
    "elevation": 6,
    "tower": false,
    "name": "BORONGAN",
    "runways": [
      {
        "type": 100,
        "width": 28.96,
        "surfaceType": null,
        "numberStart": "02",
        "numberEnd": "20",
        "latStart": 11.669267,
        "lonStart": 125.476817,
        "latEnd": 11.679386,
        "lonEnd": 125.480772,
        "length": 0,
        "surfacetype": 2
      }
    ],
    "id": 1845
  },
  {
    "type": 1,
    "icao": "RPVG",
    "lat": 11.035543,
    "lon": 125.74159399999999,
    "communications": [],
    "elevation": 7,
    "tower": false,
    "name": "GUIUAN",
    "runways": [
      {
        "type": 100,
        "width": 45.11,
        "surfaceType": null,
        "numberStart": "07",
        "numberEnd": "25",
        "latStart": 11.031694,
        "lonStart": 125.732844,
        "latEnd": 11.039392,
        "lonEnd": 125.750344,
        "length": 0,
        "surfacetype": 1
      }
    ],
    "id": 10214
  },
  {
    "type": 1,
    "icao": "RPVA",
    "lat": 11.2276275,
    "lon": 125.02775700000001,
    "communications": [
      {
        "type": 54,
        "frequency": 12210,
        "name": "TACLOBAN TWR"
      },
      {
        "type": 55,
        "frequency": 12080,
        "name": "TACLOBAN APP"
      }
    ],
    "elevation": 10,
    "tower": true,
    "name": "Tacloban Daniel Z Romualdez",
    "runways": [
      {
        "type": 100,
        "width": 45.11,
        "surfaceType": null,
        "numberStart": "18",
        "numberEnd": "36",
        "latStart": 11.237269,
        "lonStart": 125.0284,
        "latEnd": 11.217986,
        "lonEnd": 125.027114,
        "length": 0,
        "surfacetype": 1
      }
    ],
    "id": 24953
  }
]