[
  {
    "type": 17,
    "icao": "SDMB",
    "lat": -23.00111111,
    "lon": -47.11944444,
    "communications": [],
    "elevation": 657,
    "tower": false,
    "name": "[H] Benteler",
    "runways": [
      {
        "type": 102,
        "width": 18,
        "surfaceType": 1,
        "numberStart": "H1",
        "numberEnd": null,
        "latStart": -23.00111111,
        "lonStart": -47.11944444,
        "latEnd": null,
        "lonEnd": null,
        "length": 18
      }
    ],
    "id": 28429
  },
  {
    "type": 17,
    "icao": "SNGL",
    "lat": -23.33194444,
    "lon": -47.55944444,
    "communications": [],
    "elevation": 1949,
    "tower": false,
    "name": "[H] Boa Vista",
    "runways": [
      {
        "type": 102,
        "width": 29.9,
        "surfaceType": 2,
        "numberStart": "H1",
        "numberEnd": null,
        "latStart": -23.33194444,
        "lonStart": -47.55944444,
        "latEnd": null,
        "lonEnd": null,
        "length": 29.9
      }
    ],
    "id": 28509
  },
  {
    "type": 17,
    "icao": "SWUF",
    "lat": -23.25805556,
    "lon": -47.66055556,
    "communications": [],
    "elevation": 628,
    "tower": false,
    "name": "[H] Cervejaria Petropolis",
    "runways": [
      {
        "type": 102,
        "width": 21,
        "surfaceType": 3,
        "numberStart": "H1",
        "numberEnd": null,
        "latStart": -23.25805556,
        "lonStart": -47.66055556,
        "latEnd": null,
        "lonEnd": null,
        "length": 21
      }
    ],
    "id": 28866
  },
  {
    "type": 17,
    "icao": "SJVJ",
    "lat": -23.12555556,
    "lon": -47.70888889,
    "communications": [],
    "elevation": 511,
    "tower": false,
    "name": "[H] Chacara da Capela",
    "runways": [
      {
        "type": 102,
        "width": 18,
        "surfaceType": 3,
        "numberStart": "H1",
        "numberEnd": null,
        "latStart": -23.12555556,
        "lonStart": -47.70888889,
        "latEnd": null,
        "lonEnd": null,
        "length": 18
      }
    ],
    "id": 28876
  },
  {
    "type": 17,
    "icao": "SSIZ",
    "lat": -23.05916667,
    "lon": -47.0625,
    "communications": [],
    "elevation": 687,
    "tower": false,
    "name": "[H] Condominio Fazenda da Grama",
    "runways": [
      {
        "type": 102,
        "width": 19.5,
        "surfaceType": 2,
        "numberStart": "H1",
        "numberEnd": null,
        "latStart": -23.05916667,
        "lonStart": -47.0625,
        "latEnd": null,
        "lonEnd": null,
        "length": 19.5
      }
    ],
    "id": 29114
  },
  {
    "type": 17,
    "icao": "SICI",
    "lat": -23.50944444,
    "lon": -47.45805556,
    "communications": [],
    "elevation": 633,
    "tower": false,
    "name": "[H] Conjunto Hospitalar de Sorocaba",
    "runways": [
      {
        "type": 102,
        "width": 19.5,
        "surfaceType": 2,
        "numberStart": "H1",
        "numberEnd": null,
        "latStart": -23.50944444,
        "lonStart": -47.45805556,
        "latEnd": null,
        "lonEnd": null,
        "length": 19.5
      }
    ],
    "id": 29123
  },
  {
    "type": 17,
    "icao": "SSUJ",
    "lat": -23.60722222,
    "lon": -47.26305556,
    "communications": [],
    "elevation": 881,
    "tower": false,
    "name": "[H] Estrada do Iate Clube",
    "runways": [
      {
        "type": 102,
        "width": 20.1,
        "surfaceType": 2,
        "numberStart": "H1",
        "numberEnd": null,
        "latStart": -23.60722222,
        "lonStart": -47.26305556,
        "latEnd": null,
        "lonEnd": null,
        "length": 20.1
      }
    ],
    "id": 29586
  },
  {
    "type": 17,
    "icao": "SJBM",
    "lat": -23.36138889,
    "lon": -47.56861111,
    "communications": [],
    "elevation": 1875,
    "tower": false,
    "name": "[H] Fazenda Boa Vista",
    "runways": [
      {
        "type": 102,
        "width": 24.1,
        "surfaceType": 2,
        "numberStart": "H1",
        "numberEnd": null,
        "latStart": -23.36138889,
        "lonStart": -47.56861111,
        "latEnd": null,
        "lonEnd": null,
        "length": 24.1
      }
    ],
    "id": 29663
  },
  {
    "type": 17,
    "icao": "SDQI",
    "lat": -23.07222222,
    "lon": -47.09083333,
    "communications": [],
    "elevation": 720,
    "tower": false,
    "name": "[H] Fazenda Quilombo",
    "runways": [
      {
        "type": 102,
        "width": 22,
        "surfaceType": 2,
        "numberStart": "H1",
        "numberEnd": null,
        "latStart": -23.07222222,
        "lonStart": -47.09083333,
        "latEnd": null,
        "lonEnd": null,
        "length": 22
      }
    ],
    "id": 29685
  },
  {
    "type": 17,
    "icao": "SIZP",
    "lat": -23.05611111,
    "lon": -47.07916667,
    "communications": [],
    "elevation": 666,
    "tower": false,
    "name": "[H] Fazenda Sant' Anna da Grama",
    "runways": [
      {
        "type": 102,
        "width": 20.1,
        "surfaceType": 2,
        "numberStart": "H1",
        "numberEnd": null,
        "latStart": -23.05611111,
        "lonStart": -47.07916667,
        "latEnd": null,
        "lonEnd": null,
        "length": 20.1
      }
    ],
    "id": 29687
  },
  {
    "type": 17,
    "icao": "SIXR",
    "lat": -23.55,
    "lon": -47.36666667,
    "communications": [],
    "elevation": 791,
    "tower": false,
    "name": "[H] Fazenda Santa Maria",
    "runways": [
      {
        "type": 102,
        "width": 28,
        "surfaceType": 2,
        "numberStart": "H1",
        "numberEnd": null,
        "latStart": -23.55,
        "lonStart": -47.36666667,
        "latEnd": null,
        "lonEnd": null,
        "length": 28
      }
    ],
    "id": 29691
  },
  {
    "type": 17,
    "icao": "SSWY",
    "lat": -23.04861111,
    "lon": -47.16722222,
    "communications": [],
    "elevation": 2100,
    "tower": false,
    "name": "[H] Flamboyant",
    "runways": [
      {
        "type": 102,
        "width": 24.1,
        "surfaceType": 2,
        "numberStart": "H1",
        "numberEnd": null,
        "latStart": -23.04861111,
        "lonStart": -47.16722222,
        "latEnd": null,
        "lonEnd": null,
        "length": 24.1
      }
    ],
    "id": 29754
  },
  {
    "type": 17,
    "icao": "SDZD",
    "lat": -23.42527778,
    "lon": -47.36194444,
    "communications": [],
    "elevation": 589,
    "tower": false,
    "name": "[H] Flextronics Internacional",
    "runways": [
      {
        "type": 102,
        "width": 24.1,
        "surfaceType": 3,
        "numberStart": "H1",
        "numberEnd": null,
        "latStart": -23.42527778,
        "lonStart": -47.36194444,
        "latEnd": null,
        "lonEnd": null,
        "length": 24.1
      }
    ],
    "id": 29757
  },
  {
    "type": 17,
    "icao": "SJOF",
    "lat": -23.07361111,
    "lon": -47.7275,
    "communications": [],
    "elevation": 524,
    "tower": false,
    "name": "[H] Frango Forte",
    "runways": [
      {
        "type": 102,
        "width": 20.1,
        "surfaceType": 2,
        "numberStart": "H1",
        "numberEnd": null,
        "latStart": -23.07361111,
        "lonStart": -47.7275,
        "latEnd": null,
        "lonEnd": null,
        "length": 20.1
      }
    ],
    "id": 29819
  },
  {
    "type": 17,
    "icao": "SDXH",
    "lat": -23.25111111,
    "lon": -47.32527778,
    "communications": [],
    "elevation": 855,
    "tower": false,
    "name": "[H] Gandini",
    "runways": [
      {
        "type": 102,
        "width": 20.1,
        "surfaceType": 2,
        "numberStart": "H1",
        "numberEnd": null,
        "latStart": -23.25111111,
        "lonStart": -47.32527778,
        "latEnd": null,
        "lonEnd": null,
        "length": 20.1
      }
    ],
    "id": 29879
  },
  {
    "type": 17,
    "icao": "SJPC",
    "lat": -23.45305556,
    "lon": -47.42111111,
    "communications": [],
    "elevation": 605,
    "tower": false,
    "name": "[H] Giannone Flavor",
    "runways": [
      {
        "type": 102,
        "width": 19.5,
        "surfaceType": 2,
        "numberStart": "H1",
        "numberEnd": null,
        "latStart": -23.45305556,
        "lonStart": -47.42111111,
        "latEnd": null,
        "lonEnd": null,
        "length": 19.5
      }
    ],
    "id": 29923
  },
  {
    "type": 17,
    "icao": "SJOE",
    "lat": -23.24638889,
    "lon": -47.42472222,
    "communications": [],
    "elevation": 526,
    "tower": false,
    "name": "[H] Haras Cachoeira",
    "runways": [
      {
        "type": 102,
        "width": 20.1,
        "surfaceType": 3,
        "numberStart": "H1",
        "numberEnd": null,
        "latStart": -23.24638889,
        "lonStart": -47.42472222,
        "latEnd": null,
        "lonEnd": null,
        "length": 20.1
      }
    ],
    "id": 30121
  },
  {
    "type": 17,
    "icao": "SWDP",
    "lat": -23.175,
    "lon": -47.92416667,
    "communications": [],
    "elevation": 2062,
    "tower": false,
    "name": "[H] Haras da Mata",
    "runways": [
      {
        "type": 102,
        "width": 21,
        "surfaceType": 2,
        "numberStart": "H1",
        "numberEnd": null,
        "latStart": -23.175,
        "lonStart": -47.92416667,
        "latEnd": null,
        "lonEnd": null,
        "length": 21
      }
    ],
    "id": 30123
  },
  {
    "type": 17,
    "icao": "SNZI",
    "lat": -23.05944444,
    "lon": -47.15972222,
    "communications": [],
    "elevation": 631,
    "tower": false,
    "name": "[H] Helvetia",
    "runways": [
      {
        "type": 102,
        "width": 19.5,
        "surfaceType": 2,
        "numberStart": "H1",
        "numberEnd": null,
        "latStart": -23.05944444,
        "lonStart": -47.15972222,
        "latEnd": null,
        "lonEnd": null,
        "length": 19.5
      }
    ],
    "id": 30206
  },
  {
    "type": 17,
    "icao": "SIKH",
    "lat": -23.08416667,
    "lon": -47.18305556,
    "communications": [],
    "elevation": 601,
    "tower": false,
    "name": "[H] Hotel Vitoria",
    "runways": [
      {
        "type": 102,
        "width": 18,
        "surfaceType": 2,
        "numberStart": "H1",
        "numberEnd": null,
        "latStart": -23.08416667,
        "lonStart": -47.18305556,
        "latEnd": null,
        "lonEnd": null,
        "length": 18
      }
    ],
    "id": 30385
  },
  {
    "type": 17,
    "icao": "SDVB",
    "lat": -23.43777778,
    "lon": -47.41416667,
    "communications": [],
    "elevation": 629,
    "tower": false,
    "name": "[H] INA Brasil",
    "runways": [
      {
        "type": 102,
        "width": 20.1,
        "surfaceType": 2,
        "numberStart": "H1",
        "numberEnd": null,
        "latStart": -23.43777778,
        "lonStart": -47.41416667,
        "latEnd": null,
        "lonEnd": null,
        "length": 20.1
      }
    ],
    "id": 30452
  },
  {
    "type": 17,
    "icao": "SDKU",
    "lat": -23.06083333,
    "lon": -47.18527778,
    "communications": [],
    "elevation": 705,
    "tower": false,
    "name": "[H] Itanhanga",
    "runways": [
      {
        "type": 102,
        "width": 21,
        "surfaceType": 3,
        "numberStart": "H1",
        "numberEnd": null,
        "latStart": -23.06083333,
        "lonStart": -47.18527778,
        "latEnd": null,
        "lonEnd": null,
        "length": 21
      }
    ],
    "id": 30548
  },
  {
    "type": 17,
    "icao": "SDBJ",
    "lat": -23.70944444,
    "lon": -47.42555556,
    "communications": [],
    "elevation": 810,
    "tower": false,
    "name": "[H] Jimenez",
    "runways": [
      {
        "type": 102,
        "width": 18,
        "surfaceType": 2,
        "numberStart": "H1",
        "numberEnd": null,
        "latStart": -23.70944444,
        "lonStart": -47.42555556,
        "latEnd": null,
        "lonEnd": null,
        "length": 18
      }
    ],
    "id": 30618
  },
  {
    "type": 17,
    "icao": "SIHO",
    "lat": -23.28388889,
    "lon": -47.26611111,
    "communications": [],
    "elevation": 632,
    "tower": false,
    "name": "[H] Kia",
    "runways": [
      {
        "type": 102,
        "width": 20.1,
        "surfaceType": 2,
        "numberStart": "H1",
        "numberEnd": null,
        "latStart": -23.28388889,
        "lonStart": -47.26611111,
        "latEnd": null,
        "lonEnd": null,
        "length": 20.1
      }
    ],
    "id": 30725
  },
  {
    "type": 17,
    "icao": "SJKF",
    "lat": -23.50861111,
    "lon": -47.58194444,
    "communications": [],
    "elevation": 610,
    "tower": false,
    "name": "[H] Lago Azul",
    "runways": [
      {
        "type": 102,
        "width": 18,
        "surfaceType": 3,
        "numberStart": "H1",
        "numberEnd": null,
        "latStart": -23.50861111,
        "lonStart": -47.58194444,
        "latEnd": null,
        "lonEnd": null,
        "length": 18
      }
    ],
    "id": 30809
  },
  {
    "type": 17,
    "icao": "SILP",
    "lat": -23.1525,
    "lon": -47.26777778,
    "communications": [],
    "elevation": 604,
    "tower": false,
    "name": "[H] Lojas Cem",
    "runways": [
      {
        "type": 102,
        "width": 21,
        "surfaceType": 2,
        "numberStart": "H1",
        "numberEnd": null,
        "latStart": -23.1525,
        "lonStart": -47.26777778,
        "latEnd": null,
        "lonEnd": null,
        "length": 21
      }
    ],
    "id": 30926
  },
  {
    "type": 17,
    "icao": "SJHY",
    "lat": -23.55916667,
    "lon": -47.19972222,
    "communications": [],
    "elevation": 832,
    "tower": false,
    "name": "[H] Paiva Air",
    "runways": [
      {
        "type": 102,
        "width": 21,
        "surfaceType": 2,
        "numberStart": "H1",
        "numberEnd": null,
        "latStart": -23.55916667,
        "lonStart": -47.19972222,
        "latEnd": null,
        "lonEnd": null,
        "length": 21
      }
    ],
    "id": 31855
  },
  {
    "type": 17,
    "icao": "SDPE",
    "lat": -23.41277778,
    "lon": -47.42555556,
    "communications": [],
    "elevation": 558,
    "tower": false,
    "name": "[H] Pirelli Eden",
    "runways": [
      {
        "type": 102,
        "width": 20.1,
        "surfaceType": 3,
        "numberStart": "H1",
        "numberEnd": null,
        "latStart": -23.41277778,
        "lonStart": -47.42555556,
        "latEnd": null,
        "lonEnd": null,
        "length": 20.1
      }
    ],
    "id": 32040
  },
  {
    "type": 17,
    "icao": "SWKD",
    "lat": -23.25694444,
    "lon": -47.04111111,
    "communications": [],
    "elevation": 2812,
    "tower": false,
    "name": "[H] Portal do Japy",
    "runways": [
      {
        "type": 102,
        "width": 21,
        "surfaceType": 2,
        "numberStart": "H1",
        "numberEnd": null,
        "latStart": -23.25694444,
        "lonStart": -47.04111111,
        "latEnd": null,
        "lonEnd": null,
        "length": 21
      }
    ],
    "id": 32112
  },
  {
    "type": 17,
    "icao": "SIZD",
    "lat": -23.38722222,
    "lon": -47.33027778,
    "communications": [],
    "elevation": 638,
    "tower": false,
    "name": "[H] Sabre",
    "runways": [
      {
        "type": 102,
        "width": 19.5,
        "surfaceType": 3,
        "numberStart": "H1",
        "numberEnd": null,
        "latStart": -23.38722222,
        "lonStart": -47.33027778,
        "latEnd": null,
        "lonEnd": null,
        "length": 19.5
      }
    ],
    "id": 32505
  },
  {
    "type": 17,
    "icao": "SJFS",
    "lat": -23.20805556,
    "lon": -47.48027778,
    "communications": [],
    "elevation": 450,
    "tower": false,
    "name": "[H] Sao Joao e Sao Marcos",
    "runways": [
      {
        "type": 102,
        "width": 21,
        "surfaceType": 3,
        "numberStart": "H1",
        "numberEnd": null,
        "latStart": -23.20805556,
        "lonStart": -47.48027778,
        "latEnd": null,
        "lonEnd": null,
        "length": 21
      }
    ],
    "id": 32568
  },
  {
    "type": 17,
    "icao": "SITP",
    "lat": -23.60222222,
    "lon": -47.27333333,
    "communications": [],
    "elevation": 833,
    "tower": false,
    "name": "[H] Sitio Santa Izabel",
    "runways": [
      {
        "type": 102,
        "width": 24.1,
        "surfaceType": 2,
        "numberStart": "H1",
        "numberEnd": null,
        "latStart": -23.60222222,
        "lonStart": -47.27333333,
        "latEnd": null,
        "lonEnd": null,
        "length": 24.1
      }
    ],
    "id": 32730
  },
  {
    "type": 17,
    "icao": "SWWS",
    "lat": -23.44527778,
    "lon": -47.38944444,
    "communications": [],
    "elevation": 2020,
    "tower": false,
    "name": "[H] Sorocaba Business Park",
    "runways": [
      {
        "type": 102,
        "width": 21,
        "surfaceType": 2,
        "numberStart": "H1",
        "numberEnd": null,
        "latStart": -23.44527778,
        "lonStart": -47.38944444,
        "latEnd": null,
        "lonEnd": null,
        "length": 21
      }
    ],
    "id": 32778
  },
  {
    "type": 17,
    "icao": "SDSR",
    "lat": -23.65861111,
    "lon": -47.10277778,
    "communications": [],
    "elevation": 874,
    "tower": false,
    "name": "[H] Subestacao Sao Roque",
    "runways": [
      {
        "type": 102,
        "width": 34.1,
        "surfaceType": 2,
        "numberStart": "H1",
        "numberEnd": null,
        "latStart": -23.65861111,
        "lonStart": -47.10277778,
        "latEnd": null,
        "lonEnd": null,
        "length": 34.1
      }
    ],
    "id": 33113
  },
  {
    "type": 17,
    "icao": "SDTA",
    "lat": -23.33194444,
    "lon": -47.88,
    "communications": [],
    "elevation": 633,
    "tower": false,
    "name": "[H] Tatui",
    "runways": [
      {
        "type": 102,
        "width": 18,
        "surfaceType": 3,
        "numberStart": "H1",
        "numberEnd": null,
        "latStart": -23.33194444,
        "lonStart": -47.88,
        "latEnd": null,
        "lonEnd": null,
        "length": 18
      }
    ],
    "id": 33220
  },
  {
    "type": 17,
    "icao": "SJZV",
    "lat": -23.29833333,
    "lon": -47.295,
    "communications": [],
    "elevation": 621,
    "tower": false,
    "name": "[H] Terras de Sao Jose",
    "runways": [
      {
        "type": 102,
        "width": 21,
        "surfaceType": 1,
        "numberStart": "H1",
        "numberEnd": null,
        "latStart": -23.29833333,
        "lonStart": -47.295,
        "latEnd": null,
        "lonEnd": null,
        "length": 21
      }
    ],
    "id": 33257
  },
  {
    "type": 17,
    "icao": "SIVS",
    "lat": -23.61111111,
    "lon": -47.00055556,
    "communications": [],
    "elevation": 919,
    "tower": false,
    "name": "[H] Vicente Spisso",
    "runways": [
      {
        "type": 102,
        "width": 20.1,
        "surfaceType": 3,
        "numberStart": "H1",
        "numberEnd": null,
        "latStart": -23.61111111,
        "lonStart": -47.00055556,
        "latEnd": null,
        "lonEnd": null,
        "length": 20.1
      }
    ],
    "id": 33623
  },
  {
    "type": 17,
    "icao": "SJRE",
    "lat": -23.04972222,
    "lon": -47.38972222,
    "communications": [],
    "elevation": 602,
    "tower": false,
    "name": "[H] Vila Adail",
    "runways": [
      {
        "type": 102,
        "width": 24.1,
        "surfaceType": 2,
        "numberStart": "H1",
        "numberEnd": null,
        "latStart": -23.04972222,
        "lonStart": -47.38972222,
        "latEnd": null,
        "lonEnd": null,
        "length": 24.1
      }
    ],
    "id": 33636
  },
  {
    "type": 17,
    "icao": "SSVS",
    "lat": -23.1275,
    "lon": -47.00277778,
    "communications": [],
    "elevation": 2479,
    "tower": false,
    "name": "[H] Zeze",
    "runways": [
      {
        "type": 102,
        "width": 18.9,
        "surfaceType": 2,
        "numberStart": "H1",
        "numberEnd": null,
        "latStart": -23.1275,
        "lonStart": -47.00277778,
        "latEnd": null,
        "lonEnd": null,
        "length": 18.9
      }
    ],
    "id": 33941
  }
]